{"class":"VERSION","release":"3.6","rev":"3.6","proto_major":3,"proto_minor":7}
{"class":"DEVICES","devices":[{"class":"DEVICE","path":"gpsd://192.168.50.240:61000","activated":"2015-09-24T10:53:35.735Z","driver":"JSON slave driver"}]}
{"class":"WATCH","enable":true,"json":true,"nmea":false,"raw":0,"scaled":false,"timing":false}
{"ept":0.001,"eps":0.1,"epv":1.0,"lon":4.841148136434836,"time":"2015-09-24T10:54:02.146Z","epd":0.1,"epx":1.0,"speed":9.607694803026446,"alt":0.0,"epy":1.0,"track":326.89482532985085,"class":"TPV","lat":52.17444377921467,"mode":3}
{"ept":0.001,"eps":0.1,"epv":1.0,"lon":4.841071139487844,"time":"2015-09-24T10:54:03.146Z","epd":0.1,"epx":1.0,"speed":9.607694803026446,"alt":0.0,"epy":1.0,"track":326.89482532985085,"class":"TPV","lat":52.1745161572638,"mode":3}
{"ept":0.001,"eps":0.1,"epv":1.0,"lon":4.840994142540851,"time":"2015-09-24T10:54:04.146Z","epd":0.1,"epx":1.0,"speed":9.607694803026446,"alt":0.0,"epy":1.0,"track":326.89482532985085,"class":"TPV","lat":52.17458853531294,"mode":3}
{"ept":0.001,"eps":0.1,"epv":1.0,"lon":4.840917145593858,"time":"2015-09-24T10:54:05.146Z","epd":0.1,"epx":1.0,"speed":9.607694803026446,"alt":0.0,"epy":1.0,"track":326.89482532985085,"class":"TPV","lat":52.174660913362075,"mode":3}
{"ept":0.001,"eps":0.1,"epv":1.0,"lon":4.8408401486468655,"time":"2015-09-24T10:54:06.146Z","epd":0.1,"epx":1.0,"speed":9.607694803026446,"alt":0.0,"epy":1.0,"track":326.89482532985085,"class":"TPV","lat":52.17473329141121,"mode":3}
{"ept":0.001,"eps":0.1,"epv":1.0,"lon":4.840763151699873,"time":"2015-09-24T10:54:07.147Z","epd":0.1,"epx":1.0,"speed":9.607694803026446,"alt":0.0,"epy":1.0,"track":326.89482532985085,"class":"TPV","lat":52.17480566946034,"mode":3}
{"ept":0.001,"eps":0.1,"epv":1.0,"lon":4.8406861547528806,"time":"2015-09-24T10:54:08.147Z","epd":0.1,"epx":1.0,"speed":9.607694803026446,"alt":0.0,"epy":1.0,"track":326.89482532985085,"class":"TPV","lat":52.17487804750947,"mode":3}
{"ept":0.001,"eps":0.1,"epv":1.0,"lon":4.840609157805888,"time":"2015-09-24T10:54:09.147Z","epd":0.1,"epx":1.0,"speed":9.607694803026446,"alt":0.0,"epy":1.0,"track":326.89482532985085,"class":"TPV","lat":52.174950425558606,"mode":3}
{"ept":0.001,"eps":0.1,"epv":1.0,"lon":4.840532160858896,"time":"2015-09-24T10:54:10.146Z","epd":0.1,"epx":1.0,"speed":9.607694803026446,"alt":0.0,"epy":1.0,"track":326.89482532985085,"class":"TPV","lat":52.17502280360774,"mode":3}
{"ept":0.001,"eps":0.1,"epv":1.0,"lon":4.840455163911902,"time":"2015-09-24T10:54:11.146Z","epd":0.1,"epx":1.0,"speed":9.607694803026446,"alt":0.0,"epy":1.0,"track":326.89482532985085,"class":"TPV","lat":52.17509518165687,"mode":3}
{"ept":0.001,"eps":0.1,"epv":1.0,"lon":4.84037816696491,"time":"2015-09-24T10:54:12.146Z","epd":0.1,"epx":1.0,"speed":9.607694803026446,"alt":0.0,"epy":1.0,"track":326.89482532985085,"class":"TPV","lat":52.175167559706004,"mode":3}
{"ept":0.001,"eps":0.1,"epv":1.0,"lon":4.840301170017917,"time":"2015-09-24T10:54:13.146Z","epd":0.1,"epx":1.0,"speed":9.607694803026446,"alt":0.0,"epy":1.0,"track":326.89482532985085,"class":"TPV","lat":52.17523993775514,"mode":3}
{"ept":0.001,"eps":0.1,"epv":1.0,"lon":4.840224173070925,"time":"2015-09-24T10:54:14.146Z","epd":0.1,"epx":1.0,"speed":9.607694803026446,"alt":0.0,"epy":1.0,"track":326.89482532985085,"class":"TPV","lat":52.17531231580427,"mode":3}
{"ept":0.001,"eps":0.1,"epv":1.0,"lon":4.840147176123932,"time":"2015-09-24T10:54:15.146Z","epd":0.1,"epx":1.0,"speed":9.607694803026446,"alt":0.0,"epy":1.0,"track":326.89482532985085,"class":"TPV","lat":52.1753846938534,"mode":3}
{"ept":0.001,"eps":0.1,"epv":1.0,"lon":4.840070179176939,"time":"2015-09-24T10:54:16.146Z","epd":0.1,"epx":1.0,"speed":9.607694803026446,"alt":0.0,"epy":1.0,"track":326.89482532985085,"class":"TPV","lat":52.17545707190254,"mode":3}
{"ept":0.001,"eps":0.1,"epv":1.0,"lon":4.8399931822299465,"time":"2015-09-24T10:54:17.146Z","epd":0.1,"epx":1.0,"speed":9.607694803026446,"alt":0.0,"epy":1.0,"track":326.89482532985085,"class":"TPV","lat":52.175529449951675,"mode":3}
{"ept":0.001,"eps":0.1,"epv":1.0,"lon":4.839916185282954,"time":"2015-09-24T10:54:18.146Z","epd":0.1,"epx":1.0,"speed":9.607694803026446,"alt":0.0,"epy":1.0,"track":326.89482532985085,"class":"TPV","lat":52.17560182800081,"mode":3}
{"ept":0.001,"eps":0.1,"epv":1.0,"lon":4.8398391883359615,"time":"2015-09-24T10:54:19.146Z","epd":0.1,"epx":1.0,"speed":9.607694803026446,"alt":0.0,"epy":1.0,"track":326.89482532985085,"class":"TPV","lat":52.17567420604994,"mode":3}
{"ept":0.001,"eps":0.1,"epv":1.0,"lon":4.839762191388969,"time":"2015-09-24T10:54:20.146Z","epd":0.1,"epx":1.0,"speed":9.607694803026446,"alt":0.0,"epy":1.0,"track":326.89482532985085,"class":"TPV","lat":52.17574658409907,"mode":3}
{"ept":0.001,"eps":0.1,"epv":1.0,"lon":4.839685194441976,"time":"2015-09-24T10:54:21.146Z","epd":0.1,"epx":1.0,"speed":9.607694803026446,"alt":0.0,"epy":1.0,"track":326.89482532985085,"class":"TPV","lat":52.175818962148206,"mode":3}
{"ept":0.001,"eps":0.1,"epv":1.0,"lon":4.839608197494983,"time":"2015-09-24T10:54:22.146Z","epd":0.1,"epx":1.0,"speed":9.607694803026446,"alt":0.0,"epy":1.0,"track":326.89482532985085,"class":"TPV","lat":52.17589134019734,"mode":3}
{"ept":0.001,"eps":0.1,"epv":1.0,"lon":4.839531200547991,"time":"2015-09-24T10:54:23.146Z","epd":0.1,"epx":1.0,"speed":9.607694803026446,"alt":0.0,"epy":1.0,"track":326.89482532985085,"class":"TPV","lat":52.17596371824647,"mode":3}
{"ept":0.001,"eps":0.1,"epv":1.0,"lon":4.839454203600998,"time":"2015-09-24T10:54:24.146Z","epd":0.1,"epx":1.0,"speed":9.607694803026446,"alt":0.0,"epy":1.0,"track":326.89482532985085,"class":"TPV","lat":52.176036096295604,"mode":3}
{"ept":0.001,"eps":0.1,"epv":1.0,"lon":4.839377206654006,"time":"2015-09-24T10:54:25.146Z","epd":0.1,"epx":1.0,"speed":9.607694803026446,"alt":0.0,"epy":1.0,"track":326.89482532985085,"class":"TPV","lat":52.17610847434474,"mode":3}
{"ept":0.001,"eps":0.1,"epv":1.0,"lon":4.839300209707012,"time":"2015-09-24T10:54:26.146Z","epd":0.1,"epx":1.0,"speed":9.607694803026446,"alt":0.0,"epy":1.0,"track":326.89482532985085,"class":"TPV","lat":52.17618085239387,"mode":3}
{"ept":0.001,"eps":0.1,"epv":1.0,"lon":4.83922321276002,"time":"2015-09-24T10:54:27.146Z","epd":0.1,"epx":1.0,"speed":9.607694803026446,"alt":0.0,"epy":1.0,"track":326.89482532985085,"class":"TPV","lat":52.176253230443,"mode":3}
{"ept":0.001,"eps":0.1,"epv":1.0,"lon":4.839146215813027,"time":"2015-09-24T10:54:28.146Z","epd":0.1,"epx":1.0,"speed":9.607694803026446,"alt":0.0,"epy":1.0,"track":326.89482532985085,"class":"TPV","lat":52.17632560849214,"mode":3}
{"ept":0.001,"eps":0.1,"epv":1.0,"lon":4.839069218866035,"time":"2015-09-24T10:54:29.146Z","epd":0.1,"epx":1.0,"speed":9.607694803026446,"alt":0.0,"epy":1.0,"track":326.89482532985085,"class":"TPV","lat":52.176397986541275,"mode":3}
{"ept":0.001,"eps":0.1,"epv":1.0,"lon":4.838992221919042,"time":"2015-09-24T10:54:30.146Z","epd":0.1,"epx":1.0,"speed":9.607694803026446,"alt":0.0,"epy":1.0,"track":326.89482532985085,"class":"TPV","lat":52.17647036459041,"mode":3}
{"ept":0.001,"eps":0.1,"epv":1.0,"lon":4.83891522497205,"time":"2015-09-24T10:54:31.146Z","epd":0.1,"epx":1.0,"speed":9.607694803026446,"alt":0.0,"epy":1.0,"track":326.89482532985085,"class":"TPV","lat":52.17654274263954,"mode":3}
{"ept":0.001,"eps":0.1,"epv":1.0,"lon":4.838838228025057,"time":"2015-09-24T10:54:32.146Z","epd":0.1,"epx":1.0,"speed":9.607694803026446,"alt":0.0,"epy":1.0,"track":326.89482532985085,"class":"TPV","lat":52.17661512068867,"mode":3}
{"ept":0.001,"eps":0.1,"epv":1.0,"lon":4.838761231078064,"time":"2015-09-24T10:54:33.146Z","epd":0.1,"epx":1.0,"speed":9.607694803026446,"alt":0.0,"epy":1.0,"track":326.89482532985085,"class":"TPV","lat":52.176687498737806,"mode":3}
{"ept":0.001,"eps":0.1,"epv":1.0,"lon":4.838684234131072,"time":"2015-09-24T10:54:34.146Z","epd":0.1,"epx":1.0,"speed":9.607694803026446,"alt":0.0,"epy":1.0,"track":326.89482532985085,"class":"TPV","lat":52.17675987678694,"mode":3}
{"ept":0.001,"eps":0.1,"epv":1.0,"lon":4.838607237184079,"time":"2015-09-24T10:54:35.146Z","epd":0.1,"epx":1.0,"speed":9.607694803026446,"alt":0.0,"epy":1.0,"track":326.89482532985085,"class":"TPV","lat":52.17683225483607,"mode":3}
{"ept":0.001,"eps":0.1,"epv":1.0,"lon":4.838530240237087,"time":"2015-09-24T10:54:36.146Z","epd":0.1,"epx":1.0,"speed":9.607694803026446,"alt":0.0,"epy":1.0,"track":326.89482532985085,"class":"TPV","lat":52.176904632885204,"mode":3}
{"ept":0.001,"eps":0.1,"epv":1.0,"lon":4.838453243290093,"time":"2015-09-24T10:54:37.146Z","epd":0.1,"epx":1.0,"speed":9.607694803026446,"alt":0.0,"epy":1.0,"track":326.89482532985085,"class":"TPV","lat":52.17697701093434,"mode":3}
{"ept":0.001,"eps":0.1,"epv":1.0,"lon":4.838376246343101,"time":"2015-09-24T10:54:38.146Z","epd":0.1,"epx":1.0,"speed":9.607694803026446,"alt":0.0,"epy":1.0,"track":326.89482532985085,"class":"TPV","lat":52.17704938898347,"mode":3}
{"ept":0.001,"eps":0.1,"epv":1.0,"lon":4.838299249396108,"time":"2015-09-24T10:54:39.146Z","epd":0.1,"epx":1.0,"speed":9.607694803026446,"alt":0.0,"epy":1.0,"track":326.89482532985085,"class":"TPV","lat":52.1771217670326,"mode":3}
{"ept":0.001,"eps":0.1,"epv":1.0,"lon":4.838222252449116,"time":"2015-09-24T10:54:40.146Z","epd":0.1,"epx":1.0,"speed":9.607694803026446,"alt":0.0,"epy":1.0,"track":326.89482532985085,"class":"TPV","lat":52.17719414508174,"mode":3}
{"ept":0.001,"eps":0.1,"epv":1.0,"lon":4.838145255502123,"time":"2015-09-24T10:54:41.146Z","epd":0.1,"epx":1.0,"speed":9.607694803026446,"alt":0.0,"epy":1.0,"track":326.89482532985085,"class":"TPV","lat":52.177266523130875,"mode":3}
{"ept":0.001,"eps":0.1,"epv":1.0,"lon":4.83806825855513,"time":"2015-09-24T10:54:42.146Z","epd":0.1,"epx":1.0,"speed":9.607694803026446,"alt":0.0,"epy":1.0,"track":326.89482532985085,"class":"TPV","lat":52.17733890118001,"mode":3}
{"ept":0.001,"eps":0.1,"epv":1.0,"lon":4.8379912616081375,"time":"2015-09-24T10:54:43.146Z","epd":0.1,"epx":1.0,"speed":9.607694803026446,"alt":0.0,"epy":1.0,"track":326.89482532985085,"class":"TPV","lat":52.17741127922914,"mode":3}
{"ept":0.001,"eps":0.1,"epv":1.0,"lon":4.837914264661145,"time":"2015-09-24T10:54:44.146Z","epd":0.1,"epx":1.0,"speed":9.607694803026446,"alt":0.0,"epy":1.0,"track":326.89482532985085,"class":"TPV","lat":52.17748365727827,"mode":3}
{"ept":0.001,"eps":0.1,"epv":1.0,"lon":4.837837267714153,"time":"2015-09-24T10:54:45.146Z","epd":0.1,"epx":1.0,"speed":9.607694803026446,"alt":0.0,"epy":1.0,"track":326.89482532985085,"class":"TPV","lat":52.177556035327406,"mode":3}
{"ept":0.001,"eps":0.1,"epv":1.0,"lon":4.83776027076716,"time":"2015-09-24T10:54:46.146Z","epd":0.1,"epx":1.0,"speed":9.607694803026446,"alt":0.0,"epy":1.0,"track":326.89482532985085,"class":"TPV","lat":52.17762841337654,"mode":3}
{"ept":0.001,"eps":0.1,"epv":1.0,"lon":4.837683273820167,"time":"2015-09-24T10:54:47.146Z","epd":0.1,"epx":1.0,"speed":9.607694803026446,"alt":0.0,"epy":1.0,"track":326.89482532985085,"class":"TPV","lat":52.17770079142567,"mode":3}
{"ept":0.001,"eps":0.1,"epv":1.0,"lon":4.837606276873174,"time":"2015-09-24T10:54:48.146Z","epd":0.1,"epx":1.0,"speed":9.607694803026446,"alt":0.0,"epy":1.0,"track":326.89482532985085,"class":"TPV","lat":52.177773169474804,"mode":3}
{"ept":0.001,"eps":0.1,"epv":1.0,"lon":4.837529279926182,"time":"2015-09-24T10:54:49.146Z","epd":0.1,"epx":1.0,"speed":9.607694803026446,"alt":0.0,"epy":1.0,"track":326.89482532985085,"class":"TPV","lat":52.17784554752394,"mode":3}
{"ept":0.001,"eps":0.1,"epv":1.0,"lon":4.837452282979189,"time":"2015-09-24T10:54:50.146Z","epd":0.1,"epx":1.0,"speed":9.607694803026446,"alt":0.0,"epy":1.0,"track":326.89482532985085,"class":"TPV","lat":52.17791792557307,"mode":3}
{"ept":0.001,"eps":0.1,"epv":1.0,"lon":4.837375286032197,"time":"2015-09-24T10:54:51.146Z","epd":0.1,"epx":1.0,"speed":9.607694803026446,"alt":0.0,"epy":1.0,"track":326.89482532985085,"class":"TPV","lat":52.1779903036222,"mode":3}
{"ept":0.001,"eps":0.1,"epv":1.0,"lon":4.837298289085203,"time":"2015-09-24T10:54:52.146Z","epd":0.1,"epx":1.0,"speed":9.607694803026446,"alt":0.0,"epy":1.0,"track":326.89482532985085,"class":"TPV","lat":52.17806268167134,"mode":3}
{"ept":0.001,"eps":0.1,"epv":1.0,"lon":4.837221292138211,"time":"2015-09-24T10:54:53.146Z","epd":0.1,"epx":1.0,"speed":9.607694803026446,"alt":0.0,"epy":1.0,"track":326.89482532985085,"class":"TPV","lat":52.178135059720475,"mode":3}
{"ept":0.001,"eps":0.1,"epv":1.0,"lon":4.8371442951912185,"time":"2015-09-24T10:54:54.146Z","epd":0.1,"epx":1.0,"speed":9.607694803026446,"alt":0.0,"epy":1.0,"track":326.89482532985085,"class":"TPV","lat":52.17820743776961,"mode":3}
{"ept":0.001,"eps":0.1,"epv":1.0,"lon":4.837067298244226,"time":"2015-09-24T10:54:55.146Z","epd":0.1,"epx":1.0,"speed":9.607694803026446,"alt":0.0,"epy":1.0,"track":326.89482532985085,"class":"TPV","lat":52.17827981581874,"mode":3}
{"ept":0.001,"eps":0.1,"epv":1.0,"lon":4.8369903012972335,"time":"2015-09-24T10:54:56.146Z","epd":0.1,"epx":1.0,"speed":9.607694803026446,"alt":0.0,"epy":1.0,"track":326.89482532985085,"class":"TPV","lat":52.17835219386787,"mode":3}
{"ept":0.001,"eps":0.1,"epv":1.0,"lon":4.83691330435024,"time":"2015-09-24T10:54:57.146Z","epd":0.1,"epx":1.0,"speed":9.607694803026446,"alt":0.0,"epy":1.0,"track":326.89482532985085,"class":"TPV","lat":52.178424571917006,"mode":3}
{"ept":0.001,"eps":0.1,"epv":1.0,"lon":4.836836307403248,"time":"2015-09-24T10:54:58.146Z","epd":0.1,"epx":1.0,"speed":9.607694803026446,"alt":0.0,"epy":1.0,"track":326.89482532985085,"class":"TPV","lat":52.17849694996614,"mode":3}
{"ept":0.001,"eps":0.1,"epv":1.0,"lon":4.836759310456255,"time":"2015-09-24T10:54:59.146Z","epd":0.1,"epx":1.0,"speed":9.607694803026446,"alt":0.0,"epy":1.0,"track":326.89482532985085,"class":"TPV","lat":52.17856932801527,"mode":3}
{"ept":0.001,"eps":0.1,"epv":1.0,"lon":4.836682313509263,"time":"2015-09-24T10:55:00.146Z","epd":0.1,"epx":1.0,"speed":9.607694803026446,"alt":0.0,"epy":1.0,"track":326.89482532985085,"class":"TPV","lat":52.178641706064404,"mode":3}
{"ept":0.001,"eps":0.1,"epv":1.0,"lon":4.83660531656227,"time":"2015-09-24T10:55:01.146Z","epd":0.1,"epx":1.0,"speed":9.607694803026446,"alt":0.0,"epy":1.0,"track":326.89482532985085,"class":"TPV","lat":52.17871408411354,"mode":3}
{"ept":0.001,"eps":0.1,"epv":1.0,"lon":4.836528319615278,"time":"2015-09-24T10:55:02.146Z","epd":0.1,"epx":1.0,"speed":9.607694803026446,"alt":0.0,"epy":1.0,"track":326.89482532985085,"class":"TPV","lat":52.17878646216267,"mode":3}
{"ept":0.001,"eps":0.1,"epv":1.0,"lon":4.836451322668284,"time":"2015-09-24T10:55:03.146Z","epd":0.1,"epx":1.0,"speed":9.607694803026446,"alt":0.0,"epy":1.0,"track":326.89482532985085,"class":"TPV","lat":52.1788588402118,"mode":3}
{"ept":0.001,"eps":0.1,"epv":1.0,"lon":4.836374325721292,"time":"2015-09-24T10:55:04.146Z","epd":0.1,"epx":1.0,"speed":9.607694803026446,"alt":0.0,"epy":1.0,"track":326.89482532985085,"class":"TPV","lat":52.17893121826094,"mode":3}
{"ept":0.001,"eps":0.1,"epv":1.0,"lon":4.836297328774299,"time":"2015-09-24T10:55:05.146Z","epd":0.1,"epx":1.0,"speed":9.607694803026446,"alt":0.0,"epy":1.0,"track":326.89482532985085,"class":"TPV","lat":52.179003596310075,"mode":3}
{"ept":0.001,"eps":0.1,"epv":1.0,"lon":4.836220331827307,"time":"2015-09-24T10:55:06.146Z","epd":0.1,"epx":1.0,"speed":9.607694803026446,"alt":0.0,"epy":1.0,"track":326.89482532985085,"class":"TPV","lat":52.17907597435921,"mode":3}
{"ept":0.001,"eps":0.1,"epv":1.0,"lon":4.8361433348803144,"time":"2015-09-24T10:55:07.146Z","epd":0.1,"epx":1.0,"speed":9.607694803026446,"alt":0.0,"epy":1.0,"track":326.89482532985085,"class":"TPV","lat":52.17914835240834,"mode":3}
{"ept":0.001,"eps":0.1,"epv":1.0,"lon":4.836066337933321,"time":"2015-09-24T10:55:08.146Z","epd":0.1,"epx":1.0,"speed":9.607694803026446,"alt":0.0,"epy":1.0,"track":326.89482532985085,"class":"TPV","lat":52.17922073045747,"mode":3}
{"ept":0.001,"eps":0.1,"epv":1.0,"lon":4.835989340986329,"time":"2015-09-24T10:55:09.146Z","epd":0.1,"epx":1.0,"speed":9.607694803026446,"alt":0.0,"epy":1.0,"track":326.89482532985085,"class":"TPV","lat":52.179293108506606,"mode":3}
{"ept":0.001,"eps":0.1,"epv":1.0,"lon":4.835912344039336,"time":"2015-09-24T10:55:10.146Z","epd":0.1,"epx":1.0,"speed":9.607694803026446,"alt":0.0,"epy":1.0,"track":326.89482532985085,"class":"TPV","lat":52.17936548655574,"mode":3}
{"ept":0.001,"eps":0.1,"epv":1.0,"lon":4.835835347092344,"time":"2015-09-24T10:55:11.146Z","epd":0.1,"epx":1.0,"speed":9.607694803026446,"alt":0.0,"epy":1.0,"track":326.89482532985085,"class":"TPV","lat":52.17943786460487,"mode":3}
{"ept":0.001,"eps":0.1,"epv":1.0,"lon":4.835758350145351,"time":"2015-09-24T10:55:12.146Z","epd":0.1,"epx":1.0,"speed":9.607694803026446,"alt":0.0,"epy":1.0,"track":326.89482532985085,"class":"TPV","lat":52.179510242654004,"mode":3}
{"ept":0.001,"eps":0.1,"epv":1.0,"lon":4.835681353198358,"time":"2015-09-24T10:55:13.146Z","epd":0.1,"epx":1.0,"speed":9.607694803026446,"alt":0.0,"epy":1.0,"track":326.89482532985085,"class":"TPV","lat":52.17958262070314,"mode":3}
{"ept":0.001,"eps":0.1,"epv":1.0,"lon":4.835604356251365,"time":"2015-09-24T10:55:14.146Z","epd":0.1,"epx":1.0,"speed":9.607694803026446,"alt":0.0,"epy":1.0,"track":326.89482532985085,"class":"TPV","lat":52.17965499875227,"mode":3}
{"ept":0.001,"eps":0.1,"epv":1.0,"lon":4.835527359304373,"time":"2015-09-24T10:55:15.146Z","epd":0.1,"epx":1.0,"speed":9.607694803026446,"alt":0.0,"epy":1.0,"track":326.89482532985085,"class":"TPV","lat":52.1797273768014,"mode":3}
{"ept":0.001,"eps":0.1,"epv":1.0,"lon":4.83545036235738,"time":"2015-09-24T10:55:16.146Z","epd":0.1,"epx":1.0,"speed":9.607694803026446,"alt":0.0,"epy":1.0,"track":326.89482532985085,"class":"TPV","lat":52.17979975485054,"mode":3}
{"ept":0.001,"eps":0.1,"epv":1.0,"lon":4.835373365410388,"time":"2015-09-24T10:55:17.146Z","epd":0.1,"epx":1.0,"speed":9.607694803026446,"alt":0.0,"epy":1.0,"track":326.89482532985085,"class":"TPV","lat":52.179872132899675,"mode":3}
{"ept":0.001,"eps":0.1,"epv":1.0,"lon":4.8352963684633945,"time":"2015-09-24T10:55:18.146Z","epd":0.1,"epx":1.0,"speed":9.607694803026446,"alt":0.0,"epy":1.0,"track":326.89482532985085,"class":"TPV","lat":52.17994451094881,"mode":3}
{"ept":0.001,"eps":0.1,"epv":1.0,"lon":4.835219371516402,"time":"2015-09-24T10:55:19.146Z","epd":0.1,"epx":1.0,"speed":9.607694803026446,"alt":0.0,"epy":1.0,"track":326.89482532985085,"class":"TPV","lat":52.18001688899794,"mode":3}
{"ept":0.001,"eps":0.1,"epv":1.0,"lon":4.8351423745694095,"time":"2015-09-24T10:55:20.146Z","epd":0.1,"epx":1.0,"speed":9.607694803026446,"alt":0.0,"epy":1.0,"track":326.89482532985085,"class":"TPV","lat":52.18008926704707,"mode":3}
{"ept":0.001,"eps":0.1,"epv":1.0,"lon":4.835065377622417,"time":"2015-09-24T10:55:21.146Z","epd":0.1,"epx":1.0,"speed":9.607694803026446,"alt":0.0,"epy":1.0,"track":326.89482532985085,"class":"TPV","lat":52.180161645096206,"mode":3}
{"ept":0.001,"eps":0.1,"epv":1.0,"lon":4.834988380675425,"time":"2015-09-24T10:55:22.146Z","epd":0.1,"epx":1.0,"speed":9.607694803026446,"alt":0.0,"epy":1.0,"track":326.89482532985085,"class":"TPV","lat":52.18023402314534,"mode":3}
{"ept":0.001,"eps":0.1,"epv":1.0,"lon":4.834911383728432,"time":"2015-09-24T10:55:23.146Z","epd":0.1,"epx":1.0,"speed":9.607694803026446,"alt":0.0,"epy":1.0,"track":326.89482532985085,"class":"TPV","lat":52.18030640119447,"mode":3}
{"ept":0.001,"eps":0.1,"epv":1.0,"lon":4.834834386781439,"time":"2015-09-24T10:55:24.146Z","epd":0.1,"epx":1.0,"speed":9.607694803026446,"alt":0.0,"epy":1.0,"track":326.89482532985085,"class":"TPV","lat":52.180378779243604,"mode":3}
{"ept":0.001,"eps":0.1,"epv":1.0,"lon":4.834757389834446,"time":"2015-09-24T10:55:25.146Z","epd":0.1,"epx":1.0,"speed":9.607694803026446,"alt":0.0,"epy":1.0,"track":326.89482532985085,"class":"TPV","lat":52.18045115729274,"mode":3}
{"ept":0.001,"eps":0.1,"epv":1.0,"lon":4.834680392887454,"time":"2015-09-24T10:55:26.146Z","epd":0.1,"epx":1.0,"speed":9.607694803026446,"alt":0.0,"epy":1.0,"track":326.89482532985085,"class":"TPV","lat":52.18052353534187,"mode":3}
{"ept":0.001,"eps":0.1,"epv":1.0,"lon":4.834603395940461,"time":"2015-09-24T10:55:27.146Z","epd":0.1,"epx":1.0,"speed":9.607694803026446,"alt":0.0,"epy":1.0,"track":326.89482532985085,"class":"TPV","lat":52.180595913391,"mode":3}
{"ept":0.001,"eps":0.1,"epv":1.0,"lon":4.834526398993469,"time":"2015-09-24T10:55:28.146Z","epd":0.1,"epx":1.0,"speed":9.607694803026446,"alt":0.0,"epy":1.0,"track":326.89482532985085,"class":"TPV","lat":52.18066829144014,"mode":3}
{"ept":0.001,"eps":0.1,"epv":1.0,"lon":4.834449402046475,"time":"2015-09-24T10:55:29.146Z","epd":0.1,"epx":1.0,"speed":9.607694803026446,"alt":0.0,"epy":1.0,"track":326.89482532985085,"class":"TPV","lat":52.180740669489275,"mode":3}
{"ept":0.001,"eps":0.1,"epv":1.0,"lon":4.834372405099483,"time":"2015-09-24T10:55:30.146Z","epd":0.1,"epx":1.0,"speed":9.607694803026446,"alt":0.0,"epy":1.0,"track":326.89482532985085,"class":"TPV","lat":52.18081304753841,"mode":3}
{"ept":0.001,"eps":0.1,"epv":1.0,"lon":4.8342954081524905,"time":"2015-09-24T10:55:31.146Z","epd":0.1,"epx":1.0,"speed":9.607694803026446,"alt":0.0,"epy":1.0,"track":326.89482532985085,"class":"TPV","lat":52.18088542558754,"mode":3}
{"ept":0.001,"eps":0.1,"epv":1.0,"lon":4.834218411205498,"time":"2015-09-24T10:55:32.146Z","epd":0.1,"epx":1.0,"speed":9.607694803026446,"alt":0.0,"epy":1.0,"track":326.89482532985085,"class":"TPV","lat":52.18095780363667,"mode":3}
{"ept":0.001,"eps":0.1,"epv":1.0,"lon":4.8341414142585055,"time":"2015-09-24T10:55:33.146Z","epd":0.1,"epx":1.0,"speed":9.607694803026446,"alt":0.0,"epy":1.0,"track":326.89482532985085,"class":"TPV","lat":52.181030181685806,"mode":3}
{"ept":0.001,"eps":0.1,"epv":1.0,"lon":4.834064417311512,"time":"2015-09-24T10:55:34.146Z","epd":0.1,"epx":1.0,"speed":9.607694803026446,"alt":0.0,"epy":1.0,"track":326.89482532985085,"class":"TPV","lat":52.18110255973494,"mode":3}
{"ept":0.001,"eps":0.1,"epv":1.0,"lon":4.83398742036452,"time":"2015-09-24T10:55:35.146Z","epd":0.1,"epx":1.0,"speed":9.607694803026446,"alt":0.0,"epy":1.0,"track":326.89482532985085,"class":"TPV","lat":52.18117493778407,"mode":3}
{"ept":0.001,"eps":0.1,"epv":1.0,"lon":4.833910423417527,"time":"2015-09-24T10:55:36.146Z","epd":0.1,"epx":1.0,"speed":9.607694803026446,"alt":0.0,"epy":1.0,"track":326.89482532985085,"class":"TPV","lat":52.181247315833204,"mode":3}
{"ept":0.001,"eps":0.1,"epv":1.0,"lon":4.833833426470535,"time":"2015-09-24T10:55:37.146Z","epd":0.1,"epx":1.0,"speed":9.607694803026446,"alt":0.0,"epy":1.0,"track":326.89482532985085,"class":"TPV","lat":52.18131969388234,"mode":3}
{"ept":0.001,"eps":0.1,"epv":1.0,"lon":4.833756429523542,"time":"2015-09-24T10:55:38.146Z","epd":0.1,"epx":1.0,"speed":9.607694803026446,"alt":0.0,"epy":1.0,"track":326.89482532985085,"class":"TPV","lat":52.18139207193147,"mode":3}
{"ept":0.001,"eps":0.1,"epv":1.0,"lon":4.833679432576549,"time":"2015-09-24T10:55:39.146Z","epd":0.1,"epx":1.0,"speed":9.607694803026446,"alt":0.0,"epy":1.0,"track":326.89482532985085,"class":"TPV","lat":52.1814644499806,"mode":3}
{"ept":0.001,"eps":0.1,"epv":1.0,"lon":4.833602435629556,"time":"2015-09-24T10:55:40.146Z","epd":0.1,"epx":1.0,"speed":9.607694803026446,"alt":0.0,"epy":1.0,"track":326.89482532985085,"class":"TPV","lat":52.18153682802974,"mode":3}
{"ept":0.001,"eps":0.1,"epv":1.0,"lon":4.833525438682564,"time":"2015-09-24T10:55:41.146Z","epd":0.1,"epx":1.0,"speed":9.607694803026446,"alt":0.0,"epy":1.0,"track":326.89482532985085,"class":"TPV","lat":52.181609206078875,"mode":3}
{"ept":0.001,"eps":0.1,"epv":1.0,"lon":4.833448441735571,"time":"2015-09-24T10:55:42.146Z","epd":0.1,"epx":1.0,"speed":9.607694803026446,"alt":0.0,"epy":1.0,"track":326.89482532985085,"class":"TPV","lat":52.18168158412801,"mode":3}
{"ept":0.001,"eps":0.1,"epv":1.0,"lon":4.833371444788579,"time":"2015-09-24T10:55:43.146Z","epd":0.1,"epx":1.0,"speed":9.607694803026446,"alt":0.0,"epy":1.0,"track":326.89482532985085,"class":"TPV","lat":52.18175396217714,"mode":3}
{"ept":0.001,"eps":0.1,"epv":1.0,"lon":4.833294447841586,"time":"2015-09-24T10:55:44.146Z","epd":0.1,"epx":1.0,"speed":9.607694803026446,"alt":0.0,"epy":1.0,"track":326.89482532985085,"class":"TPV","lat":52.18182634022627,"mode":3}
{"ept":0.001,"eps":0.1,"epv":1.0,"lon":4.833217450894593,"time":"2015-09-24T10:55:45.146Z","epd":0.1,"epx":1.0,"speed":9.607694803026446,"alt":0.0,"epy":1.0,"track":326.89482532985085,"class":"TPV","lat":52.181898718275406,"mode":3}
{"ept":0.001,"eps":0.1,"epv":1.0,"lon":4.833140453947601,"time":"2015-09-24T10:55:46.146Z","epd":0.1,"epx":1.0,"speed":9.607694803026446,"alt":0.0,"epy":1.0,"track":326.89482532985085,"class":"TPV","lat":52.18197109632454,"mode":3}
{"ept":0.001,"eps":0.1,"epv":1.0,"lon":4.833063457000608,"time":"2015-09-24T10:55:47.146Z","epd":0.1,"epx":1.0,"speed":9.607694803026446,"alt":0.0,"epy":1.0,"track":326.89482532985085,"class":"TPV","lat":52.18204347437367,"mode":3}
{"ept":0.001,"eps":0.1,"epv":1.0,"lon":4.832986460053616,"time":"2015-09-24T10:55:48.146Z","epd":0.1,"epx":1.0,"speed":9.607694803026446,"alt":0.0,"epy":1.0,"track":326.89482532985085,"class":"TPV","lat":52.182115852422804,"mode":3}
{"ept":0.001,"eps":0.1,"epv":1.0,"lon":4.832909463106622,"time":"2015-09-24T10:55:49.146Z","epd":0.1,"epx":1.0,"speed":9.607694803026446,"alt":0.0,"epy":1.0,"track":326.89482532985085,"class":"TPV","lat":52.18218823047194,"mode":3}
{"ept":0.001,"eps":0.1,"epv":1.0,"lon":4.83283246615963,"time":"2015-09-24T10:55:50.146Z","epd":0.1,"epx":1.0,"speed":9.607694803026446,"alt":0.0,"epy":1.0,"track":326.89482532985085,"class":"TPV","lat":52.18226060852107,"mode":3}
{"ept":0.001,"eps":0.1,"epv":1.0,"lon":4.832755469212637,"time":"2015-09-24T10:55:51.146Z","epd":0.1,"epx":1.0,"speed":9.607694803026446,"alt":0.0,"epy":1.0,"track":326.89482532985085,"class":"TPV","lat":52.1823329865702,"mode":3}
{"ept":0.001,"eps":0.1,"epv":1.0,"lon":4.832678472265645,"time":"2015-09-24T10:55:52.146Z","epd":0.1,"epx":1.0,"speed":9.607694803026446,"alt":0.0,"epy":1.0,"track":326.89482532985085,"class":"TPV","lat":52.18240536461934,"mode":3}
{"ept":0.001,"eps":0.1,"epv":1.0,"lon":4.832601475318652,"time":"2015-09-24T10:55:53.146Z","epd":0.1,"epx":1.0,"speed":9.607694803026446,"alt":0.0,"epy":1.0,"track":326.89482532985085,"class":"TPV","lat":52.182477742668475,"mode":3}
{"ept":0.001,"eps":0.1,"epv":1.0,"lon":4.83252447837166,"time":"2015-09-24T10:55:54.146Z","epd":0.1,"epx":1.0,"speed":9.607694803026446,"alt":0.0,"epy":1.0,"track":326.89482532985085,"class":"TPV","lat":52.18255012071761,"mode":3}
{"ept":0.001,"eps":0.1,"epv":1.0,"lon":4.8324474814246665,"time":"2015-09-24T10:55:55.146Z","epd":0.1,"epx":1.0,"speed":9.607694803026446,"alt":0.0,"epy":1.0,"track":326.89482532985085,"class":"TPV","lat":52.18262249876674,"mode":3}
{"ept":0.001,"eps":0.1,"epv":1.0,"lon":4.832370484477674,"time":"2015-09-24T10:55:56.146Z","epd":0.1,"epx":1.0,"speed":9.607694803026446,"alt":0.0,"epy":1.0,"track":326.89482532985085,"class":"TPV","lat":52.18269487681587,"mode":3}
{"ept":0.001,"eps":0.1,"epv":1.0,"lon":4.8322934875306816,"time":"2015-09-24T10:55:57.146Z","epd":0.1,"epx":1.0,"speed":9.607694803026446,"alt":0.0,"epy":1.0,"track":326.89482532985085,"class":"TPV","lat":52.182767254865006,"mode":3}
{"ept":0.001,"eps":0.1,"epv":1.0,"lon":4.832216490583689,"time":"2015-09-24T10:55:58.146Z","epd":0.1,"epx":1.0,"speed":9.607694803026446,"alt":0.0,"epy":1.0,"track":326.89482532985085,"class":"TPV","lat":52.18283963291414,"mode":3}
{"ept":0.001,"eps":0.1,"epv":1.0,"lon":4.832139493636697,"time":"2015-09-24T10:55:59.146Z","epd":0.1,"epx":1.0,"speed":9.607694803026446,"alt":0.0,"epy":1.0,"track":326.89482532985085,"class":"TPV","lat":52.18291201096327,"mode":3}
{"ept":0.001,"eps":0.1,"epv":1.0,"lon":4.832062496689703,"time":"2015-09-24T10:56:00.146Z","epd":0.1,"epx":1.0,"speed":9.607694803026446,"alt":0.0,"epy":1.0,"track":326.89482532985085,"class":"TPV","lat":52.182984389012404,"mode":3}
{"ept":0.001,"eps":0.1,"epv":1.0,"lon":4.831985499742711,"time":"2015-09-24T10:56:01.146Z","epd":0.1,"epx":1.0,"speed":9.607694803026446,"alt":0.0,"epy":1.0,"track":326.89482532985085,"class":"TPV","lat":52.18305676706154,"mode":3}
{"ept":0.001,"eps":0.1,"epv":1.0,"lon":4.831908502795718,"time":"2015-09-24T10:56:02.146Z","epd":0.1,"epx":1.0,"speed":9.607694803026446,"alt":0.0,"epy":1.0,"track":326.89482532985085,"class":"TPV","lat":52.18312914511067,"mode":3}
{"ept":0.001,"eps":0.1,"epv":1.0,"lon":4.831831505848726,"time":"2015-09-24T10:56:03.146Z","epd":0.1,"epx":1.0,"speed":9.607694803026446,"alt":0.0,"epy":1.0,"track":326.89482532985085,"class":"TPV","lat":52.1832015231598,"mode":3}
{"ept":0.001,"eps":0.1,"epv":1.0,"lon":4.831754508901733,"time":"2015-09-24T10:56:04.146Z","epd":0.1,"epx":1.0,"speed":9.607694803026446,"alt":0.0,"epy":1.0,"track":326.89482532985085,"class":"TPV","lat":52.18327390120894,"mode":3}
{"ept":0.001,"eps":0.1,"epv":1.0,"lon":4.83167751195474,"time":"2015-09-24T10:56:05.146Z","epd":0.1,"epx":1.0,"speed":9.607694803026446,"alt":0.0,"epy":1.0,"track":326.89482532985085,"class":"TPV","lat":52.183346279258075,"mode":3}
{"ept":0.001,"eps":0.1,"epv":1.0,"lon":4.8316005150077475,"time":"2015-09-24T10:56:06.146Z","epd":0.1,"epx":1.0,"speed":9.607694803026446,"alt":0.0,"epy":1.0,"track":326.89482532985085,"class":"TPV","lat":52.18341865730721,"mode":3}
{"ept":0.001,"eps":0.1,"epv":1.0,"lon":4.831523518060755,"time":"2015-09-24T10:56:07.146Z","epd":0.1,"epx":1.0,"speed":9.607694803026446,"alt":0.0,"epy":1.0,"track":326.89482532985085,"class":"TPV","lat":52.18349103535634,"mode":3}
{"ept":0.001,"eps":0.1,"epv":1.0,"lon":4.8314465211137625,"time":"2015-09-24T10:56:08.146Z","epd":0.1,"epx":1.0,"speed":9.607694803026446,"alt":0.0,"epy":1.0,"track":326.89482532985085,"class":"TPV","lat":52.18356341340547,"mode":3}
{"ept":0.001,"eps":0.1,"epv":1.0,"lon":4.83136952416677,"time":"2015-09-24T10:56:09.146Z","epd":0.1,"epx":1.0,"speed":9.607694803026446,"alt":0.0,"epy":1.0,"track":326.89482532985085,"class":"TPV","lat":52.183635791454606,"mode":3}
{"ept":0.001,"eps":0.1,"epv":1.0,"lon":4.831292527219777,"time":"2015-09-24T10:56:10.146Z","epd":0.1,"epx":1.0,"speed":9.607694803026446,"alt":0.0,"epy":1.0,"track":326.89482532985085,"class":"TPV","lat":52.18370816950374,"mode":3}
{"ept":0.001,"eps":0.1,"epv":1.0,"lon":4.831215530272784,"time":"2015-09-24T10:56:11.146Z","epd":0.1,"epx":1.0,"speed":9.607694803026446,"alt":0.0,"epy":1.0,"track":326.89482532985085,"class":"TPV","lat":52.18378054755287,"mode":3}
{"ept":0.001,"eps":0.1,"epv":1.0,"lon":4.831138533325792,"time":"2015-09-24T10:56:12.146Z","epd":0.1,"epx":1.0,"speed":9.607694803026446,"alt":0.0,"epy":1.0,"track":326.89482532985085,"class":"TPV","lat":52.183852925602004,"mode":3}
{"ept":0.001,"eps":0.1,"epv":1.0,"lon":4.831061536378799,"time":"2015-09-24T10:56:13.146Z","epd":0.1,"epx":1.0,"speed":9.607694803026446,"alt":0.0,"epy":1.0,"track":326.89482532985085,"class":"TPV","lat":52.18392530365114,"mode":3}
{"ept":0.001,"eps":0.1,"epv":1.0,"lon":4.830984539431807,"time":"2015-09-24T10:56:14.146Z","epd":0.1,"epx":1.0,"speed":9.607694803026446,"alt":0.0,"epy":1.0,"track":326.89482532985085,"class":"TPV","lat":52.18399768170027,"mode":3}
{"ept":0.001,"eps":0.1,"epv":1.0,"lon":4.830907542484813,"time":"2015-09-24T10:56:15.146Z","epd":0.1,"epx":1.0,"speed":9.607694803026446,"alt":0.0,"epy":1.0,"track":326.89482532985085,"class":"TPV","lat":52.1840700597494,"mode":3}
{"ept":0.001,"eps":0.1,"epv":1.0,"lon":4.830830545537821,"time":"2015-09-24T10:56:16.146Z","epd":0.1,"epx":1.0,"speed":9.607694803026446,"alt":0.0,"epy":1.0,"track":326.89482532985085,"class":"TPV","lat":52.18414243779854,"mode":3}
{"ept":0.001,"eps":0.1,"epv":1.0,"lon":4.830753548590828,"time":"2015-09-24T10:56:17.146Z","epd":0.1,"epx":1.0,"speed":9.607694803026446,"alt":0.0,"epy":1.0,"track":326.89482532985085,"class":"TPV","lat":52.184214815847675,"mode":3}
{"ept":0.001,"eps":0.1,"epv":1.0,"lon":4.830676551643836,"time":"2015-09-24T10:56:18.146Z","epd":0.1,"epx":1.0,"speed":9.607694803026446,"alt":0.0,"epy":1.0,"track":326.89482532985085,"class":"TPV","lat":52.18428719389681,"mode":3}
{"ept":0.001,"eps":0.1,"epv":1.0,"lon":4.830599554696843,"time":"2015-09-24T10:56:19.146Z","epd":0.1,"epx":1.0,"speed":9.607694803026446,"alt":0.0,"epy":1.0,"track":326.89482532985085,"class":"TPV","lat":52.18435957194594,"mode":3}
{"ept":0.001,"eps":0.1,"epv":1.0,"lon":4.830522557749851,"time":"2015-09-24T10:56:20.146Z","epd":0.1,"epx":1.0,"speed":9.607694803026446,"alt":0.0,"epy":1.0,"track":326.89482532985085,"class":"TPV","lat":52.18443194999507,"mode":3}
{"ept":0.001,"eps":0.1,"epv":1.0,"lon":4.830445560802858,"time":"2015-09-24T10:56:21.146Z","epd":0.1,"epx":1.0,"speed":9.607694803026446,"alt":0.0,"epy":1.0,"track":326.89482532985085,"class":"TPV","lat":52.184504328044206,"mode":3}
{"ept":0.001,"eps":0.1,"epv":1.0,"lon":4.830368563855865,"time":"2015-09-24T10:56:22.146Z","epd":0.1,"epx":1.0,"speed":9.607694803026446,"alt":0.0,"epy":1.0,"track":326.89482532985085,"class":"TPV","lat":52.18457670609334,"mode":3}
{"ept":0.001,"eps":0.1,"epv":1.0,"lon":4.830291566908873,"time":"2015-09-24T10:56:23.146Z","epd":0.1,"epx":1.0,"speed":9.607694803026446,"alt":0.0,"epy":1.0,"track":326.89482532985085,"class":"TPV","lat":52.18464908414247,"mode":3}
{"ept":0.001,"eps":0.1,"epv":1.0,"lon":4.83021456996188,"time":"2015-09-24T10:56:24.147Z","epd":0.1,"epx":1.0,"speed":9.607694803026446,"alt":0.0,"epy":1.0,"track":326.89482532985085,"class":"TPV","lat":52.184721462191604,"mode":3}
{"ept":0.001,"eps":0.1,"epv":1.0,"lon":4.830137573014888,"time":"2015-09-24T10:56:25.146Z","epd":0.1,"epx":1.0,"speed":9.607694803026446,"alt":0.0,"epy":1.0,"track":326.89482532985085,"class":"TPV","lat":52.18479384024074,"mode":3}
{"ept":0.001,"eps":0.1,"epv":1.0,"lon":4.830060576067894,"time":"2015-09-24T10:56:26.146Z","epd":0.1,"epx":1.0,"speed":9.607694803026446,"alt":0.0,"epy":1.0,"track":326.89482532985085,"class":"TPV","lat":52.18486621828987,"mode":3}
{"ept":0.001,"eps":0.1,"epv":1.0,"lon":4.829983579120902,"time":"2015-09-24T10:56:27.146Z","epd":0.1,"epx":1.0,"speed":9.607694803026446,"alt":0.0,"epy":1.0,"track":326.89482532985085,"class":"TPV","lat":52.184938596339,"mode":3}
{"ept":0.001,"eps":0.1,"epv":1.0,"lon":4.829906582173909,"time":"2015-09-24T10:56:28.146Z","epd":0.1,"epx":1.0,"speed":9.607694803026446,"alt":0.0,"epy":1.0,"track":326.89482532985085,"class":"TPV","lat":52.18501097438814,"mode":3}
{"ept":0.001,"eps":0.1,"epv":1.0,"lon":4.829829585226917,"time":"2015-09-24T10:56:29.146Z","epd":0.1,"epx":1.0,"speed":9.607694803026446,"alt":0.0,"epy":1.0,"track":326.89482532985085,"class":"TPV","lat":52.185083352437275,"mode":3}
{"ept":0.001,"eps":0.1,"epv":1.0,"lon":4.829752588279924,"time":"2015-09-24T10:56:30.146Z","epd":0.1,"epx":1.0,"speed":9.607694803026446,"alt":0.0,"epy":1.0,"track":326.89482532985085,"class":"TPV","lat":52.18515573048641,"mode":3}
{"ept":0.001,"eps":0.1,"epv":1.0,"lon":4.829675591332931,"time":"2015-09-24T10:56:31.146Z","epd":0.1,"epx":1.0,"speed":9.607694803026446,"alt":0.0,"epy":1.0,"track":326.89482532985085,"class":"TPV","lat":52.18522810853554,"mode":3}
{"ept":0.001,"eps":0.1,"epv":1.0,"lon":4.8295985943859385,"time":"2015-09-24T10:56:32.146Z","epd":0.1,"epx":1.0,"speed":9.607694803026446,"alt":0.0,"epy":1.0,"track":326.89482532985085,"class":"TPV","lat":52.18530048658467,"mode":3}
{"ept":0.001,"eps":0.1,"epv":1.0,"lon":4.829521597438946,"time":"2015-09-24T10:56:33.146Z","epd":0.1,"epx":1.0,"speed":9.607694803026446,"alt":0.0,"epy":1.0,"track":326.89482532985085,"class":"TPV","lat":52.185372864633806,"mode":3}
{"ept":0.001,"eps":0.1,"epv":1.0,"lon":4.829444600491954,"time":"2015-09-24T10:56:34.146Z","epd":0.1,"epx":1.0,"speed":9.607694803026446,"alt":0.0,"epy":1.0,"track":326.89482532985085,"class":"TPV","lat":52.18544524268294,"mode":3}
{"ept":0.001,"eps":0.1,"epv":1.0,"lon":4.829367603544961,"time":"2015-09-24T10:56:35.146Z","epd":0.1,"epx":1.0,"speed":9.607694803026446,"alt":0.0,"epy":1.0,"track":326.89482532985085,"class":"TPV","lat":52.18551762073207,"mode":3}
{"ept":0.001,"eps":0.1,"epv":1.0,"lon":4.829290606597968,"time":"2015-09-24T10:56:36.146Z","epd":0.1,"epx":1.0,"speed":9.607694803026446,"alt":0.0,"epy":1.0,"track":326.89482532985085,"class":"TPV","lat":52.185589998781204,"mode":3}
{"ept":0.001,"eps":0.1,"epv":1.0,"lon":4.829213609650975,"time":"2015-09-24T10:56:37.147Z","epd":0.1,"epx":1.0,"speed":9.607694803026446,"alt":0.0,"epy":1.0,"track":326.89482532985085,"class":"TPV","lat":52.18566237683034,"mode":3}
{"ept":0.001,"eps":0.1,"epv":1.0,"lon":4.829136612703983,"time":"2015-09-24T10:56:38.146Z","epd":0.1,"epx":1.0,"speed":9.607694803026446,"alt":0.0,"epy":1.0,"track":326.89482532985085,"class":"TPV","lat":52.18573475487947,"mode":3}
{"ept":0.001,"eps":0.1,"epv":1.0,"lon":4.82905961575699,"time":"2015-09-24T10:56:39.146Z","epd":0.1,"epx":1.0,"speed":9.607694803026446,"alt":0.0,"epy":1.0,"track":326.89482532985085,"class":"TPV","lat":52.18580713292861,"mode":3}
{"ept":0.001,"eps":0.1,"epv":1.0,"lon":4.828982618809998,"time":"2015-09-24T10:56:40.146Z","epd":0.1,"epx":1.0,"speed":9.607694803026446,"alt":0.0,"epy":1.0,"track":326.89482532985085,"class":"TPV","lat":52.18587951097774,"mode":3}
{"ept":0.001,"eps":0.1,"epv":1.0,"lon":4.828905621863004,"time":"2015-09-24T10:56:41.146Z","epd":0.1,"epx":1.0,"speed":9.607694803026446,"alt":0.0,"epy":1.0,"track":326.89482532985085,"class":"TPV","lat":52.185951889026875,"mode":3}
{"ept":0.001,"eps":0.1,"epv":1.0,"lon":4.828828624916012,"time":"2015-09-24T10:56:42.146Z","epd":0.1,"epx":1.0,"speed":9.607694803026446,"alt":0.0,"epy":1.0,"track":326.89482532985085,"class":"TPV","lat":52.18602426707601,"mode":3}
{"ept":0.001,"eps":0.1,"epv":1.0,"lon":4.8287516279690195,"time":"2015-09-24T10:56:43.146Z","epd":0.1,"epx":1.0,"speed":9.607694803026446,"alt":0.0,"epy":1.0,"track":326.89482532985085,"class":"TPV","lat":52.18609664512514,"mode":3}
{"ept":0.001,"eps":0.1,"epv":1.0,"lon":4.828674631022027,"time":"2015-09-24T10:56:44.146Z","epd":0.1,"epx":1.0,"speed":9.607694803026446,"alt":0.0,"epy":1.0,"track":326.89482532985085,"class":"TPV","lat":52.18616902317427,"mode":3}
{"ept":0.001,"eps":0.1,"epv":1.0,"lon":4.8285976340750345,"time":"2015-09-24T10:56:45.146Z","epd":0.1,"epx":1.0,"speed":9.607694803026446,"alt":0.0,"epy":1.0,"track":326.89482532985085,"class":"TPV","lat":52.186241401223405,"mode":3}
{"ept":0.001,"eps":0.1,"epv":1.0,"lon":4.828520637128042,"time":"2015-09-24T10:56:46.146Z","epd":0.1,"epx":1.0,"speed":9.607694803026446,"alt":0.0,"epy":1.0,"track":326.89482532985085,"class":"TPV","lat":52.18631377927254,"mode":3}
{"ept":0.001,"eps":0.1,"epv":1.0,"lon":4.828443640181049,"time":"2015-09-24T10:56:47.146Z","epd":0.1,"epx":1.0,"speed":9.607694803026446,"alt":0.0,"epy":1.0,"track":326.89482532985085,"class":"TPV","lat":52.18638615732167,"mode":3}
{"ept":0.001,"eps":0.1,"epv":1.0,"lon":4.828366643234056,"time":"2015-09-24T10:56:48.146Z","epd":0.1,"epx":1.0,"speed":9.607694803026446,"alt":0.0,"epy":1.0,"track":326.89482532985085,"class":"TPV","lat":52.186458535370804,"mode":3}
{"ept":0.001,"eps":0.1,"epv":1.0,"lon":4.828289646287064,"time":"2015-09-24T10:56:49.146Z","epd":0.1,"epx":1.0,"speed":9.607694803026446,"alt":0.0,"epy":1.0,"track":326.89482532985085,"class":"TPV","lat":52.186530913419936,"mode":3}
{"ept":0.001,"eps":0.1,"epv":1.0,"lon":4.828212649340071,"time":"2015-09-24T10:56:50.146Z","epd":0.1,"epx":1.0,"speed":9.607694803026446,"alt":0.0,"epy":1.0,"track":326.89482532985085,"class":"TPV","lat":52.18660329146907,"mode":3}
{"ept":0.001,"eps":0.1,"epv":1.0,"lon":4.828135652393079,"time":"2015-09-24T10:56:51.146Z","epd":0.1,"epx":1.0,"speed":9.607694803026446,"alt":0.0,"epy":1.0,"track":326.89482532985085,"class":"TPV","lat":52.18667566951821,"mode":3}
{"ept":0.001,"eps":0.1,"epv":1.0,"lon":4.828058655446085,"time":"2015-09-24T10:56:52.146Z","epd":0.1,"epx":1.0,"speed":9.607694803026446,"alt":0.0,"epy":1.0,"track":326.89482532985085,"class":"TPV","lat":52.18674804756734,"mode":3}
{"ept":0.001,"eps":0.1,"epv":1.0,"lon":4.827981658499093,"time":"2015-09-24T10:56:53.146Z","epd":0.1,"epx":1.0,"speed":9.607694803026446,"alt":0.0,"epy":1.0,"track":326.89482532985085,"class":"TPV","lat":52.186820425616474,"mode":3}
{"ept":0.001,"eps":0.1,"epv":1.0,"lon":4.8279046615521,"time":"2015-09-24T10:56:54.146Z","epd":0.1,"epx":1.0,"speed":9.607694803026446,"alt":0.0,"epy":1.0,"track":326.89482532985085,"class":"TPV","lat":52.18689280366561,"mode":3}
{"ept":0.001,"eps":0.1,"epv":1.0,"lon":4.827827664605108,"time":"2015-09-24T10:56:55.146Z","epd":0.1,"epx":1.0,"speed":9.607694803026446,"alt":0.0,"epy":1.0,"track":326.89482532985085,"class":"TPV","lat":52.18696518171474,"mode":3}
{"ept":0.001,"eps":0.1,"epv":1.0,"lon":4.8277506676581154,"time":"2015-09-24T10:56:56.147Z","epd":0.1,"epx":1.0,"speed":9.607694803026446,"alt":0.0,"epy":1.0,"track":326.89482532985085,"class":"TPV","lat":52.18703755976387,"mode":3}
{"ept":0.001,"eps":0.1,"epv":1.0,"lon":4.827673670711122,"time":"2015-09-24T10:56:57.146Z","epd":0.1,"epx":1.0,"speed":9.607694803026446,"alt":0.0,"epy":1.0,"track":326.89482532985085,"class":"TPV","lat":52.187109937813005,"mode":3}
{"ept":0.001,"eps":0.1,"epv":1.0,"lon":4.82759667376413,"time":"2015-09-24T10:56:58.146Z","epd":0.1,"epx":1.0,"speed":9.607694803026446,"alt":0.0,"epy":1.0,"track":326.89482532985085,"class":"TPV","lat":52.18718231586214,"mode":3}
{"ept":0.001,"eps":0.1,"epv":1.0,"lon":4.827519676817137,"time":"2015-09-24T10:56:59.146Z","epd":0.1,"epx":1.0,"speed":9.607694803026446,"alt":0.0,"epy":1.0,"track":326.89482532985085,"class":"TPV","lat":52.18725469391127,"mode":3}
{"ept":0.001,"eps":0.1,"epv":1.0,"lon":4.827442679870145,"time":"2015-09-24T10:57:00.146Z","epd":0.1,"epx":1.0,"speed":9.607694803026446,"alt":0.0,"epy":1.0,"track":326.89482532985085,"class":"TPV","lat":52.187327071960404,"mode":3}
{"ept":0.001,"eps":0.1,"epv":1.0,"lon":4.827365682923152,"time":"2015-09-24T10:57:01.146Z","epd":0.1,"epx":1.0,"speed":9.607694803026446,"alt":0.0,"epy":1.0,"track":326.89482532985085,"class":"TPV","lat":52.187399450009536,"mode":3}
{"ept":0.001,"eps":0.1,"epv":1.0,"lon":4.827288685976159,"time":"2015-09-24T10:57:02.146Z","epd":0.1,"epx":1.0,"speed":9.607694803026446,"alt":0.0,"epy":1.0,"track":326.89482532985085,"class":"TPV","lat":52.18747182805867,"mode":3}
{"ept":0.001,"eps":0.1,"epv":1.0,"lon":4.827211689029166,"time":"2015-09-24T10:57:03.146Z","epd":0.1,"epx":1.0,"speed":9.607694803026446,"alt":0.0,"epy":1.0,"track":326.89482532985085,"class":"TPV","lat":52.18754420610781,"mode":3}
{"ept":0.001,"eps":0.1,"epv":1.0,"lon":4.827134692082174,"time":"2015-09-24T10:57:04.146Z","epd":0.1,"epx":1.0,"speed":9.607694803026446,"alt":0.0,"epy":1.0,"track":326.89482532985085,"class":"TPV","lat":52.18761658415694,"mode":3}
{"ept":0.001,"eps":0.1,"epv":1.0,"lon":4.827057695135181,"time":"2015-09-24T10:57:05.147Z","epd":0.1,"epx":1.0,"speed":9.607694803026446,"alt":0.0,"epy":1.0,"track":326.89482532985085,"class":"TPV","lat":52.187688962206074,"mode":3}
{"ept":0.001,"eps":0.1,"epv":1.0,"lon":4.826980698188189,"time":"2015-09-24T10:57:06.146Z","epd":0.1,"epx":1.0,"speed":9.607694803026446,"alt":0.0,"epy":1.0,"track":326.89482532985085,"class":"TPV","lat":52.18776134025521,"mode":3}
{"ept":0.001,"eps":0.1,"epv":1.0,"lon":4.826903701241196,"time":"2015-09-24T10:57:07.146Z","epd":0.1,"epx":1.0,"speed":9.607694803026446,"alt":0.0,"epy":1.0,"track":326.89482532985085,"class":"TPV","lat":52.18783371830434,"mode":3}
{"ept":0.001,"eps":0.1,"epv":1.0,"lon":4.826826704294203,"time":"2015-09-24T10:57:08.146Z","epd":0.1,"epx":1.0,"speed":9.607694803026446,"alt":0.0,"epy":1.0,"track":326.89482532985085,"class":"TPV","lat":52.18790609635347,"mode":3}
{"ept":0.001,"eps":0.1,"epv":1.0,"lon":4.8267497073472105,"time":"2015-09-24T10:57:09.146Z","epd":0.1,"epx":1.0,"speed":9.607694803026446,"alt":0.0,"epy":1.0,"track":326.89482532985085,"class":"TPV","lat":52.187978474402605,"mode":3}
{"ept":0.001,"eps":0.1,"epv":1.0,"lon":4.826672710400218,"time":"2015-09-24T10:57:10.146Z","epd":0.1,"epx":1.0,"speed":9.607694803026446,"alt":0.0,"epy":1.0,"track":326.89482532985085,"class":"TPV","lat":52.18805085245174,"mode":3}
{"ept":0.001,"eps":0.1,"epv":1.0,"lon":4.826595713453226,"time":"2015-09-24T10:57:11.146Z","epd":0.1,"epx":1.0,"speed":9.607694803026446,"alt":0.0,"epy":1.0,"track":326.89482532985085,"class":"TPV","lat":52.18812323050087,"mode":3}
{"ept":0.001,"eps":0.1,"epv":1.0,"lon":4.826518716506233,"time":"2015-09-24T10:57:12.146Z","epd":0.1,"epx":1.0,"speed":9.607694803026446,"alt":0.0,"epy":1.0,"track":326.89482532985085,"class":"TPV","lat":52.188195608550004,"mode":3}
{"ept":0.001,"eps":0.1,"epv":1.0,"lon":4.82644171955924,"time":"2015-09-24T10:57:13.146Z","epd":0.1,"epx":1.0,"speed":9.607694803026446,"alt":0.0,"epy":1.0,"track":326.89482532985085,"class":"TPV","lat":52.188267986599136,"mode":3}
{"ept":0.001,"eps":0.1,"epv":1.0,"lon":4.826364722612247,"time":"2015-09-24T10:57:14.146Z","epd":0.1,"epx":1.0,"speed":9.607694803026446,"alt":0.0,"epy":1.0,"track":326.89482532985085,"class":"TPV","lat":52.18834036464827,"mode":3}
{"ept":0.001,"eps":0.1,"epv":1.0,"lon":4.826287725665255,"time":"2015-09-24T10:57:15.146Z","epd":0.1,"epx":1.0,"speed":9.607694803026446,"alt":0.0,"epy":1.0,"track":326.89482532985085,"class":"TPV","lat":52.18841274269741,"mode":3}
{"ept":0.001,"eps":0.1,"epv":1.0,"lon":4.826210728718262,"time":"2015-09-24T10:57:16.146Z","epd":0.1,"epx":1.0,"speed":9.607694803026446,"alt":0.0,"epy":1.0,"track":326.89482532985085,"class":"TPV","lat":52.18848512074654,"mode":3}
{"ept":0.001,"eps":0.1,"epv":1.0,"lon":4.82613373177127,"time":"2015-09-24T10:57:17.146Z","epd":0.1,"epx":1.0,"speed":9.607694803026446,"alt":0.0,"epy":1.0,"track":326.89482532985085,"class":"TPV","lat":52.188557498795674,"mode":3}
{"ept":0.001,"eps":0.1,"epv":1.0,"lon":4.826056734824276,"time":"2015-09-24T10:57:18.146Z","epd":0.1,"epx":1.0,"speed":9.607694803026446,"alt":0.0,"epy":1.0,"track":326.89482532985085,"class":"TPV","lat":52.18862987684481,"mode":3}
{"ept":0.001,"eps":0.1,"epv":1.0,"lon":4.825979737877284,"time":"2015-09-24T10:57:19.147Z","epd":0.1,"epx":1.0,"speed":9.607694803026446,"alt":0.0,"epy":1.0,"track":326.89482532985085,"class":"TPV","lat":52.18870225489394,"mode":3}
{"ept":0.001,"eps":0.1,"epv":1.0,"lon":4.8259027409302915,"time":"2015-09-24T10:57:20.146Z","epd":0.1,"epx":1.0,"speed":9.607694803026446,"alt":0.0,"epy":1.0,"track":326.89482532985085,"class":"TPV","lat":52.18877463294307,"mode":3}
{"ept":0.001,"eps":0.1,"epv":1.0,"lon":4.825825743983299,"time":"2015-09-24T10:57:21.146Z","epd":0.1,"epx":1.0,"speed":9.607694803026446,"alt":0.0,"epy":1.0,"track":326.89482532985085,"class":"TPV","lat":52.188847010992205,"mode":3}
{"ept":0.001,"eps":0.1,"epv":1.0,"lon":4.8257487470363065,"time":"2015-09-24T10:57:22.146Z","epd":0.1,"epx":1.0,"speed":9.607694803026446,"alt":0.0,"epy":1.0,"track":326.89482532985085,"class":"TPV","lat":52.18891938904134,"mode":3}
{"ept":0.001,"eps":0.1,"epv":1.0,"lon":4.825671750089313,"time":"2015-09-24T10:57:23.146Z","epd":0.1,"epx":1.0,"speed":9.607694803026446,"alt":0.0,"epy":1.0,"track":326.89482532985085,"class":"TPV","lat":52.18899176709047,"mode":3}
{"ept":0.001,"eps":0.1,"epv":1.0,"lon":4.825594753142321,"time":"2015-09-24T10:57:24.147Z","epd":0.1,"epx":1.0,"speed":9.607694803026446,"alt":0.0,"epy":1.0,"track":326.89482532985085,"class":"TPV","lat":52.189064145139604,"mode":3}
{"ept":0.001,"eps":0.1,"epv":1.0,"lon":4.825517756195328,"time":"2015-09-24T10:57:25.146Z","epd":0.1,"epx":1.0,"speed":9.607694803026446,"alt":0.0,"epy":1.0,"track":326.89482532985085,"class":"TPV","lat":52.189136523188736,"mode":3}
{"ept":0.001,"eps":0.1,"epv":1.0,"lon":4.825440759248336,"time":"2015-09-24T10:57:26.146Z","epd":0.1,"epx":1.0,"speed":9.607694803026446,"alt":0.0,"epy":1.0,"track":326.89482532985085,"class":"TPV","lat":52.18920890123787,"mode":3}
{"ept":0.001,"eps":0.1,"epv":1.0,"lon":4.825363762301343,"time":"2015-09-24T10:57:27.146Z","epd":0.1,"epx":1.0,"speed":9.607694803026446,"alt":0.0,"epy":1.0,"track":326.89482532985085,"class":"TPV","lat":52.18928127928701,"mode":3}
{"ept":0.001,"eps":0.1,"epv":1.0,"lon":4.82528676535435,"time":"2015-09-24T10:57:28.146Z","epd":0.1,"epx":1.0,"speed":9.607694803026446,"alt":0.0,"epy":1.0,"track":326.89482532985085,"class":"TPV","lat":52.18935365733614,"mode":3}
{"ept":0.001,"eps":0.1,"epv":1.0,"lon":4.825209768407357,"time":"2015-09-24T10:57:29.146Z","epd":0.1,"epx":1.0,"speed":9.607694803026446,"alt":0.0,"epy":1.0,"track":326.89482532985085,"class":"TPV","lat":52.189426035385274,"mode":3}
{"ept":0.001,"eps":0.1,"epv":1.0,"lon":4.825132771460365,"time":"2015-09-24T10:57:30.146Z","epd":0.1,"epx":1.0,"speed":9.607694803026446,"alt":0.0,"epy":1.0,"track":326.89482532985085,"class":"TPV","lat":52.18949841343441,"mode":3}
{"ept":0.001,"eps":0.1,"epv":1.0,"lon":4.825055774513372,"time":"2015-09-24T10:57:31.146Z","epd":0.1,"epx":1.0,"speed":9.607694803026446,"alt":0.0,"epy":1.0,"track":326.89482532985085,"class":"TPV","lat":52.18957079148354,"mode":3}
{"ept":0.001,"eps":0.1,"epv":1.0,"lon":4.82497877756638,"time":"2015-09-24T10:57:32.146Z","epd":0.1,"epx":1.0,"speed":9.607694803026446,"alt":0.0,"epy":1.0,"track":326.89482532985085,"class":"TPV","lat":52.18964316953267,"mode":3}
{"ept":0.001,"eps":0.1,"epv":1.0,"lon":4.824901780619387,"time":"2015-09-24T10:57:33.146Z","epd":0.1,"epx":1.0,"speed":9.607694803026446,"alt":0.0,"epy":1.0,"track":326.89482532985085,"class":"TPV","lat":52.189715547581805,"mode":3}
{"ept":0.001,"eps":0.1,"epv":1.0,"lon":4.824824783672394,"time":"2015-09-24T10:57:34.146Z","epd":0.1,"epx":1.0,"speed":9.607694803026446,"alt":0.0,"epy":1.0,"track":326.89482532985085,"class":"TPV","lat":52.18978792563094,"mode":3}
{"ept":0.001,"eps":0.1,"epv":1.0,"lon":4.824747786725402,"time":"2015-09-24T10:57:35.146Z","epd":0.1,"epx":1.0,"speed":9.607694803026446,"alt":0.0,"epy":1.0,"track":326.89482532985085,"class":"TPV","lat":52.18986030368007,"mode":3}
{"ept":0.001,"eps":0.1,"epv":1.0,"lon":4.824670789778409,"time":"2015-09-24T10:57:36.146Z","epd":0.1,"epx":1.0,"speed":9.607694803026446,"alt":0.0,"epy":1.0,"track":326.89482532985085,"class":"TPV","lat":52.1899326817292,"mode":3}
{"ept":0.001,"eps":0.1,"epv":1.0,"lon":4.824593792831417,"time":"2015-09-24T10:57:37.146Z","epd":0.1,"epx":1.0,"speed":9.607694803026446,"alt":0.0,"epy":1.0,"track":326.89482532985085,"class":"TPV","lat":52.190005059778336,"mode":3}
{"ept":0.001,"eps":0.1,"epv":1.0,"lon":4.824516795884424,"time":"2015-09-24T10:57:38.146Z","epd":0.1,"epx":1.0,"speed":9.607694803026446,"alt":0.0,"epy":1.0,"track":326.89482532985085,"class":"TPV","lat":52.19007743782747,"mode":3}
{"ept":0.001,"eps":0.1,"epv":1.0,"lon":4.824439798937431,"time":"2015-09-24T10:57:39.146Z","epd":0.1,"epx":1.0,"speed":9.607694803026446,"alt":0.0,"epy":1.0,"track":326.89482532985085,"class":"TPV","lat":52.19014981587661,"mode":3}
{"ept":0.001,"eps":0.1,"epv":1.0,"lon":4.824362801990438,"time":"2015-09-24T10:57:40.146Z","epd":0.1,"epx":1.0,"speed":9.607694803026446,"alt":0.0,"epy":1.0,"track":326.89482532985085,"class":"TPV","lat":52.19022219392574,"mode":3}
{"ept":0.001,"eps":0.1,"epv":1.0,"lon":4.824285805043446,"time":"2015-09-24T10:57:41.146Z","epd":0.1,"epx":1.0,"speed":9.607694803026446,"alt":0.0,"epy":1.0,"track":326.89482532985085,"class":"TPV","lat":52.190294571974874,"mode":3}
{"ept":0.001,"eps":0.1,"epv":1.0,"lon":4.824208808096453,"time":"2015-09-24T10:57:42.146Z","epd":0.1,"epx":1.0,"speed":9.607694803026446,"alt":0.0,"epy":1.0,"track":326.89482532985085,"class":"TPV","lat":52.19036695002401,"mode":3}
{"ept":0.001,"eps":0.1,"epv":1.0,"lon":4.824131811149461,"time":"2015-09-24T10:57:43.146Z","epd":0.1,"epx":1.0,"speed":9.607694803026446,"alt":0.0,"epy":1.0,"track":326.89482532985085,"class":"TPV","lat":52.19043932807314,"mode":3}
{"ept":0.001,"eps":0.1,"epv":1.0,"lon":4.8240548142024675,"time":"2015-09-24T10:57:44.146Z","epd":0.1,"epx":1.0,"speed":9.607694803026446,"alt":0.0,"epy":1.0,"track":326.89482532985085,"class":"TPV","lat":52.19051170612227,"mode":3}
{"ept":0.001,"eps":0.1,"epv":1.0,"lon":4.823977817255475,"time":"2015-09-24T10:57:45.146Z","epd":0.1,"epx":1.0,"speed":9.607694803026446,"alt":0.0,"epy":1.0,"track":326.89482532985085,"class":"TPV","lat":52.190584084171405,"mode":3}
{"ept":0.001,"eps":0.1,"epv":1.0,"lon":4.8239008203084826,"time":"2015-09-24T10:57:46.146Z","epd":0.1,"epx":1.0,"speed":9.607694803026446,"alt":0.0,"epy":1.0,"track":326.89482532985085,"class":"TPV","lat":52.19065646222054,"mode":3}
{"ept":0.001,"eps":0.1,"epv":1.0,"lon":4.82382382336149,"time":"2015-09-24T10:57:47.146Z","epd":0.1,"epx":1.0,"speed":9.607694803026446,"alt":0.0,"epy":1.0,"track":326.89482532985085,"class":"TPV","lat":52.19072884026967,"mode":3}
{"ept":0.001,"eps":0.1,"epv":1.0,"lon":4.823746826414498,"time":"2015-09-24T10:57:48.146Z","epd":0.1,"epx":1.0,"speed":9.607694803026446,"alt":0.0,"epy":1.0,"track":326.89482532985085,"class":"TPV","lat":52.1908012183188,"mode":3}
{"ept":0.001,"eps":0.1,"epv":1.0,"lon":4.823669829467504,"time":"2015-09-24T10:57:49.146Z","epd":0.1,"epx":1.0,"speed":9.607694803026446,"alt":0.0,"epy":1.0,"track":326.89482532985085,"class":"TPV","lat":52.190873596367936,"mode":3}
{"ept":0.001,"eps":0.1,"epv":1.0,"lon":4.823592832520512,"time":"2015-09-24T10:57:50.146Z","epd":0.1,"epx":1.0,"speed":9.607694803026446,"alt":0.0,"epy":1.0,"track":326.89482532985085,"class":"TPV","lat":52.19094597441707,"mode":3}
{"ept":0.001,"eps":0.1,"epv":1.0,"lon":4.823515835573519,"time":"2015-09-24T10:57:51.147Z","epd":0.1,"epx":1.0,"speed":9.607694803026446,"alt":0.0,"epy":1.0,"track":326.89482532985085,"class":"TPV","lat":52.19101835246621,"mode":3}
{"ept":0.001,"eps":0.1,"epv":1.0,"lon":4.823438838626527,"time":"2015-09-24T10:57:52.146Z","epd":0.1,"epx":1.0,"speed":9.607694803026446,"alt":0.0,"epy":1.0,"track":326.89482532985085,"class":"TPV","lat":52.19109073051534,"mode":3}
{"ept":0.001,"eps":0.1,"epv":1.0,"lon":4.823361841679534,"time":"2015-09-24T10:57:53.146Z","epd":0.1,"epx":1.0,"speed":9.607694803026446,"alt":0.0,"epy":1.0,"track":326.89482532985085,"class":"TPV","lat":52.191163108564474,"mode":3}
{"ept":0.001,"eps":0.1,"epv":1.0,"lon":4.823284844732541,"time":"2015-09-24T10:57:54.146Z","epd":0.1,"epx":1.0,"speed":9.607694803026446,"alt":0.0,"epy":1.0,"track":326.89482532985085,"class":"TPV","lat":52.19123548661361,"mode":3}
{"ept":0.001,"eps":0.1,"epv":1.0,"lon":4.8232078477855485,"time":"2015-09-24T10:57:55.146Z","epd":0.1,"epx":1.0,"speed":9.607694803026446,"alt":0.0,"epy":1.0,"track":326.89482532985085,"class":"TPV","lat":52.19130786466274,"mode":3}
{"ept":0.001,"eps":0.1,"epv":1.0,"lon":4.823130850838556,"time":"2015-09-24T10:57:56.146Z","epd":0.1,"epx":1.0,"speed":9.607694803026446,"alt":0.0,"epy":1.0,"track":326.89482532985085,"class":"TPV","lat":52.19138024271187,"mode":3}
{"ept":0.001,"eps":0.1,"epv":1.0,"lon":4.8230538538915635,"time":"2015-09-24T10:57:57.146Z","epd":0.1,"epx":1.0,"speed":9.607694803026446,"alt":0.0,"epy":1.0,"track":326.89482532985085,"class":"TPV","lat":52.191452620761005,"mode":3}
{"ept":0.001,"eps":0.1,"epv":1.0,"lon":4.822976856944571,"time":"2015-09-24T10:57:58.146Z","epd":0.1,"epx":1.0,"speed":9.607694803026446,"alt":0.0,"epy":1.0,"track":326.89482532985085,"class":"TPV","lat":52.19152499881014,"mode":3}
{"ept":0.001,"eps":0.1,"epv":1.0,"lon":4.8228998599975785,"time":"2015-09-24T10:57:59.146Z","epd":0.1,"epx":1.0,"speed":9.607694803026446,"alt":0.0,"epy":1.0,"track":326.89482532985085,"class":"TPV","lat":52.19159737685927,"mode":3}
{"ept":0.001,"eps":0.1,"epv":1.0,"lon":4.822822863050585,"time":"2015-09-24T10:58:00.146Z","epd":0.1,"epx":1.0,"speed":9.607694803026446,"alt":0.0,"epy":1.0,"track":326.89482532985085,"class":"TPV","lat":52.1916697549084,"mode":3}
{"ept":0.001,"eps":0.1,"epv":1.0,"lon":4.822745866103593,"time":"2015-09-24T10:58:01.146Z","epd":0.1,"epx":1.0,"speed":9.607694803026446,"alt":0.0,"epy":1.0,"track":326.89482532985085,"class":"TPV","lat":52.191742132957536,"mode":3}
{"ept":0.001,"eps":0.1,"epv":1.0,"lon":4.8226688691566,"time":"2015-09-24T10:58:02.146Z","epd":0.1,"epx":1.0,"speed":9.607694803026446,"alt":0.0,"epy":1.0,"track":326.89482532985085,"class":"TPV","lat":52.19181451100667,"mode":3}
{"ept":0.001,"eps":0.1,"epv":1.0,"lon":4.822591872209608,"time":"2015-09-24T10:58:03.146Z","epd":0.1,"epx":1.0,"speed":9.607694803026446,"alt":0.0,"epy":1.0,"track":326.89482532985085,"class":"TPV","lat":52.19188688905581,"mode":3}
{"ept":0.001,"eps":0.1,"epv":1.0,"lon":4.822514875262615,"time":"2015-09-24T10:58:04.146Z","epd":0.1,"epx":1.0,"speed":9.607694803026446,"alt":0.0,"epy":1.0,"track":326.89482532985085,"class":"TPV","lat":52.19195926710494,"mode":3}
{"ept":0.001,"eps":0.1,"epv":1.0,"lon":4.822437878315622,"time":"2015-09-24T10:58:05.147Z","epd":0.1,"epx":1.0,"speed":9.607694803026446,"alt":0.0,"epy":1.0,"track":326.89482532985085,"class":"TPV","lat":52.192031645154074,"mode":3}
{"ept":0.001,"eps":0.1,"epv":1.0,"lon":4.822360881368629,"time":"2015-09-24T10:58:06.147Z","epd":0.1,"epx":1.0,"speed":9.607694803026446,"alt":0.0,"epy":1.0,"track":326.89482532985085,"class":"TPV","lat":52.19210402320321,"mode":3}
{"ept":0.001,"eps":0.1,"epv":1.0,"lon":4.822283884421637,"time":"2015-09-24T10:58:07.146Z","epd":0.1,"epx":1.0,"speed":9.607694803026446,"alt":0.0,"epy":1.0,"track":326.89482532985085,"class":"TPV","lat":52.19217640125234,"mode":3}
{"ept":0.001,"eps":0.1,"epv":1.0,"lon":4.822206887474644,"time":"2015-09-24T10:58:08.146Z","epd":0.1,"epx":1.0,"speed":9.607694803026446,"alt":0.0,"epy":1.0,"track":326.89482532985085,"class":"TPV","lat":52.19224877930147,"mode":3}
{"ept":0.001,"eps":0.1,"epv":1.0,"lon":4.822129890527652,"time":"2015-09-24T10:58:09.146Z","epd":0.1,"epx":1.0,"speed":9.607694803026446,"alt":0.0,"epy":1.0,"track":326.89482532985085,"class":"TPV","lat":52.192321157350605,"mode":3}
{"ept":0.001,"eps":0.1,"epv":1.0,"lon":4.822052893580659,"time":"2015-09-24T10:58:10.146Z","epd":0.1,"epx":1.0,"speed":9.607694803026446,"alt":0.0,"epy":1.0,"track":326.89482532985085,"class":"TPV","lat":52.19239353539974,"mode":3}
{"ept":0.001,"eps":0.1,"epv":1.0,"lon":4.821975896633666,"time":"2015-09-24T10:58:11.146Z","epd":0.1,"epx":1.0,"speed":9.607694803026446,"alt":0.0,"epy":1.0,"track":326.89482532985085,"class":"TPV","lat":52.19246591344887,"mode":3}
{"ept":0.001,"eps":0.1,"epv":1.0,"lon":4.821898899686674,"time":"2015-09-24T10:58:12.146Z","epd":0.1,"epx":1.0,"speed":9.607694803026446,"alt":0.0,"epy":1.0,"track":326.89482532985085,"class":"TPV","lat":52.192538291498,"mode":3}
{"ept":0.001,"eps":0.1,"epv":1.0,"lon":4.821821902739681,"time":"2015-09-24T10:58:13.146Z","epd":0.1,"epx":1.0,"speed":9.607694803026446,"alt":0.0,"epy":1.0,"track":326.89482532985085,"class":"TPV","lat":52.192610669547136,"mode":3}
{"ept":0.001,"eps":0.1,"epv":1.0,"lon":4.821744905792689,"time":"2015-09-24T10:58:14.146Z","epd":0.1,"epx":1.0,"speed":9.607694803026446,"alt":0.0,"epy":1.0,"track":326.89482532985085,"class":"TPV","lat":52.19268304759627,"mode":3}
{"ept":0.001,"eps":0.1,"epv":1.0,"lon":4.821667908845695,"time":"2015-09-24T10:58:15.146Z","epd":0.1,"epx":1.0,"speed":9.607694803026446,"alt":0.0,"epy":1.0,"track":326.89482532985085,"class":"TPV","lat":52.19275542564541,"mode":3}
{"ept":0.001,"eps":0.1,"epv":1.0,"lon":4.821590911898703,"time":"2015-09-24T10:58:16.147Z","epd":0.1,"epx":1.0,"speed":9.607694803026446,"alt":0.0,"epy":1.0,"track":326.89482532985085,"class":"TPV","lat":52.19282780369454,"mode":3}
