{"class":"VERSION","release":"3.6","rev":"3.6","proto_major":3,"proto_minor":7}
{"class":"DEVICES","devices":[{"class":"DEVICE","path":"gpsd://192.168.50.240:61000","activated":"2015-09-24T10:53:35.735Z","driver":"JSON slave driver"}]}
{"class":"WATCH","enable":true,"json":true,"nmea":false,"raw":0,"scaled":false,"timing":false}
{"ept":0.001,"eps":0.1,"epv":1.0,"lon":4.803017210282154,"time":"2015-09-24T10:54:02.146Z","epd":0.1,"epx":1.0,"speed":9.397992788900435,"alt":0.0,"epy":1.0,"track":63.8376239004464,"class":"TPV","lat":52.18297777717219,"mode":3}
{"ept":0.001,"eps":0.1,"epv":1.0,"lon":4.803140979670642,"time":"2015-09-24T10:54:03.146Z","epd":0.1,"epx":1.0,"speed":9.397992788900435,"alt":0.0,"epy":1.0,"track":63.8376239004464,"class":"TPV","lat":52.18301504263749,"mode":3}
{"ept":0.001,"eps":0.1,"epv":1.0,"lon":4.80326474905913,"time":"2015-09-24T10:54:04.146Z","epd":0.1,"epx":1.0,"speed":9.397992788900435,"alt":0.0,"epy":1.0,"track":63.8376239004464,"class":"TPV","lat":52.183052308102795,"mode":3}
{"ept":0.001,"eps":0.1,"epv":1.0,"lon":4.803388518447618,"time":"2015-09-24T10:54:05.147Z","epd":0.1,"epx":1.0,"speed":9.397992788900435,"alt":0.0,"epy":1.0,"track":63.8376239004464,"class":"TPV","lat":52.1830895735681,"mode":3}
{"ept":0.001,"eps":0.1,"epv":1.0,"lon":4.8035122878361065,"time":"2015-09-24T10:54:06.147Z","epd":0.1,"epx":1.0,"speed":9.397992788900435,"alt":0.0,"epy":1.0,"track":63.8376239004464,"class":"TPV","lat":52.1831268390334,"mode":3}
{"ept":0.001,"eps":0.1,"epv":1.0,"lon":4.803636057224594,"time":"2015-09-24T10:54:07.147Z","epd":0.1,"epx":1.0,"speed":9.397992788900435,"alt":0.0,"epy":1.0,"track":63.8376239004464,"class":"TPV","lat":52.1831641044987,"mode":3}
{"ept":0.001,"eps":0.1,"epv":1.0,"lon":4.803759826613082,"time":"2015-09-24T10:54:08.147Z","epd":0.1,"epx":1.0,"speed":9.397992788900435,"alt":0.0,"epy":1.0,"track":63.8376239004464,"class":"TPV","lat":52.18320136996401,"mode":3}
{"ept":0.001,"eps":0.1,"epv":1.0,"lon":4.80388359600157,"time":"2015-09-24T10:54:09.147Z","epd":0.1,"epx":1.0,"speed":9.397992788900435,"alt":0.0,"epy":1.0,"track":63.8376239004464,"class":"TPV","lat":52.18323863542931,"mode":3}
{"ept":0.001,"eps":0.1,"epv":1.0,"lon":4.804007365390058,"time":"2015-09-24T10:54:10.146Z","epd":0.1,"epx":1.0,"speed":9.397992788900435,"alt":0.0,"epy":1.0,"track":63.8376239004464,"class":"TPV","lat":52.183275900894614,"mode":3}
{"ept":0.001,"eps":0.1,"epv":1.0,"lon":4.804131134778546,"time":"2015-09-24T10:54:11.146Z","epd":0.1,"epx":1.0,"speed":9.397992788900435,"alt":0.0,"epy":1.0,"track":63.8376239004464,"class":"TPV","lat":52.183313166359916,"mode":3}
{"ept":0.001,"eps":0.1,"epv":1.0,"lon":4.804254904167034,"time":"2015-09-24T10:54:12.146Z","epd":0.1,"epx":1.0,"speed":9.397992788900435,"alt":0.0,"epy":1.0,"track":63.8376239004464,"class":"TPV","lat":52.18335043182522,"mode":3}
{"ept":0.001,"eps":0.1,"epv":1.0,"lon":4.804378673555521,"time":"2015-09-24T10:54:13.146Z","epd":0.1,"epx":1.0,"speed":9.397992788900435,"alt":0.0,"epy":1.0,"track":63.8376239004464,"class":"TPV","lat":52.18338769729052,"mode":3}
{"ept":0.001,"eps":0.1,"epv":1.0,"lon":4.80450244294401,"time":"2015-09-24T10:54:14.146Z","epd":0.1,"epx":1.0,"speed":9.397992788900435,"alt":0.0,"epy":1.0,"track":63.8376239004464,"class":"TPV","lat":52.18342496275582,"mode":3}
{"ept":0.001,"eps":0.1,"epv":1.0,"lon":4.804626212332497,"time":"2015-09-24T10:54:15.146Z","epd":0.1,"epx":1.0,"speed":9.397992788900435,"alt":0.0,"epy":1.0,"track":63.8376239004464,"class":"TPV","lat":52.183462228221124,"mode":3}
{"ept":0.001,"eps":0.1,"epv":1.0,"lon":4.8047499817209856,"time":"2015-09-24T10:54:16.146Z","epd":0.1,"epx":1.0,"speed":9.397992788900435,"alt":0.0,"epy":1.0,"track":63.8376239004464,"class":"TPV","lat":52.183499493686426,"mode":3}
{"ept":0.001,"eps":0.1,"epv":1.0,"lon":4.804873751109473,"time":"2015-09-24T10:54:17.146Z","epd":0.1,"epx":1.0,"speed":9.397992788900435,"alt":0.0,"epy":1.0,"track":63.8376239004464,"class":"TPV","lat":52.18353675915173,"mode":3}
{"ept":0.001,"eps":0.1,"epv":1.0,"lon":4.804997520497961,"time":"2015-09-24T10:54:18.146Z","epd":0.1,"epx":1.0,"speed":9.397992788900435,"alt":0.0,"epy":1.0,"track":63.8376239004464,"class":"TPV","lat":52.18357402461703,"mode":3}
{"ept":0.001,"eps":0.1,"epv":1.0,"lon":4.805121289886449,"time":"2015-09-24T10:54:19.146Z","epd":0.1,"epx":1.0,"speed":9.397992788900435,"alt":0.0,"epy":1.0,"track":63.8376239004464,"class":"TPV","lat":52.18361129008234,"mode":3}
{"ept":0.001,"eps":0.1,"epv":1.0,"lon":4.805245059274937,"time":"2015-09-24T10:54:20.146Z","epd":0.1,"epx":1.0,"speed":9.397992788900435,"alt":0.0,"epy":1.0,"track":63.8376239004464,"class":"TPV","lat":52.18364855554764,"mode":3}
{"ept":0.001,"eps":0.1,"epv":1.0,"lon":4.805368828663425,"time":"2015-09-24T10:54:21.146Z","epd":0.1,"epx":1.0,"speed":9.397992788900435,"alt":0.0,"epy":1.0,"track":63.8376239004464,"class":"TPV","lat":52.18368582101294,"mode":3}
{"ept":0.001,"eps":0.1,"epv":1.0,"lon":4.805492598051913,"time":"2015-09-24T10:54:22.146Z","epd":0.1,"epx":1.0,"speed":9.397992788900435,"alt":0.0,"epy":1.0,"track":63.8376239004464,"class":"TPV","lat":52.183723086478246,"mode":3}
{"ept":0.001,"eps":0.1,"epv":1.0,"lon":4.8056163674404,"time":"2015-09-24T10:54:23.146Z","epd":0.1,"epx":1.0,"speed":9.397992788900435,"alt":0.0,"epy":1.0,"track":63.8376239004464,"class":"TPV","lat":52.18376035194355,"mode":3}
{"ept":0.001,"eps":0.1,"epv":1.0,"lon":4.805740136828889,"time":"2015-09-24T10:54:24.146Z","epd":0.1,"epx":1.0,"speed":9.397992788900435,"alt":0.0,"epy":1.0,"track":63.8376239004464,"class":"TPV","lat":52.18379761740885,"mode":3}
{"ept":0.001,"eps":0.1,"epv":1.0,"lon":4.805863906217377,"time":"2015-09-24T10:54:25.146Z","epd":0.1,"epx":1.0,"speed":9.397992788900435,"alt":0.0,"epy":1.0,"track":63.8376239004464,"class":"TPV","lat":52.18383488287415,"mode":3}
{"ept":0.001,"eps":0.1,"epv":1.0,"lon":4.805987675605865,"time":"2015-09-24T10:54:26.146Z","epd":0.1,"epx":1.0,"speed":9.397992788900435,"alt":0.0,"epy":1.0,"track":63.8376239004464,"class":"TPV","lat":52.183872148339454,"mode":3}
{"ept":0.001,"eps":0.1,"epv":1.0,"lon":4.806111444994353,"time":"2015-09-24T10:54:27.146Z","epd":0.1,"epx":1.0,"speed":9.397992788900435,"alt":0.0,"epy":1.0,"track":63.8376239004464,"class":"TPV","lat":52.183909413804756,"mode":3}
{"ept":0.001,"eps":0.1,"epv":1.0,"lon":4.80623521438284,"time":"2015-09-24T10:54:28.146Z","epd":0.1,"epx":1.0,"speed":9.397992788900435,"alt":0.0,"epy":1.0,"track":63.8376239004464,"class":"TPV","lat":52.18394667927006,"mode":3}
{"ept":0.001,"eps":0.1,"epv":1.0,"lon":4.806358983771329,"time":"2015-09-24T10:54:29.146Z","epd":0.1,"epx":1.0,"speed":9.397992788900435,"alt":0.0,"epy":1.0,"track":63.8376239004464,"class":"TPV","lat":52.18398394473537,"mode":3}
{"ept":0.001,"eps":0.1,"epv":1.0,"lon":4.806482753159816,"time":"2015-09-24T10:54:30.146Z","epd":0.1,"epx":1.0,"speed":9.397992788900435,"alt":0.0,"epy":1.0,"track":63.8376239004464,"class":"TPV","lat":52.18402121020067,"mode":3}
{"ept":0.001,"eps":0.1,"epv":1.0,"lon":4.806606522548305,"time":"2015-09-24T10:54:31.146Z","epd":0.1,"epx":1.0,"speed":9.397992788900435,"alt":0.0,"epy":1.0,"track":63.8376239004464,"class":"TPV","lat":52.18405847566597,"mode":3}
{"ept":0.001,"eps":0.1,"epv":1.0,"lon":4.806730291936792,"time":"2015-09-24T10:54:32.146Z","epd":0.1,"epx":1.0,"speed":9.397992788900435,"alt":0.0,"epy":1.0,"track":63.8376239004464,"class":"TPV","lat":52.18409574113127,"mode":3}
{"ept":0.001,"eps":0.1,"epv":1.0,"lon":4.80685406132528,"time":"2015-09-24T10:54:33.146Z","epd":0.1,"epx":1.0,"speed":9.397992788900435,"alt":0.0,"epy":1.0,"track":63.8376239004464,"class":"TPV","lat":52.184133006596575,"mode":3}
{"ept":0.001,"eps":0.1,"epv":1.0,"lon":4.806977830713768,"time":"2015-09-24T10:54:34.146Z","epd":0.1,"epx":1.0,"speed":9.397992788900435,"alt":0.0,"epy":1.0,"track":63.8376239004464,"class":"TPV","lat":52.18417027206188,"mode":3}
{"ept":0.001,"eps":0.1,"epv":1.0,"lon":4.807101600102256,"time":"2015-09-24T10:54:35.146Z","epd":0.1,"epx":1.0,"speed":9.397992788900435,"alt":0.0,"epy":1.0,"track":63.8376239004464,"class":"TPV","lat":52.18420753752718,"mode":3}
{"ept":0.001,"eps":0.1,"epv":1.0,"lon":4.807225369490744,"time":"2015-09-24T10:54:36.146Z","epd":0.1,"epx":1.0,"speed":9.397992788900435,"alt":0.0,"epy":1.0,"track":63.8376239004464,"class":"TPV","lat":52.18424480299248,"mode":3}
{"ept":0.001,"eps":0.1,"epv":1.0,"lon":4.807349138879232,"time":"2015-09-24T10:54:37.146Z","epd":0.1,"epx":1.0,"speed":9.397992788900435,"alt":0.0,"epy":1.0,"track":63.8376239004464,"class":"TPV","lat":52.18428206845778,"mode":3}
{"ept":0.001,"eps":0.1,"epv":1.0,"lon":4.8074729082677194,"time":"2015-09-24T10:54:38.146Z","epd":0.1,"epx":1.0,"speed":9.397992788900435,"alt":0.0,"epy":1.0,"track":63.8376239004464,"class":"TPV","lat":52.184319333923085,"mode":3}
{"ept":0.001,"eps":0.1,"epv":1.0,"lon":4.807596677656208,"time":"2015-09-24T10:54:39.146Z","epd":0.1,"epx":1.0,"speed":9.397992788900435,"alt":0.0,"epy":1.0,"track":63.8376239004464,"class":"TPV","lat":52.18435659938839,"mode":3}
{"ept":0.001,"eps":0.1,"epv":1.0,"lon":4.807720447044695,"time":"2015-09-24T10:54:40.146Z","epd":0.1,"epx":1.0,"speed":9.397992788900435,"alt":0.0,"epy":1.0,"track":63.8376239004464,"class":"TPV","lat":52.184393864853696,"mode":3}
{"ept":0.001,"eps":0.1,"epv":1.0,"lon":4.807844216433184,"time":"2015-09-24T10:54:41.146Z","epd":0.1,"epx":1.0,"speed":9.397992788900435,"alt":0.0,"epy":1.0,"track":63.8376239004464,"class":"TPV","lat":52.184431130319,"mode":3}
{"ept":0.001,"eps":0.1,"epv":1.0,"lon":4.807967985821671,"time":"2015-09-24T10:54:42.146Z","epd":0.1,"epx":1.0,"speed":9.397992788900435,"alt":0.0,"epy":1.0,"track":63.8376239004464,"class":"TPV","lat":52.1844683957843,"mode":3}
{"ept":0.001,"eps":0.1,"epv":1.0,"lon":4.808091755210159,"time":"2015-09-24T10:54:43.146Z","epd":0.1,"epx":1.0,"speed":9.397992788900435,"alt":0.0,"epy":1.0,"track":63.8376239004464,"class":"TPV","lat":52.1845056612496,"mode":3}
{"ept":0.001,"eps":0.1,"epv":1.0,"lon":4.808215524598648,"time":"2015-09-24T10:54:44.146Z","epd":0.1,"epx":1.0,"speed":9.397992788900435,"alt":0.0,"epy":1.0,"track":63.8376239004464,"class":"TPV","lat":52.184542926714904,"mode":3}
{"ept":0.001,"eps":0.1,"epv":1.0,"lon":4.808339293987135,"time":"2015-09-24T10:54:45.146Z","epd":0.1,"epx":1.0,"speed":9.397992788900435,"alt":0.0,"epy":1.0,"track":63.8376239004464,"class":"TPV","lat":52.184580192180206,"mode":3}
{"ept":0.001,"eps":0.1,"epv":1.0,"lon":4.808463063375624,"time":"2015-09-24T10:54:46.146Z","epd":0.1,"epx":1.0,"speed":9.397992788900435,"alt":0.0,"epy":1.0,"track":63.8376239004464,"class":"TPV","lat":52.18461745764551,"mode":3}
{"ept":0.001,"eps":0.1,"epv":1.0,"lon":4.808586832764111,"time":"2015-09-24T10:54:47.146Z","epd":0.1,"epx":1.0,"speed":9.397992788900435,"alt":0.0,"epy":1.0,"track":63.8376239004464,"class":"TPV","lat":52.18465472311081,"mode":3}
{"ept":0.001,"eps":0.1,"epv":1.0,"lon":4.808710602152599,"time":"2015-09-24T10:54:48.146Z","epd":0.1,"epx":1.0,"speed":9.397992788900435,"alt":0.0,"epy":1.0,"track":63.8376239004464,"class":"TPV","lat":52.18469198857611,"mode":3}
{"ept":0.001,"eps":0.1,"epv":1.0,"lon":4.808834371541087,"time":"2015-09-24T10:54:49.146Z","epd":0.1,"epx":1.0,"speed":9.397992788900435,"alt":0.0,"epy":1.0,"track":63.8376239004464,"class":"TPV","lat":52.184729254041414,"mode":3}
{"ept":0.001,"eps":0.1,"epv":1.0,"lon":4.808958140929575,"time":"2015-09-24T10:54:50.146Z","epd":0.1,"epx":1.0,"speed":9.397992788900435,"alt":0.0,"epy":1.0,"track":63.8376239004464,"class":"TPV","lat":52.18476651950672,"mode":3}
{"ept":0.001,"eps":0.1,"epv":1.0,"lon":4.809081910318063,"time":"2015-09-24T10:54:51.146Z","epd":0.1,"epx":1.0,"speed":9.397992788900435,"alt":0.0,"epy":1.0,"track":63.8376239004464,"class":"TPV","lat":52.184803784972026,"mode":3}
{"ept":0.001,"eps":0.1,"epv":1.0,"lon":4.809205679706551,"time":"2015-09-24T10:54:52.146Z","epd":0.1,"epx":1.0,"speed":9.397992788900435,"alt":0.0,"epy":1.0,"track":63.8376239004464,"class":"TPV","lat":52.18484105043733,"mode":3}
{"ept":0.001,"eps":0.1,"epv":1.0,"lon":4.8093294490950385,"time":"2015-09-24T10:54:53.146Z","epd":0.1,"epx":1.0,"speed":9.397992788900435,"alt":0.0,"epy":1.0,"track":63.8376239004464,"class":"TPV","lat":52.18487831590263,"mode":3}
{"ept":0.001,"eps":0.1,"epv":1.0,"lon":4.809453218483527,"time":"2015-09-24T10:54:54.146Z","epd":0.1,"epx":1.0,"speed":9.397992788900435,"alt":0.0,"epy":1.0,"track":63.8376239004464,"class":"TPV","lat":52.18491558136793,"mode":3}
{"ept":0.001,"eps":0.1,"epv":1.0,"lon":4.809576987872014,"time":"2015-09-24T10:54:55.146Z","epd":0.1,"epx":1.0,"speed":9.397992788900435,"alt":0.0,"epy":1.0,"track":63.8376239004464,"class":"TPV","lat":52.184952846833234,"mode":3}
{"ept":0.001,"eps":0.1,"epv":1.0,"lon":4.809700757260503,"time":"2015-09-24T10:54:56.146Z","epd":0.1,"epx":1.0,"speed":9.397992788900435,"alt":0.0,"epy":1.0,"track":63.8376239004464,"class":"TPV","lat":52.184990112298536,"mode":3}
{"ept":0.001,"eps":0.1,"epv":1.0,"lon":4.80982452664899,"time":"2015-09-24T10:54:57.146Z","epd":0.1,"epx":1.0,"speed":9.397992788900435,"alt":0.0,"epy":1.0,"track":63.8376239004464,"class":"TPV","lat":52.18502737776384,"mode":3}
{"ept":0.001,"eps":0.1,"epv":1.0,"lon":4.809948296037478,"time":"2015-09-24T10:54:58.146Z","epd":0.1,"epx":1.0,"speed":9.397992788900435,"alt":0.0,"epy":1.0,"track":63.8376239004464,"class":"TPV","lat":52.18506464322914,"mode":3}
{"ept":0.001,"eps":0.1,"epv":1.0,"lon":4.810072065425966,"time":"2015-09-24T10:54:59.146Z","epd":0.1,"epx":1.0,"speed":9.397992788900435,"alt":0.0,"epy":1.0,"track":63.8376239004464,"class":"TPV","lat":52.18510190869444,"mode":3}
{"ept":0.001,"eps":0.1,"epv":1.0,"lon":4.810195834814454,"time":"2015-09-24T10:55:00.146Z","epd":0.1,"epx":1.0,"speed":9.397992788900435,"alt":0.0,"epy":1.0,"track":63.8376239004464,"class":"TPV","lat":52.185139174159744,"mode":3}
{"ept":0.001,"eps":0.1,"epv":1.0,"lon":4.810319604202942,"time":"2015-09-24T10:55:01.146Z","epd":0.1,"epx":1.0,"speed":9.397992788900435,"alt":0.0,"epy":1.0,"track":63.8376239004464,"class":"TPV","lat":52.185176439625046,"mode":3}
{"ept":0.001,"eps":0.1,"epv":1.0,"lon":4.81044337359143,"time":"2015-09-24T10:55:02.146Z","epd":0.1,"epx":1.0,"speed":9.397992788900435,"alt":0.0,"epy":1.0,"track":63.8376239004464,"class":"TPV","lat":52.185213705090355,"mode":3}
{"ept":0.001,"eps":0.1,"epv":1.0,"lon":4.810567142979918,"time":"2015-09-24T10:55:03.146Z","epd":0.1,"epx":1.0,"speed":9.397992788900435,"alt":0.0,"epy":1.0,"track":63.8376239004464,"class":"TPV","lat":52.18525097055566,"mode":3}
{"ept":0.001,"eps":0.1,"epv":1.0,"lon":4.810690912368406,"time":"2015-09-24T10:55:04.146Z","epd":0.1,"epx":1.0,"speed":9.397992788900435,"alt":0.0,"epy":1.0,"track":63.8376239004464,"class":"TPV","lat":52.18528823602096,"mode":3}
{"ept":0.001,"eps":0.1,"epv":1.0,"lon":4.810814681756894,"time":"2015-09-24T10:55:05.146Z","epd":0.1,"epx":1.0,"speed":9.397992788900435,"alt":0.0,"epy":1.0,"track":63.8376239004464,"class":"TPV","lat":52.18532550148626,"mode":3}
{"ept":0.001,"eps":0.1,"epv":1.0,"lon":4.810938451145382,"time":"2015-09-24T10:55:06.146Z","epd":0.1,"epx":1.0,"speed":9.397992788900435,"alt":0.0,"epy":1.0,"track":63.8376239004464,"class":"TPV","lat":52.18536276695156,"mode":3}
{"ept":0.001,"eps":0.1,"epv":1.0,"lon":4.81106222053387,"time":"2015-09-24T10:55:07.146Z","epd":0.1,"epx":1.0,"speed":9.397992788900435,"alt":0.0,"epy":1.0,"track":63.8376239004464,"class":"TPV","lat":52.185400032416865,"mode":3}
{"ept":0.001,"eps":0.1,"epv":1.0,"lon":4.8111859899223575,"time":"2015-09-24T10:55:08.146Z","epd":0.1,"epx":1.0,"speed":9.397992788900435,"alt":0.0,"epy":1.0,"track":63.8376239004464,"class":"TPV","lat":52.18543729788217,"mode":3}
{"ept":0.001,"eps":0.1,"epv":1.0,"lon":4.811309759310846,"time":"2015-09-24T10:55:09.146Z","epd":0.1,"epx":1.0,"speed":9.397992788900435,"alt":0.0,"epy":1.0,"track":63.8376239004464,"class":"TPV","lat":52.18547456334747,"mode":3}
{"ept":0.001,"eps":0.1,"epv":1.0,"lon":4.811433528699333,"time":"2015-09-24T10:55:10.146Z","epd":0.1,"epx":1.0,"speed":9.397992788900435,"alt":0.0,"epy":1.0,"track":63.8376239004464,"class":"TPV","lat":52.18551182881277,"mode":3}
{"ept":0.001,"eps":0.1,"epv":1.0,"lon":4.811557298087822,"time":"2015-09-24T10:55:11.146Z","epd":0.1,"epx":1.0,"speed":9.397992788900435,"alt":0.0,"epy":1.0,"track":63.8376239004464,"class":"TPV","lat":52.18554909427807,"mode":3}
{"ept":0.001,"eps":0.1,"epv":1.0,"lon":4.811681067476309,"time":"2015-09-24T10:55:12.146Z","epd":0.1,"epx":1.0,"speed":9.397992788900435,"alt":0.0,"epy":1.0,"track":63.8376239004464,"class":"TPV","lat":52.18558635974338,"mode":3}
{"ept":0.001,"eps":0.1,"epv":1.0,"lon":4.811804836864797,"time":"2015-09-24T10:55:13.146Z","epd":0.1,"epx":1.0,"speed":9.397992788900435,"alt":0.0,"epy":1.0,"track":63.8376239004464,"class":"TPV","lat":52.185623625208684,"mode":3}
{"ept":0.001,"eps":0.1,"epv":1.0,"lon":4.811928606253285,"time":"2015-09-24T10:55:14.146Z","epd":0.1,"epx":1.0,"speed":9.397992788900435,"alt":0.0,"epy":1.0,"track":63.8376239004464,"class":"TPV","lat":52.18566089067399,"mode":3}
{"ept":0.001,"eps":0.1,"epv":1.0,"lon":4.812052375641773,"time":"2015-09-24T10:55:15.146Z","epd":0.1,"epx":1.0,"speed":9.397992788900435,"alt":0.0,"epy":1.0,"track":63.8376239004464,"class":"TPV","lat":52.18569815613929,"mode":3}
{"ept":0.001,"eps":0.1,"epv":1.0,"lon":4.812176145030261,"time":"2015-09-24T10:55:16.146Z","epd":0.1,"epx":1.0,"speed":9.397992788900435,"alt":0.0,"epy":1.0,"track":63.8376239004464,"class":"TPV","lat":52.18573542160459,"mode":3}
{"ept":0.001,"eps":0.1,"epv":1.0,"lon":4.812299914418749,"time":"2015-09-24T10:55:17.146Z","epd":0.1,"epx":1.0,"speed":9.397992788900435,"alt":0.0,"epy":1.0,"track":63.8376239004464,"class":"TPV","lat":52.18577268706989,"mode":3}
{"ept":0.001,"eps":0.1,"epv":1.0,"lon":4.8124236838072365,"time":"2015-09-24T10:55:18.146Z","epd":0.1,"epx":1.0,"speed":9.397992788900435,"alt":0.0,"epy":1.0,"track":63.8376239004464,"class":"TPV","lat":52.185809952535195,"mode":3}
{"ept":0.001,"eps":0.1,"epv":1.0,"lon":4.812547453195725,"time":"2015-09-24T10:55:19.146Z","epd":0.1,"epx":1.0,"speed":9.397992788900435,"alt":0.0,"epy":1.0,"track":63.8376239004464,"class":"TPV","lat":52.1858472180005,"mode":3}
{"ept":0.001,"eps":0.1,"epv":1.0,"lon":4.812671222584212,"time":"2015-09-24T10:55:20.146Z","epd":0.1,"epx":1.0,"speed":9.397992788900435,"alt":0.0,"epy":1.0,"track":63.8376239004464,"class":"TPV","lat":52.1858844834658,"mode":3}
{"ept":0.001,"eps":0.1,"epv":1.0,"lon":4.812794991972701,"time":"2015-09-24T10:55:21.146Z","epd":0.1,"epx":1.0,"speed":9.397992788900435,"alt":0.0,"epy":1.0,"track":63.8376239004464,"class":"TPV","lat":52.1859217489311,"mode":3}
{"ept":0.001,"eps":0.1,"epv":1.0,"lon":4.812918761361188,"time":"2015-09-24T10:55:22.146Z","epd":0.1,"epx":1.0,"speed":9.397992788900435,"alt":0.0,"epy":1.0,"track":63.8376239004464,"class":"TPV","lat":52.1859590143964,"mode":3}
{"ept":0.001,"eps":0.1,"epv":1.0,"lon":4.8130425307496765,"time":"2015-09-24T10:55:23.146Z","epd":0.1,"epx":1.0,"speed":9.397992788900435,"alt":0.0,"epy":1.0,"track":63.8376239004464,"class":"TPV","lat":52.18599627986171,"mode":3}
{"ept":0.001,"eps":0.1,"epv":1.0,"lon":4.813166300138165,"time":"2015-09-24T10:55:24.146Z","epd":0.1,"epx":1.0,"speed":9.397992788900435,"alt":0.0,"epy":1.0,"track":63.8376239004464,"class":"TPV","lat":52.186033545327014,"mode":3}
{"ept":0.001,"eps":0.1,"epv":1.0,"lon":4.813290069526652,"time":"2015-09-24T10:55:25.146Z","epd":0.1,"epx":1.0,"speed":9.397992788900435,"alt":0.0,"epy":1.0,"track":63.8376239004464,"class":"TPV","lat":52.186070810792316,"mode":3}
{"ept":0.001,"eps":0.1,"epv":1.0,"lon":4.813413838915141,"time":"2015-09-24T10:55:26.146Z","epd":0.1,"epx":1.0,"speed":9.397992788900435,"alt":0.0,"epy":1.0,"track":63.8376239004464,"class":"TPV","lat":52.18610807625762,"mode":3}
{"ept":0.001,"eps":0.1,"epv":1.0,"lon":4.813537608303628,"time":"2015-09-24T10:55:27.146Z","epd":0.1,"epx":1.0,"speed":9.397992788900435,"alt":0.0,"epy":1.0,"track":63.8376239004464,"class":"TPV","lat":52.18614534172292,"mode":3}
{"ept":0.001,"eps":0.1,"epv":1.0,"lon":4.813661377692116,"time":"2015-09-24T10:55:28.146Z","epd":0.1,"epx":1.0,"speed":9.397992788900435,"alt":0.0,"epy":1.0,"track":63.8376239004464,"class":"TPV","lat":52.18618260718822,"mode":3}
{"ept":0.001,"eps":0.1,"epv":1.0,"lon":4.813785147080604,"time":"2015-09-24T10:55:29.146Z","epd":0.1,"epx":1.0,"speed":9.397992788900435,"alt":0.0,"epy":1.0,"track":63.8376239004464,"class":"TPV","lat":52.186219872653524,"mode":3}
{"ept":0.001,"eps":0.1,"epv":1.0,"lon":4.813908916469092,"time":"2015-09-24T10:55:30.146Z","epd":0.1,"epx":1.0,"speed":9.397992788900435,"alt":0.0,"epy":1.0,"track":63.8376239004464,"class":"TPV","lat":52.186257138118826,"mode":3}
{"ept":0.001,"eps":0.1,"epv":1.0,"lon":4.81403268585758,"time":"2015-09-24T10:55:31.146Z","epd":0.1,"epx":1.0,"speed":9.397992788900435,"alt":0.0,"epy":1.0,"track":63.8376239004464,"class":"TPV","lat":52.18629440358413,"mode":3}
{"ept":0.001,"eps":0.1,"epv":1.0,"lon":4.814156455246068,"time":"2015-09-24T10:55:32.146Z","epd":0.1,"epx":1.0,"speed":9.397992788900435,"alt":0.0,"epy":1.0,"track":63.8376239004464,"class":"TPV","lat":52.18633166904943,"mode":3}
{"ept":0.001,"eps":0.1,"epv":1.0,"lon":4.8142802246345555,"time":"2015-09-24T10:55:33.146Z","epd":0.1,"epx":1.0,"speed":9.397992788900435,"alt":0.0,"epy":1.0,"track":63.8376239004464,"class":"TPV","lat":52.18636893451473,"mode":3}
{"ept":0.001,"eps":0.1,"epv":1.0,"lon":4.814403994023044,"time":"2015-09-24T10:55:34.146Z","epd":0.1,"epx":1.0,"speed":9.397992788900435,"alt":0.0,"epy":1.0,"track":63.8376239004464,"class":"TPV","lat":52.18640619998004,"mode":3}
{"ept":0.001,"eps":0.1,"epv":1.0,"lon":4.814527763411531,"time":"2015-09-24T10:55:35.146Z","epd":0.1,"epx":1.0,"speed":9.397992788900435,"alt":0.0,"epy":1.0,"track":63.8376239004464,"class":"TPV","lat":52.18644346544534,"mode":3}
{"ept":0.001,"eps":0.1,"epv":1.0,"lon":4.81465153280002,"time":"2015-09-24T10:55:36.146Z","epd":0.1,"epx":1.0,"speed":9.397992788900435,"alt":0.0,"epy":1.0,"track":63.8376239004464,"class":"TPV","lat":52.186480730910645,"mode":3}
{"ept":0.001,"eps":0.1,"epv":1.0,"lon":4.814775302188507,"time":"2015-09-24T10:55:37.146Z","epd":0.1,"epx":1.0,"speed":9.397992788900435,"alt":0.0,"epy":1.0,"track":63.8376239004464,"class":"TPV","lat":52.18651799637595,"mode":3}
{"ept":0.001,"eps":0.1,"epv":1.0,"lon":4.8148990715769955,"time":"2015-09-24T10:55:38.146Z","epd":0.1,"epx":1.0,"speed":9.397992788900435,"alt":0.0,"epy":1.0,"track":63.8376239004464,"class":"TPV","lat":52.18655526184125,"mode":3}
{"ept":0.001,"eps":0.1,"epv":1.0,"lon":4.815022840965483,"time":"2015-09-24T10:55:39.146Z","epd":0.1,"epx":1.0,"speed":9.397992788900435,"alt":0.0,"epy":1.0,"track":63.8376239004464,"class":"TPV","lat":52.18659252730655,"mode":3}
{"ept":0.001,"eps":0.1,"epv":1.0,"lon":4.815146610353971,"time":"2015-09-24T10:55:40.146Z","epd":0.1,"epx":1.0,"speed":9.397992788900435,"alt":0.0,"epy":1.0,"track":63.8376239004464,"class":"TPV","lat":52.18662979277185,"mode":3}
{"ept":0.001,"eps":0.1,"epv":1.0,"lon":4.815270379742459,"time":"2015-09-24T10:55:41.146Z","epd":0.1,"epx":1.0,"speed":9.397992788900435,"alt":0.0,"epy":1.0,"track":63.8376239004464,"class":"TPV","lat":52.186667058237155,"mode":3}
{"ept":0.001,"eps":0.1,"epv":1.0,"lon":4.815394149130947,"time":"2015-09-24T10:55:42.146Z","epd":0.1,"epx":1.0,"speed":9.397992788900435,"alt":0.0,"epy":1.0,"track":63.8376239004464,"class":"TPV","lat":52.18670432370246,"mode":3}
{"ept":0.001,"eps":0.1,"epv":1.0,"lon":4.8155179185194354,"time":"2015-09-24T10:55:43.146Z","epd":0.1,"epx":1.0,"speed":9.397992788900435,"alt":0.0,"epy":1.0,"track":63.8376239004464,"class":"TPV","lat":52.18674158916776,"mode":3}
{"ept":0.001,"eps":0.1,"epv":1.0,"lon":4.815641687907923,"time":"2015-09-24T10:55:44.146Z","epd":0.1,"epx":1.0,"speed":9.397992788900435,"alt":0.0,"epy":1.0,"track":63.8376239004464,"class":"TPV","lat":52.18677885463307,"mode":3}
{"ept":0.001,"eps":0.1,"epv":1.0,"lon":4.815765457296411,"time":"2015-09-24T10:55:45.146Z","epd":0.1,"epx":1.0,"speed":9.397992788900435,"alt":0.0,"epy":1.0,"track":63.8376239004464,"class":"TPV","lat":52.18681612009837,"mode":3}
{"ept":0.001,"eps":0.1,"epv":1.0,"lon":4.815889226684899,"time":"2015-09-24T10:55:46.146Z","epd":0.1,"epx":1.0,"speed":9.397992788900435,"alt":0.0,"epy":1.0,"track":63.8376239004464,"class":"TPV","lat":52.18685338556367,"mode":3}
{"ept":0.001,"eps":0.1,"epv":1.0,"lon":4.816012996073387,"time":"2015-09-24T10:55:47.146Z","epd":0.1,"epx":1.0,"speed":9.397992788900435,"alt":0.0,"epy":1.0,"track":63.8376239004464,"class":"TPV","lat":52.186890651028975,"mode":3}
{"ept":0.001,"eps":0.1,"epv":1.0,"lon":4.8161367654618745,"time":"2015-09-24T10:55:48.146Z","epd":0.1,"epx":1.0,"speed":9.397992788900435,"alt":0.0,"epy":1.0,"track":63.8376239004464,"class":"TPV","lat":52.18692791649428,"mode":3}
{"ept":0.001,"eps":0.1,"epv":1.0,"lon":4.816260534850363,"time":"2015-09-24T10:55:49.146Z","epd":0.1,"epx":1.0,"speed":9.397992788900435,"alt":0.0,"epy":1.0,"track":63.8376239004464,"class":"TPV","lat":52.18696518195958,"mode":3}
{"ept":0.001,"eps":0.1,"epv":1.0,"lon":4.81638430423885,"time":"2015-09-24T10:55:50.146Z","epd":0.1,"epx":1.0,"speed":9.397992788900435,"alt":0.0,"epy":1.0,"track":63.8376239004464,"class":"TPV","lat":52.18700244742488,"mode":3}
{"ept":0.001,"eps":0.1,"epv":1.0,"lon":4.816508073627339,"time":"2015-09-24T10:55:51.146Z","epd":0.1,"epx":1.0,"speed":9.397992788900435,"alt":0.0,"epy":1.0,"track":63.8376239004464,"class":"TPV","lat":52.18703971289018,"mode":3}
{"ept":0.001,"eps":0.1,"epv":1.0,"lon":4.816631843015826,"time":"2015-09-24T10:55:52.146Z","epd":0.1,"epx":1.0,"speed":9.397992788900435,"alt":0.0,"epy":1.0,"track":63.8376239004464,"class":"TPV","lat":52.187076978355485,"mode":3}
{"ept":0.001,"eps":0.1,"epv":1.0,"lon":4.8167556124043145,"time":"2015-09-24T10:55:53.146Z","epd":0.1,"epx":1.0,"speed":9.397992788900435,"alt":0.0,"epy":1.0,"track":63.8376239004464,"class":"TPV","lat":52.18711424382079,"mode":3}
{"ept":0.001,"eps":0.1,"epv":1.0,"lon":4.816879381792802,"time":"2015-09-24T10:55:54.146Z","epd":0.1,"epx":1.0,"speed":9.397992788900435,"alt":0.0,"epy":1.0,"track":63.8376239004464,"class":"TPV","lat":52.18715150928609,"mode":3}
{"ept":0.001,"eps":0.1,"epv":1.0,"lon":4.81700315118129,"time":"2015-09-24T10:55:55.146Z","epd":0.1,"epx":1.0,"speed":9.397992788900435,"alt":0.0,"epy":1.0,"track":63.8376239004464,"class":"TPV","lat":52.1871887747514,"mode":3}
{"ept":0.001,"eps":0.1,"epv":1.0,"lon":4.817126920569778,"time":"2015-09-24T10:55:56.146Z","epd":0.1,"epx":1.0,"speed":9.397992788900435,"alt":0.0,"epy":1.0,"track":63.8376239004464,"class":"TPV","lat":52.1872260402167,"mode":3}
{"ept":0.001,"eps":0.1,"epv":1.0,"lon":4.817250689958266,"time":"2015-09-24T10:55:57.146Z","epd":0.1,"epx":1.0,"speed":9.397992788900435,"alt":0.0,"epy":1.0,"track":63.8376239004464,"class":"TPV","lat":52.187263305682,"mode":3}
{"ept":0.001,"eps":0.1,"epv":1.0,"lon":4.817374459346754,"time":"2015-09-24T10:55:58.146Z","epd":0.1,"epx":1.0,"speed":9.397992788900435,"alt":0.0,"epy":1.0,"track":63.8376239004464,"class":"TPV","lat":52.187300571147304,"mode":3}
{"ept":0.001,"eps":0.1,"epv":1.0,"lon":4.817498228735242,"time":"2015-09-24T10:55:59.146Z","epd":0.1,"epx":1.0,"speed":9.397992788900435,"alt":0.0,"epy":1.0,"track":63.8376239004464,"class":"TPV","lat":52.187337836612606,"mode":3}
{"ept":0.001,"eps":0.1,"epv":1.0,"lon":4.817621998123729,"time":"2015-09-24T10:56:00.146Z","epd":0.1,"epx":1.0,"speed":9.397992788900435,"alt":0.0,"epy":1.0,"track":63.8376239004464,"class":"TPV","lat":52.18737510207791,"mode":3}
{"ept":0.001,"eps":0.1,"epv":1.0,"lon":4.817745767512218,"time":"2015-09-24T10:56:01.146Z","epd":0.1,"epx":1.0,"speed":9.397992788900435,"alt":0.0,"epy":1.0,"track":63.8376239004464,"class":"TPV","lat":52.18741236754321,"mode":3}
{"ept":0.001,"eps":0.1,"epv":1.0,"lon":4.817869536900706,"time":"2015-09-24T10:56:02.146Z","epd":0.1,"epx":1.0,"speed":9.397992788900435,"alt":0.0,"epy":1.0,"track":63.8376239004464,"class":"TPV","lat":52.18744963300851,"mode":3}
{"ept":0.001,"eps":0.1,"epv":1.0,"lon":4.8179933062891935,"time":"2015-09-24T10:56:03.146Z","epd":0.1,"epx":1.0,"speed":9.397992788900435,"alt":0.0,"epy":1.0,"track":63.8376239004464,"class":"TPV","lat":52.187486898473814,"mode":3}
{"ept":0.001,"eps":0.1,"epv":1.0,"lon":4.818117075677682,"time":"2015-09-24T10:56:04.146Z","epd":0.1,"epx":1.0,"speed":9.397992788900435,"alt":0.0,"epy":1.0,"track":63.8376239004464,"class":"TPV","lat":52.187524163939116,"mode":3}
{"ept":0.001,"eps":0.1,"epv":1.0,"lon":4.818240845066169,"time":"2015-09-24T10:56:05.146Z","epd":0.1,"epx":1.0,"speed":9.397992788900435,"alt":0.0,"epy":1.0,"track":63.8376239004464,"class":"TPV","lat":52.18756142940442,"mode":3}
{"ept":0.001,"eps":0.1,"epv":1.0,"lon":4.818364614454658,"time":"2015-09-24T10:56:06.146Z","epd":0.1,"epx":1.0,"speed":9.397992788900435,"alt":0.0,"epy":1.0,"track":63.8376239004464,"class":"TPV","lat":52.18759869486973,"mode":3}
{"ept":0.001,"eps":0.1,"epv":1.0,"lon":4.818488383843145,"time":"2015-09-24T10:56:07.146Z","epd":0.1,"epx":1.0,"speed":9.397992788900435,"alt":0.0,"epy":1.0,"track":63.8376239004464,"class":"TPV","lat":52.18763596033503,"mode":3}
{"ept":0.001,"eps":0.1,"epv":1.0,"lon":4.8186121532316335,"time":"2015-09-24T10:56:08.146Z","epd":0.1,"epx":1.0,"speed":9.397992788900435,"alt":0.0,"epy":1.0,"track":63.8376239004464,"class":"TPV","lat":52.18767322580033,"mode":3}
{"ept":0.001,"eps":0.1,"epv":1.0,"lon":4.818735922620121,"time":"2015-09-24T10:56:09.146Z","epd":0.1,"epx":1.0,"speed":9.397992788900435,"alt":0.0,"epy":1.0,"track":63.8376239004464,"class":"TPV","lat":52.18771049126563,"mode":3}
{"ept":0.001,"eps":0.1,"epv":1.0,"lon":4.818859692008609,"time":"2015-09-24T10:56:10.146Z","epd":0.1,"epx":1.0,"speed":9.397992788900435,"alt":0.0,"epy":1.0,"track":63.8376239004464,"class":"TPV","lat":52.187747756730936,"mode":3}
{"ept":0.001,"eps":0.1,"epv":1.0,"lon":4.818983461397097,"time":"2015-09-24T10:56:11.146Z","epd":0.1,"epx":1.0,"speed":9.397992788900435,"alt":0.0,"epy":1.0,"track":63.8376239004464,"class":"TPV","lat":52.18778502219624,"mode":3}
{"ept":0.001,"eps":0.1,"epv":1.0,"lon":4.819107230785585,"time":"2015-09-24T10:56:12.146Z","epd":0.1,"epx":1.0,"speed":9.397992788900435,"alt":0.0,"epy":1.0,"track":63.8376239004464,"class":"TPV","lat":52.18782228766154,"mode":3}
{"ept":0.001,"eps":0.1,"epv":1.0,"lon":4.819231000174073,"time":"2015-09-24T10:56:13.146Z","epd":0.1,"epx":1.0,"speed":9.397992788900435,"alt":0.0,"epy":1.0,"track":63.8376239004464,"class":"TPV","lat":52.18785955312684,"mode":3}
{"ept":0.001,"eps":0.1,"epv":1.0,"lon":4.819354769562561,"time":"2015-09-24T10:56:14.146Z","epd":0.1,"epx":1.0,"speed":9.397992788900435,"alt":0.0,"epy":1.0,"track":63.8376239004464,"class":"TPV","lat":52.187896818592144,"mode":3}
{"ept":0.001,"eps":0.1,"epv":1.0,"lon":4.819478538951048,"time":"2015-09-24T10:56:15.146Z","epd":0.1,"epx":1.0,"speed":9.397992788900435,"alt":0.0,"epy":1.0,"track":63.8376239004464,"class":"TPV","lat":52.187934084057446,"mode":3}
{"ept":0.001,"eps":0.1,"epv":1.0,"lon":4.819602308339537,"time":"2015-09-24T10:56:16.146Z","epd":0.1,"epx":1.0,"speed":9.397992788900435,"alt":0.0,"epy":1.0,"track":63.8376239004464,"class":"TPV","lat":52.187971349522755,"mode":3}
{"ept":0.001,"eps":0.1,"epv":1.0,"lon":4.819726077728024,"time":"2015-09-24T10:56:17.146Z","epd":0.1,"epx":1.0,"speed":9.397992788900435,"alt":0.0,"epy":1.0,"track":63.8376239004464,"class":"TPV","lat":52.18800861498806,"mode":3}
{"ept":0.001,"eps":0.1,"epv":1.0,"lon":4.8198498471165125,"time":"2015-09-24T10:56:18.146Z","epd":0.1,"epx":1.0,"speed":9.397992788900435,"alt":0.0,"epy":1.0,"track":63.8376239004464,"class":"TPV","lat":52.18804588045336,"mode":3}
{"ept":0.001,"eps":0.1,"epv":1.0,"lon":4.819973616505,"time":"2015-09-24T10:56:19.146Z","epd":0.1,"epx":1.0,"speed":9.397992788900435,"alt":0.0,"epy":1.0,"track":63.8376239004464,"class":"TPV","lat":52.18808314591866,"mode":3}
{"ept":0.001,"eps":0.1,"epv":1.0,"lon":4.820097385893488,"time":"2015-09-24T10:56:20.146Z","epd":0.1,"epx":1.0,"speed":9.397992788900435,"alt":0.0,"epy":1.0,"track":63.8376239004464,"class":"TPV","lat":52.18812041138396,"mode":3}
{"ept":0.001,"eps":0.1,"epv":1.0,"lon":4.820221155281977,"time":"2015-09-24T10:56:21.146Z","epd":0.1,"epx":1.0,"speed":9.397992788900435,"alt":0.0,"epy":1.0,"track":63.8376239004464,"class":"TPV","lat":52.188157676849265,"mode":3}
{"ept":0.001,"eps":0.1,"epv":1.0,"lon":4.820344924670464,"time":"2015-09-24T10:56:22.146Z","epd":0.1,"epx":1.0,"speed":9.397992788900435,"alt":0.0,"epy":1.0,"track":63.8376239004464,"class":"TPV","lat":52.18819494231457,"mode":3}
{"ept":0.001,"eps":0.1,"epv":1.0,"lon":4.8204686940589525,"time":"2015-09-24T10:56:23.147Z","epd":0.1,"epx":1.0,"speed":9.397992788900435,"alt":0.0,"epy":1.0,"track":63.8376239004464,"class":"TPV","lat":52.18823220777987,"mode":3}
{"ept":0.001,"eps":0.1,"epv":1.0,"lon":4.82059246344744,"time":"2015-09-24T10:56:24.147Z","epd":0.1,"epx":1.0,"speed":9.397992788900435,"alt":0.0,"epy":1.0,"track":63.8376239004464,"class":"TPV","lat":52.18826947324517,"mode":3}
{"ept":0.001,"eps":0.1,"epv":1.0,"lon":4.820716232835928,"time":"2015-09-24T10:56:25.146Z","epd":0.1,"epx":1.0,"speed":9.397992788900435,"alt":0.0,"epy":1.0,"track":63.8376239004464,"class":"TPV","lat":52.18830673871047,"mode":3}
{"ept":0.001,"eps":0.1,"epv":1.0,"lon":4.820840002224416,"time":"2015-09-24T10:56:26.146Z","epd":0.1,"epx":1.0,"speed":9.397992788900435,"alt":0.0,"epy":1.0,"track":63.8376239004464,"class":"TPV","lat":52.188344004175775,"mode":3}
{"ept":0.001,"eps":0.1,"epv":1.0,"lon":4.820963771612904,"time":"2015-09-24T10:56:27.146Z","epd":0.1,"epx":1.0,"speed":9.397992788900435,"alt":0.0,"epy":1.0,"track":63.8376239004464,"class":"TPV","lat":52.188381269641084,"mode":3}
{"ept":0.001,"eps":0.1,"epv":1.0,"lon":4.821087541001392,"time":"2015-09-24T10:56:28.146Z","epd":0.1,"epx":1.0,"speed":9.397992788900435,"alt":0.0,"epy":1.0,"track":63.8376239004464,"class":"TPV","lat":52.188418535106386,"mode":3}
{"ept":0.001,"eps":0.1,"epv":1.0,"lon":4.82121131038988,"time":"2015-09-24T10:56:29.146Z","epd":0.1,"epx":1.0,"speed":9.397992788900435,"alt":0.0,"epy":1.0,"track":63.8376239004464,"class":"TPV","lat":52.18845580057169,"mode":3}
{"ept":0.001,"eps":0.1,"epv":1.0,"lon":4.821335079778367,"time":"2015-09-24T10:56:30.146Z","epd":0.1,"epx":1.0,"speed":9.397992788900435,"alt":0.0,"epy":1.0,"track":63.8376239004464,"class":"TPV","lat":52.18849306603699,"mode":3}
{"ept":0.001,"eps":0.1,"epv":1.0,"lon":4.821458849166856,"time":"2015-09-24T10:56:31.146Z","epd":0.1,"epx":1.0,"speed":9.397992788900435,"alt":0.0,"epy":1.0,"track":63.8376239004464,"class":"TPV","lat":52.18853033150229,"mode":3}
{"ept":0.001,"eps":0.1,"epv":1.0,"lon":4.821582618555343,"time":"2015-09-24T10:56:32.146Z","epd":0.1,"epx":1.0,"speed":9.397992788900435,"alt":0.0,"epy":1.0,"track":63.8376239004464,"class":"TPV","lat":52.188567596967594,"mode":3}
{"ept":0.001,"eps":0.1,"epv":1.0,"lon":4.8217063879438316,"time":"2015-09-24T10:56:33.146Z","epd":0.1,"epx":1.0,"speed":9.397992788900435,"alt":0.0,"epy":1.0,"track":63.8376239004464,"class":"TPV","lat":52.188604862432896,"mode":3}
{"ept":0.001,"eps":0.1,"epv":1.0,"lon":4.821830157332319,"time":"2015-09-24T10:56:34.146Z","epd":0.1,"epx":1.0,"speed":9.397992788900435,"alt":0.0,"epy":1.0,"track":63.8376239004464,"class":"TPV","lat":52.1886421278982,"mode":3}
{"ept":0.001,"eps":0.1,"epv":1.0,"lon":4.821953926720807,"time":"2015-09-24T10:56:35.147Z","epd":0.1,"epx":1.0,"speed":9.397992788900435,"alt":0.0,"epy":1.0,"track":63.8376239004464,"class":"TPV","lat":52.1886793933635,"mode":3}
{"ept":0.001,"eps":0.1,"epv":1.0,"lon":4.822077696109295,"time":"2015-09-24T10:56:36.147Z","epd":0.1,"epx":1.0,"speed":9.397992788900435,"alt":0.0,"epy":1.0,"track":63.8376239004464,"class":"TPV","lat":52.1887166588288,"mode":3}
{"ept":0.001,"eps":0.1,"epv":1.0,"lon":4.822201465497783,"time":"2015-09-24T10:56:37.147Z","epd":0.1,"epx":1.0,"speed":9.397992788900435,"alt":0.0,"epy":1.0,"track":63.8376239004464,"class":"TPV","lat":52.188753924294105,"mode":3}
{"ept":0.001,"eps":0.1,"epv":1.0,"lon":4.822325234886271,"time":"2015-09-24T10:56:38.146Z","epd":0.1,"epx":1.0,"speed":9.397992788900435,"alt":0.0,"epy":1.0,"track":63.8376239004464,"class":"TPV","lat":52.188791189759414,"mode":3}
{"ept":0.001,"eps":0.1,"epv":1.0,"lon":4.822449004274759,"time":"2015-09-24T10:56:39.146Z","epd":0.1,"epx":1.0,"speed":9.397992788900435,"alt":0.0,"epy":1.0,"track":63.8376239004464,"class":"TPV","lat":52.188828455224716,"mode":3}
{"ept":0.001,"eps":0.1,"epv":1.0,"lon":4.822572773663246,"time":"2015-09-24T10:56:40.146Z","epd":0.1,"epx":1.0,"speed":9.397992788900435,"alt":0.0,"epy":1.0,"track":63.8376239004464,"class":"TPV","lat":52.18886572069002,"mode":3}
{"ept":0.001,"eps":0.1,"epv":1.0,"lon":4.822696543051735,"time":"2015-09-24T10:56:41.146Z","epd":0.1,"epx":1.0,"speed":9.397992788900435,"alt":0.0,"epy":1.0,"track":63.8376239004464,"class":"TPV","lat":52.18890298615532,"mode":3}
{"ept":0.001,"eps":0.1,"epv":1.0,"lon":4.822820312440223,"time":"2015-09-24T10:56:42.146Z","epd":0.1,"epx":1.0,"speed":9.397992788900435,"alt":0.0,"epy":1.0,"track":63.8376239004464,"class":"TPV","lat":52.18894025162062,"mode":3}
{"ept":0.001,"eps":0.1,"epv":1.0,"lon":4.822944081828711,"time":"2015-09-24T10:56:43.146Z","epd":0.1,"epx":1.0,"speed":9.397992788900435,"alt":0.0,"epy":1.0,"track":63.8376239004464,"class":"TPV","lat":52.188977517085924,"mode":3}
{"ept":0.001,"eps":0.1,"epv":1.0,"lon":4.823067851217199,"time":"2015-09-24T10:56:44.146Z","epd":0.1,"epx":1.0,"speed":9.397992788900435,"alt":0.0,"epy":1.0,"track":63.8376239004464,"class":"TPV","lat":52.189014782551226,"mode":3}
{"ept":0.001,"eps":0.1,"epv":1.0,"lon":4.823191620605686,"time":"2015-09-24T10:56:45.146Z","epd":0.1,"epx":1.0,"speed":9.397992788900435,"alt":0.0,"epy":1.0,"track":63.8376239004464,"class":"TPV","lat":52.18905204801653,"mode":3}
{"ept":0.001,"eps":0.1,"epv":1.0,"lon":4.823315389994175,"time":"2015-09-24T10:56:46.146Z","epd":0.1,"epx":1.0,"speed":9.397992788900435,"alt":0.0,"epy":1.0,"track":63.8376239004464,"class":"TPV","lat":52.18908931348183,"mode":3}
{"ept":0.001,"eps":0.1,"epv":1.0,"lon":4.823439159382662,"time":"2015-09-24T10:56:47.147Z","epd":0.1,"epx":1.0,"speed":9.397992788900435,"alt":0.0,"epy":1.0,"track":63.8376239004464,"class":"TPV","lat":52.18912657894713,"mode":3}
{"ept":0.001,"eps":0.1,"epv":1.0,"lon":4.823562928771151,"time":"2015-09-24T10:56:48.146Z","epd":0.1,"epx":1.0,"speed":9.397992788900435,"alt":0.0,"epy":1.0,"track":63.8376239004464,"class":"TPV","lat":52.18916384441244,"mode":3}
{"ept":0.001,"eps":0.1,"epv":1.0,"lon":4.823686698159638,"time":"2015-09-24T10:56:49.146Z","epd":0.1,"epx":1.0,"speed":9.397992788900435,"alt":0.0,"epy":1.0,"track":63.8376239004464,"class":"TPV","lat":52.18920110987774,"mode":3}
{"ept":0.001,"eps":0.1,"epv":1.0,"lon":4.823810467548126,"time":"2015-09-24T10:56:50.146Z","epd":0.1,"epx":1.0,"speed":9.397992788900435,"alt":0.0,"epy":1.0,"track":63.8376239004464,"class":"TPV","lat":52.189238375343045,"mode":3}
{"ept":0.001,"eps":0.1,"epv":1.0,"lon":4.823934236936614,"time":"2015-09-24T10:56:51.147Z","epd":0.1,"epx":1.0,"speed":9.397992788900435,"alt":0.0,"epy":1.0,"track":63.8376239004464,"class":"TPV","lat":52.18927564080835,"mode":3}
{"ept":0.001,"eps":0.1,"epv":1.0,"lon":4.824058006325102,"time":"2015-09-24T10:56:52.146Z","epd":0.1,"epx":1.0,"speed":9.397992788900435,"alt":0.0,"epy":1.0,"track":63.8376239004464,"class":"TPV","lat":52.18931290627365,"mode":3}
{"ept":0.001,"eps":0.1,"epv":1.0,"lon":4.82418177571359,"time":"2015-09-24T10:56:53.146Z","epd":0.1,"epx":1.0,"speed":9.397992788900435,"alt":0.0,"epy":1.0,"track":63.8376239004464,"class":"TPV","lat":52.18935017173895,"mode":3}
{"ept":0.001,"eps":0.1,"epv":1.0,"lon":4.824305545102078,"time":"2015-09-24T10:56:54.146Z","epd":0.1,"epx":1.0,"speed":9.397992788900435,"alt":0.0,"epy":1.0,"track":63.8376239004464,"class":"TPV","lat":52.18938743720425,"mode":3}
{"ept":0.001,"eps":0.1,"epv":1.0,"lon":4.8244293144905654,"time":"2015-09-24T10:56:55.146Z","epd":0.1,"epx":1.0,"speed":9.397992788900435,"alt":0.0,"epy":1.0,"track":63.8376239004464,"class":"TPV","lat":52.189424702669555,"mode":3}
{"ept":0.001,"eps":0.1,"epv":1.0,"lon":4.824553083879054,"time":"2015-09-24T10:56:56.147Z","epd":0.1,"epx":1.0,"speed":9.397992788900435,"alt":0.0,"epy":1.0,"track":63.8376239004464,"class":"TPV","lat":52.18946196813486,"mode":3}
{"ept":0.001,"eps":0.1,"epv":1.0,"lon":4.824676853267541,"time":"2015-09-24T10:56:57.146Z","epd":0.1,"epx":1.0,"speed":9.397992788900435,"alt":0.0,"epy":1.0,"track":63.8376239004464,"class":"TPV","lat":52.18949923360016,"mode":3}
{"ept":0.001,"eps":0.1,"epv":1.0,"lon":4.82480062265603,"time":"2015-09-24T10:56:58.146Z","epd":0.1,"epx":1.0,"speed":9.397992788900435,"alt":0.0,"epy":1.0,"track":63.8376239004464,"class":"TPV","lat":52.18953649906546,"mode":3}
{"ept":0.001,"eps":0.1,"epv":1.0,"lon":4.824924392044517,"time":"2015-09-24T10:56:59.146Z","epd":0.1,"epx":1.0,"speed":9.397992788900435,"alt":0.0,"epy":1.0,"track":63.8376239004464,"class":"TPV","lat":52.18957376453077,"mode":3}
{"ept":0.001,"eps":0.1,"epv":1.0,"lon":4.825048161433005,"time":"2015-09-24T10:57:00.147Z","epd":0.1,"epx":1.0,"speed":9.397992788900435,"alt":0.0,"epy":1.0,"track":63.8376239004464,"class":"TPV","lat":52.18961102999607,"mode":3}
{"ept":0.001,"eps":0.1,"epv":1.0,"lon":4.825171930821494,"time":"2015-09-24T10:57:01.146Z","epd":0.1,"epx":1.0,"speed":9.397992788900435,"alt":0.0,"epy":1.0,"track":63.8376239004464,"class":"TPV","lat":52.189648295461375,"mode":3}
{"ept":0.001,"eps":0.1,"epv":1.0,"lon":4.825295700209981,"time":"2015-09-24T10:57:02.146Z","epd":0.1,"epx":1.0,"speed":9.397992788900435,"alt":0.0,"epy":1.0,"track":63.8376239004464,"class":"TPV","lat":52.18968556092668,"mode":3}
{"ept":0.001,"eps":0.1,"epv":1.0,"lon":4.82541946959847,"time":"2015-09-24T10:57:03.146Z","epd":0.1,"epx":1.0,"speed":9.397992788900435,"alt":0.0,"epy":1.0,"track":63.8376239004464,"class":"TPV","lat":52.18972282639198,"mode":3}
{"ept":0.001,"eps":0.1,"epv":1.0,"lon":4.825543238986957,"time":"2015-09-24T10:57:04.147Z","epd":0.1,"epx":1.0,"speed":9.397992788900435,"alt":0.0,"epy":1.0,"track":63.8376239004464,"class":"TPV","lat":52.18976009185728,"mode":3}
{"ept":0.001,"eps":0.1,"epv":1.0,"lon":4.825667008375445,"time":"2015-09-24T10:57:05.147Z","epd":0.1,"epx":1.0,"speed":9.397992788900435,"alt":0.0,"epy":1.0,"track":63.8376239004464,"class":"TPV","lat":52.18979735732258,"mode":3}
{"ept":0.001,"eps":0.1,"epv":1.0,"lon":4.825790777763933,"time":"2015-09-24T10:57:06.146Z","epd":0.1,"epx":1.0,"speed":9.397992788900435,"alt":0.0,"epy":1.0,"track":63.8376239004464,"class":"TPV","lat":52.189834622787885,"mode":3}
{"ept":0.001,"eps":0.1,"epv":1.0,"lon":4.825914547152421,"time":"2015-09-24T10:57:07.146Z","epd":0.1,"epx":1.0,"speed":9.397992788900435,"alt":0.0,"epy":1.0,"track":63.8376239004464,"class":"TPV","lat":52.18987188825319,"mode":3}
{"ept":0.001,"eps":0.1,"epv":1.0,"lon":4.826038316540909,"time":"2015-09-24T10:57:08.146Z","epd":0.1,"epx":1.0,"speed":9.397992788900435,"alt":0.0,"epy":1.0,"track":63.8376239004464,"class":"TPV","lat":52.18990915371849,"mode":3}
{"ept":0.001,"eps":0.1,"epv":1.0,"lon":4.826162085929397,"time":"2015-09-24T10:57:09.147Z","epd":0.1,"epx":1.0,"speed":9.397992788900435,"alt":0.0,"epy":1.0,"track":63.8376239004464,"class":"TPV","lat":52.18994641918379,"mode":3}
{"ept":0.001,"eps":0.1,"epv":1.0,"lon":4.8262858553178845,"time":"2015-09-24T10:57:10.146Z","epd":0.1,"epx":1.0,"speed":9.397992788900435,"alt":0.0,"epy":1.0,"track":63.8376239004464,"class":"TPV","lat":52.1899836846491,"mode":3}
{"ept":0.001,"eps":0.1,"epv":1.0,"lon":4.826409624706373,"time":"2015-09-24T10:57:11.146Z","epd":0.1,"epx":1.0,"speed":9.397992788900435,"alt":0.0,"epy":1.0,"track":63.8376239004464,"class":"TPV","lat":52.1900209501144,"mode":3}
{"ept":0.001,"eps":0.1,"epv":1.0,"lon":4.82653339409486,"time":"2015-09-24T10:57:12.146Z","epd":0.1,"epx":1.0,"speed":9.397992788900435,"alt":0.0,"epy":1.0,"track":63.8376239004464,"class":"TPV","lat":52.190058215579704,"mode":3}
{"ept":0.001,"eps":0.1,"epv":1.0,"lon":4.826657163483349,"time":"2015-09-24T10:57:13.146Z","epd":0.1,"epx":1.0,"speed":9.397992788900435,"alt":0.0,"epy":1.0,"track":63.8376239004464,"class":"TPV","lat":52.190095481045006,"mode":3}
{"ept":0.001,"eps":0.1,"epv":1.0,"lon":4.826780932871836,"time":"2015-09-24T10:57:14.147Z","epd":0.1,"epx":1.0,"speed":9.397992788900435,"alt":0.0,"epy":1.0,"track":63.8376239004464,"class":"TPV","lat":52.19013274651031,"mode":3}
{"ept":0.001,"eps":0.1,"epv":1.0,"lon":4.826904702260324,"time":"2015-09-24T10:57:15.146Z","epd":0.1,"epx":1.0,"speed":9.397992788900435,"alt":0.0,"epy":1.0,"track":63.8376239004464,"class":"TPV","lat":52.19017001197561,"mode":3}
{"ept":0.001,"eps":0.1,"epv":1.0,"lon":4.827028471648812,"time":"2015-09-24T10:57:16.146Z","epd":0.1,"epx":1.0,"speed":9.397992788900435,"alt":0.0,"epy":1.0,"track":63.8376239004464,"class":"TPV","lat":52.19020727744091,"mode":3}
{"ept":0.001,"eps":0.1,"epv":1.0,"lon":4.8271522410373,"time":"2015-09-24T10:57:17.146Z","epd":0.1,"epx":1.0,"speed":9.397992788900435,"alt":0.0,"epy":1.0,"track":63.8376239004464,"class":"TPV","lat":52.190244542906214,"mode":3}
{"ept":0.001,"eps":0.1,"epv":1.0,"lon":4.827276010425788,"time":"2015-09-24T10:57:18.146Z","epd":0.1,"epx":1.0,"speed":9.397992788900435,"alt":0.0,"epy":1.0,"track":63.8376239004464,"class":"TPV","lat":52.190281808371516,"mode":3}
{"ept":0.001,"eps":0.1,"epv":1.0,"lon":4.827399779814276,"time":"2015-09-24T10:57:19.147Z","epd":0.1,"epx":1.0,"speed":9.397992788900435,"alt":0.0,"epy":1.0,"track":63.8376239004464,"class":"TPV","lat":52.19031907383682,"mode":3}
{"ept":0.001,"eps":0.1,"epv":1.0,"lon":4.827523549202764,"time":"2015-09-24T10:57:20.146Z","epd":0.1,"epx":1.0,"speed":9.397992788900435,"alt":0.0,"epy":1.0,"track":63.8376239004464,"class":"TPV","lat":52.19035633930213,"mode":3}
{"ept":0.001,"eps":0.1,"epv":1.0,"lon":4.827647318591252,"time":"2015-09-24T10:57:21.146Z","epd":0.1,"epx":1.0,"speed":9.397992788900435,"alt":0.0,"epy":1.0,"track":63.8376239004464,"class":"TPV","lat":52.19039360476743,"mode":3}
{"ept":0.001,"eps":0.1,"epv":1.0,"lon":4.82777108797974,"time":"2015-09-24T10:57:22.146Z","epd":0.1,"epx":1.0,"speed":9.397992788900435,"alt":0.0,"epy":1.0,"track":63.8376239004464,"class":"TPV","lat":52.19043087023273,"mode":3}
{"ept":0.001,"eps":0.1,"epv":1.0,"lon":4.827894857368228,"time":"2015-09-24T10:57:23.146Z","epd":0.1,"epx":1.0,"speed":9.397992788900435,"alt":0.0,"epy":1.0,"track":63.8376239004464,"class":"TPV","lat":52.19046813569803,"mode":3}
{"ept":0.001,"eps":0.1,"epv":1.0,"lon":4.828018626756716,"time":"2015-09-24T10:57:24.147Z","epd":0.1,"epx":1.0,"speed":9.397992788900435,"alt":0.0,"epy":1.0,"track":63.8376239004464,"class":"TPV","lat":52.190505401163335,"mode":3}
{"ept":0.001,"eps":0.1,"epv":1.0,"lon":4.8281423961452035,"time":"2015-09-24T10:57:25.146Z","epd":0.1,"epx":1.0,"speed":9.397992788900435,"alt":0.0,"epy":1.0,"track":63.8376239004464,"class":"TPV","lat":52.19054266662864,"mode":3}
{"ept":0.001,"eps":0.1,"epv":1.0,"lon":4.828266165533692,"time":"2015-09-24T10:57:26.146Z","epd":0.1,"epx":1.0,"speed":9.397992788900435,"alt":0.0,"epy":1.0,"track":63.8376239004464,"class":"TPV","lat":52.19057993209394,"mode":3}
{"ept":0.001,"eps":0.1,"epv":1.0,"lon":4.828389934922179,"time":"2015-09-24T10:57:27.146Z","epd":0.1,"epx":1.0,"speed":9.397992788900435,"alt":0.0,"epy":1.0,"track":63.8376239004464,"class":"TPV","lat":52.19061719755924,"mode":3}
{"ept":0.001,"eps":0.1,"epv":1.0,"lon":4.828513704310668,"time":"2015-09-24T10:57:28.146Z","epd":0.1,"epx":1.0,"speed":9.397992788900435,"alt":0.0,"epy":1.0,"track":63.8376239004464,"class":"TPV","lat":52.19065446302454,"mode":3}
{"ept":0.001,"eps":0.1,"epv":1.0,"lon":4.828637473699155,"time":"2015-09-24T10:57:29.147Z","epd":0.1,"epx":1.0,"speed":9.397992788900435,"alt":0.0,"epy":1.0,"track":63.8376239004464,"class":"TPV","lat":52.190691728489846,"mode":3}
{"ept":0.001,"eps":0.1,"epv":1.0,"lon":4.828761243087643,"time":"2015-09-24T10:57:30.146Z","epd":0.1,"epx":1.0,"speed":9.397992788900435,"alt":0.0,"epy":1.0,"track":63.8376239004464,"class":"TPV","lat":52.19072899395515,"mode":3}
{"ept":0.001,"eps":0.1,"epv":1.0,"lon":4.828885012476131,"time":"2015-09-24T10:57:31.146Z","epd":0.1,"epx":1.0,"speed":9.397992788900435,"alt":0.0,"epy":1.0,"track":63.8376239004464,"class":"TPV","lat":52.19076625942046,"mode":3}
{"ept":0.001,"eps":0.1,"epv":1.0,"lon":4.829008781864619,"time":"2015-09-24T10:57:32.146Z","epd":0.1,"epx":1.0,"speed":9.397992788900435,"alt":0.0,"epy":1.0,"track":63.8376239004464,"class":"TPV","lat":52.19080352488576,"mode":3}
{"ept":0.001,"eps":0.1,"epv":1.0,"lon":4.829094558130872,"time":"2015-09-24T10:57:33.146Z","epd":0.1,"epx":1.0,"speed":9.49897336707415,"alt":0.0,"epy":1.0,"track":165.5778189453237,"class":"TPV","lat":52.190789595423134,"mode":3}
{"ept":0.001,"eps":0.1,"epv":1.0,"lon":4.8291292725177,"time":"2015-09-24T10:57:34.147Z","epd":0.1,"epx":1.0,"speed":9.49897336707415,"alt":0.0,"epy":1.0,"track":165.5778189453237,"class":"TPV","lat":52.19070686115892,"mode":3}
{"ept":0.001,"eps":0.1,"epv":1.0,"lon":4.829163986904529,"time":"2015-09-24T10:57:35.146Z","epd":0.1,"epx":1.0,"speed":9.49897336707415,"alt":0.0,"epy":1.0,"track":165.5778189453237,"class":"TPV","lat":52.19062412689472,"mode":3}
{"ept":0.001,"eps":0.1,"epv":1.0,"lon":4.829198701291357,"time":"2015-09-24T10:57:36.146Z","epd":0.1,"epx":1.0,"speed":9.49897336707415,"alt":0.0,"epy":1.0,"track":165.5778189453237,"class":"TPV","lat":52.19054139263051,"mode":3}
{"ept":0.001,"eps":0.1,"epv":1.0,"lon":4.8292334156781855,"time":"2015-09-24T10:57:37.146Z","epd":0.1,"epx":1.0,"speed":9.49897336707415,"alt":0.0,"epy":1.0,"track":165.5778189453237,"class":"TPV","lat":52.1904586583663,"mode":3}
{"ept":0.001,"eps":0.1,"epv":1.0,"lon":4.829268130065014,"time":"2015-09-24T10:57:38.147Z","epd":0.1,"epx":1.0,"speed":9.49897336707415,"alt":0.0,"epy":1.0,"track":165.5778189453237,"class":"TPV","lat":52.1903759241021,"mode":3}
{"ept":0.001,"eps":0.1,"epv":1.0,"lon":4.829302844451842,"time":"2015-09-24T10:57:39.146Z","epd":0.1,"epx":1.0,"speed":9.49897336707415,"alt":0.0,"epy":1.0,"track":165.5778189453237,"class":"TPV","lat":52.19029318983789,"mode":3}
{"ept":0.001,"eps":0.1,"epv":1.0,"lon":4.829337558838671,"time":"2015-09-24T10:57:40.146Z","epd":0.1,"epx":1.0,"speed":9.49897336707415,"alt":0.0,"epy":1.0,"track":165.5778189453237,"class":"TPV","lat":52.190210455573684,"mode":3}
{"ept":0.001,"eps":0.1,"epv":1.0,"lon":4.829372273225499,"time":"2015-09-24T10:57:41.146Z","epd":0.1,"epx":1.0,"speed":9.49897336707415,"alt":0.0,"epy":1.0,"track":165.5778189453237,"class":"TPV","lat":52.19012772130947,"mode":3}
{"ept":0.001,"eps":0.1,"epv":1.0,"lon":4.829406987612328,"time":"2015-09-24T10:57:42.146Z","epd":0.1,"epx":1.0,"speed":9.49897336707415,"alt":0.0,"epy":1.0,"track":165.5778189453237,"class":"TPV","lat":52.19004498704527,"mode":3}
{"ept":0.001,"eps":0.1,"epv":1.0,"lon":4.829441701999156,"time":"2015-09-24T10:57:43.146Z","epd":0.1,"epx":1.0,"speed":9.49897336707415,"alt":0.0,"epy":1.0,"track":165.5778189453237,"class":"TPV","lat":52.18996225278106,"mode":3}
{"ept":0.001,"eps":0.1,"epv":1.0,"lon":4.829476416385984,"time":"2015-09-24T10:57:44.146Z","epd":0.1,"epx":1.0,"speed":9.49897336707415,"alt":0.0,"epy":1.0,"track":165.5778189453237,"class":"TPV","lat":52.189879518516854,"mode":3}
{"ept":0.001,"eps":0.1,"epv":1.0,"lon":4.829511130772813,"time":"2015-09-24T10:57:45.146Z","epd":0.1,"epx":1.0,"speed":9.49897336707415,"alt":0.0,"epy":1.0,"track":165.5778189453237,"class":"TPV","lat":52.18979678425264,"mode":3}
{"ept":0.001,"eps":0.1,"epv":1.0,"lon":4.829545845159641,"time":"2015-09-24T10:57:46.146Z","epd":0.1,"epx":1.0,"speed":9.49897336707415,"alt":0.0,"epy":1.0,"track":165.5778189453237,"class":"TPV","lat":52.18971404998844,"mode":3}
{"ept":0.001,"eps":0.1,"epv":1.0,"lon":4.82958055954647,"time":"2015-09-24T10:57:47.146Z","epd":0.1,"epx":1.0,"speed":9.49897336707415,"alt":0.0,"epy":1.0,"track":165.5778189453237,"class":"TPV","lat":52.189631315724235,"mode":3}
{"ept":0.001,"eps":0.1,"epv":1.0,"lon":4.829615273933298,"time":"2015-09-24T10:57:48.147Z","epd":0.1,"epx":1.0,"speed":9.49897336707415,"alt":0.0,"epy":1.0,"track":165.5778189453237,"class":"TPV","lat":52.18954858146002,"mode":3}
{"ept":0.001,"eps":0.1,"epv":1.0,"lon":4.829649988320126,"time":"2015-09-24T10:57:49.147Z","epd":0.1,"epx":1.0,"speed":9.49897336707415,"alt":0.0,"epy":1.0,"track":165.5778189453237,"class":"TPV","lat":52.18946584719582,"mode":3}
{"ept":0.001,"eps":0.1,"epv":1.0,"lon":4.829684702706955,"time":"2015-09-24T10:57:50.147Z","epd":0.1,"epx":1.0,"speed":9.49897336707415,"alt":0.0,"epy":1.0,"track":165.5778189453237,"class":"TPV","lat":52.18938311293161,"mode":3}
{"ept":0.001,"eps":0.1,"epv":1.0,"lon":4.829719417093783,"time":"2015-09-24T10:57:51.147Z","epd":0.1,"epx":1.0,"speed":9.49897336707415,"alt":0.0,"epy":1.0,"track":165.5778189453237,"class":"TPV","lat":52.189300378667404,"mode":3}
{"ept":0.001,"eps":0.1,"epv":1.0,"lon":4.829754131480612,"time":"2015-09-24T10:57:52.146Z","epd":0.1,"epx":1.0,"speed":9.49897336707415,"alt":0.0,"epy":1.0,"track":165.5778189453237,"class":"TPV","lat":52.18921764440319,"mode":3}
{"ept":0.001,"eps":0.1,"epv":1.0,"lon":4.82978884586744,"time":"2015-09-24T10:57:53.146Z","epd":0.1,"epx":1.0,"speed":9.49897336707415,"alt":0.0,"epy":1.0,"track":165.5778189453237,"class":"TPV","lat":52.18913491013899,"mode":3}
{"ept":0.001,"eps":0.1,"epv":1.0,"lon":4.829823560254269,"time":"2015-09-24T10:57:54.146Z","epd":0.1,"epx":1.0,"speed":9.49897336707415,"alt":0.0,"epy":1.0,"track":165.5778189453237,"class":"TPV","lat":52.18905217587478,"mode":3}
{"ept":0.001,"eps":0.1,"epv":1.0,"lon":4.829858274641097,"time":"2015-09-24T10:57:55.146Z","epd":0.1,"epx":1.0,"speed":9.49897336707415,"alt":0.0,"epy":1.0,"track":165.5778189453237,"class":"TPV","lat":52.188969441610574,"mode":3}
{"ept":0.001,"eps":0.1,"epv":1.0,"lon":4.829892989027925,"time":"2015-09-24T10:57:56.146Z","epd":0.1,"epx":1.0,"speed":9.49897336707415,"alt":0.0,"epy":1.0,"track":165.5778189453237,"class":"TPV","lat":52.18888670734636,"mode":3}
{"ept":0.001,"eps":0.1,"epv":1.0,"lon":4.829927703414754,"time":"2015-09-24T10:57:57.146Z","epd":0.1,"epx":1.0,"speed":9.49897336707415,"alt":0.0,"epy":1.0,"track":165.5778189453237,"class":"TPV","lat":52.18880397308216,"mode":3}
{"ept":0.001,"eps":0.1,"epv":1.0,"lon":4.829962417801582,"time":"2015-09-24T10:57:58.146Z","epd":0.1,"epx":1.0,"speed":9.49897336707415,"alt":0.0,"epy":1.0,"track":165.5778189453237,"class":"TPV","lat":52.188721238817955,"mode":3}
{"ept":0.001,"eps":0.1,"epv":1.0,"lon":4.829997132188411,"time":"2015-09-24T10:57:59.146Z","epd":0.1,"epx":1.0,"speed":9.49897336707415,"alt":0.0,"epy":1.0,"track":165.5778189453237,"class":"TPV","lat":52.188638504553744,"mode":3}
{"ept":0.001,"eps":0.1,"epv":1.0,"lon":4.830031846575239,"time":"2015-09-24T10:58:00.146Z","epd":0.1,"epx":1.0,"speed":9.49897336707415,"alt":0.0,"epy":1.0,"track":165.5778189453237,"class":"TPV","lat":52.18855577028954,"mode":3}
{"ept":0.001,"eps":0.1,"epv":1.0,"lon":4.830066560962067,"time":"2015-09-24T10:58:01.146Z","epd":0.1,"epx":1.0,"speed":9.49897336707415,"alt":0.0,"epy":1.0,"track":165.5778189453237,"class":"TPV","lat":52.18847303602533,"mode":3}
{"ept":0.001,"eps":0.1,"epv":1.0,"lon":4.830101275348896,"time":"2015-09-24T10:58:02.146Z","epd":0.1,"epx":1.0,"speed":9.49897336707415,"alt":0.0,"epy":1.0,"track":165.5778189453237,"class":"TPV","lat":52.188390301761125,"mode":3}
{"ept":0.001,"eps":0.1,"epv":1.0,"lon":4.830135989735724,"time":"2015-09-24T10:58:03.146Z","epd":0.1,"epx":1.0,"speed":9.49897336707415,"alt":0.0,"epy":1.0,"track":165.5778189453237,"class":"TPV","lat":52.18830756749691,"mode":3}
{"ept":0.001,"eps":0.1,"epv":1.0,"lon":4.830170704122553,"time":"2015-09-24T10:58:04.147Z","epd":0.1,"epx":1.0,"speed":9.49897336707415,"alt":0.0,"epy":1.0,"track":165.5778189453237,"class":"TPV","lat":52.18822483323271,"mode":3}
{"ept":0.001,"eps":0.1,"epv":1.0,"lon":4.830205418509381,"time":"2015-09-24T10:58:05.147Z","epd":0.1,"epx":1.0,"speed":9.49897336707415,"alt":0.0,"epy":1.0,"track":165.5778189453237,"class":"TPV","lat":52.1881420989685,"mode":3}
{"ept":0.001,"eps":0.1,"epv":1.0,"lon":4.8302401328962095,"time":"2015-09-24T10:58:06.147Z","epd":0.1,"epx":1.0,"speed":9.49897336707415,"alt":0.0,"epy":1.0,"track":165.5778189453237,"class":"TPV","lat":52.188059364704294,"mode":3}
{"ept":0.001,"eps":0.1,"epv":1.0,"lon":4.830274847283038,"time":"2015-09-24T10:58:07.146Z","epd":0.1,"epx":1.0,"speed":9.49897336707415,"alt":0.0,"epy":1.0,"track":165.5778189453237,"class":"TPV","lat":52.18797663044008,"mode":3}
{"ept":0.001,"eps":0.1,"epv":1.0,"lon":4.830309561669866,"time":"2015-09-24T10:58:08.146Z","epd":0.1,"epx":1.0,"speed":9.49897336707415,"alt":0.0,"epy":1.0,"track":165.5778189453237,"class":"TPV","lat":52.18789389617588,"mode":3}
{"ept":0.001,"eps":0.1,"epv":1.0,"lon":4.830344276056695,"time":"2015-09-24T10:58:09.146Z","epd":0.1,"epx":1.0,"speed":9.49897336707415,"alt":0.0,"epy":1.0,"track":165.5778189453237,"class":"TPV","lat":52.187811161911675,"mode":3}
{"ept":0.001,"eps":0.1,"epv":1.0,"lon":4.830378990443523,"time":"2015-09-24T10:58:10.146Z","epd":0.1,"epx":1.0,"speed":9.49897336707415,"alt":0.0,"epy":1.0,"track":165.5778189453237,"class":"TPV","lat":52.187728427647464,"mode":3}
{"ept":0.001,"eps":0.1,"epv":1.0,"lon":4.8304137048303515,"time":"2015-09-24T10:58:11.146Z","epd":0.1,"epx":1.0,"speed":9.49897336707415,"alt":0.0,"epy":1.0,"track":165.5778189453237,"class":"TPV","lat":52.18764569338326,"mode":3}
{"ept":0.001,"eps":0.1,"epv":1.0,"lon":4.83044841921718,"time":"2015-09-24T10:58:12.146Z","epd":0.1,"epx":1.0,"speed":9.49897336707415,"alt":0.0,"epy":1.0,"track":165.5778189453237,"class":"TPV","lat":52.18756295911905,"mode":3}
{"ept":0.001,"eps":0.1,"epv":1.0,"lon":4.830483133604008,"time":"2015-09-24T10:58:13.146Z","epd":0.1,"epx":1.0,"speed":9.49897336707415,"alt":0.0,"epy":1.0,"track":165.5778189453237,"class":"TPV","lat":52.187480224854845,"mode":3}
{"ept":0.001,"eps":0.1,"epv":1.0,"lon":4.830517847990837,"time":"2015-09-24T10:58:14.146Z","epd":0.1,"epx":1.0,"speed":9.49897336707415,"alt":0.0,"epy":1.0,"track":165.5778189453237,"class":"TPV","lat":52.187397490590634,"mode":3}
{"ept":0.001,"eps":0.1,"epv":1.0,"lon":4.830552562377665,"time":"2015-09-24T10:58:15.147Z","epd":0.1,"epx":1.0,"speed":9.49897336707415,"alt":0.0,"epy":1.0,"track":165.5778189453237,"class":"TPV","lat":52.18731475632643,"mode":3}
{"ept":0.001,"eps":0.1,"epv":1.0,"lon":4.8305872767644935,"time":"2015-09-24T10:58:16.147Z","epd":0.1,"epx":1.0,"speed":9.49897336707415,"alt":0.0,"epy":1.0,"track":165.5778189453237,"class":"TPV","lat":52.18723202206222,"mode":3}
{"ept":0.001,"eps":0.1,"epv":1.0,"lon":4.830621991151322,"time":"2015-09-24T10:58:17.146Z","epd":0.1,"epx":1.0,"speed":9.49897336707415,"alt":0.0,"epy":1.0,"track":165.5778189453237,"class":"TPV","lat":52.187149287798015,"mode":3}
{"ept":0.001,"eps":0.1,"epv":1.0,"lon":4.830656705538151,"time":"2015-09-24T10:58:18.146Z","epd":0.1,"epx":1.0,"speed":9.49897336707415,"alt":0.0,"epy":1.0,"track":165.5778189453237,"class":"TPV","lat":52.18706655353381,"mode":3}
{"ept":0.001,"eps":0.1,"epv":1.0,"lon":4.830691419924979,"time":"2015-09-24T10:58:19.146Z","epd":0.1,"epx":1.0,"speed":9.49897336707415,"alt":0.0,"epy":1.0,"track":165.5778189453237,"class":"TPV","lat":52.1869838192696,"mode":3}
