{"class":"VERSION","release":"3.6","rev":"3.6","proto_major":3,"proto_minor":7}
{"class":"DEVICES","devices":[{"class":"DEVICE","path":"gpsd://192.168.50.240:61000","activated":"2015-09-24T10:53:35.735Z","driver":"JSON slave driver"}]}
{"class":"WATCH","enable":true,"json":true,"nmea":false,"raw":0,"scaled":false,"timing":false}
{"ept":0.001,"eps":0.1,"epv":1.0,"lon":4.826975102992105,"time":"2015-09-24T10:54:02.146Z","epd":0.1,"epx":1.0,"speed":9.87317151780187,"alt":0.0,"epy":1.0,"track":342.71126345848523,"class":"TPV","lat":52.16024967384755,"mode":3}
{"ept":0.001,"eps":0.1,"epv":1.0,"lon":4.826932049621611,"time":"2015-09-24T10:54:03.146Z","epd":0.1,"epx":1.0,"speed":9.87317151780187,"alt":0.0,"epy":1.0,"track":342.71126345848523,"class":"TPV","lat":52.160334453741854,"mode":3}
{"ept":0.001,"eps":0.1,"epv":1.0,"lon":4.8268889962511174,"time":"2015-09-24T10:54:04.146Z","epd":0.1,"epx":1.0,"speed":9.87317151780187,"alt":0.0,"epy":1.0,"track":342.71126345848523,"class":"TPV","lat":52.16041923363616,"mode":3}
{"ept":0.001,"eps":0.1,"epv":1.0,"lon":4.826845942880624,"time":"2015-09-24T10:54:05.146Z","epd":0.1,"epx":1.0,"speed":9.87317151780187,"alt":0.0,"epy":1.0,"track":342.71126345848523,"class":"TPV","lat":52.16050401353047,"mode":3}
{"ept":0.001,"eps":0.1,"epv":1.0,"lon":4.82680288951013,"time":"2015-09-24T10:54:06.147Z","epd":0.1,"epx":1.0,"speed":9.87317151780187,"alt":0.0,"epy":1.0,"track":342.71126345848523,"class":"TPV","lat":52.16058879342477,"mode":3}
{"ept":0.001,"eps":0.1,"epv":1.0,"lon":4.826759836139637,"time":"2015-09-24T10:54:07.147Z","epd":0.1,"epx":1.0,"speed":9.87317151780187,"alt":0.0,"epy":1.0,"track":342.71126345848523,"class":"TPV","lat":52.16067357331908,"mode":3}
{"ept":0.001,"eps":0.1,"epv":1.0,"lon":4.826716782769144,"time":"2015-09-24T10:54:08.147Z","epd":0.1,"epx":1.0,"speed":9.87317151780187,"alt":0.0,"epy":1.0,"track":342.71126345848523,"class":"TPV","lat":52.16075835321338,"mode":3}
{"ept":0.001,"eps":0.1,"epv":1.0,"lon":4.82667372939865,"time":"2015-09-24T10:54:09.147Z","epd":0.1,"epx":1.0,"speed":9.87317151780187,"alt":0.0,"epy":1.0,"track":342.71126345848523,"class":"TPV","lat":52.16084313310769,"mode":3}
{"ept":0.001,"eps":0.1,"epv":1.0,"lon":4.826630676028157,"time":"2015-09-24T10:54:10.146Z","epd":0.1,"epx":1.0,"speed":9.87317151780187,"alt":0.0,"epy":1.0,"track":342.71126345848523,"class":"TPV","lat":52.160927913002,"mode":3}
{"ept":0.001,"eps":0.1,"epv":1.0,"lon":4.826587622657663,"time":"2015-09-24T10:54:11.146Z","epd":0.1,"epx":1.0,"speed":9.87317151780187,"alt":0.0,"epy":1.0,"track":342.71126345848523,"class":"TPV","lat":52.1610126928963,"mode":3}
{"ept":0.001,"eps":0.1,"epv":1.0,"lon":4.82654456928717,"time":"2015-09-24T10:54:12.146Z","epd":0.1,"epx":1.0,"speed":9.87317151780187,"alt":0.0,"epy":1.0,"track":342.71126345848523,"class":"TPV","lat":52.16109747279061,"mode":3}
{"ept":0.001,"eps":0.1,"epv":1.0,"lon":4.826501515916676,"time":"2015-09-24T10:54:13.146Z","epd":0.1,"epx":1.0,"speed":9.87317151780187,"alt":0.0,"epy":1.0,"track":342.71126345848523,"class":"TPV","lat":52.16118225268491,"mode":3}
{"ept":0.001,"eps":0.1,"epv":1.0,"lon":4.826458462546183,"time":"2015-09-24T10:54:14.146Z","epd":0.1,"epx":1.0,"speed":9.87317151780187,"alt":0.0,"epy":1.0,"track":342.71126345848523,"class":"TPV","lat":52.16126703257922,"mode":3}
{"ept":0.001,"eps":0.1,"epv":1.0,"lon":4.82641540917569,"time":"2015-09-24T10:54:15.146Z","epd":0.1,"epx":1.0,"speed":9.87317151780187,"alt":0.0,"epy":1.0,"track":342.71126345848523,"class":"TPV","lat":52.16135181247352,"mode":3}
{"ept":0.001,"eps":0.1,"epv":1.0,"lon":4.826372355805196,"time":"2015-09-24T10:54:16.146Z","epd":0.1,"epx":1.0,"speed":9.87317151780187,"alt":0.0,"epy":1.0,"track":342.71126345848523,"class":"TPV","lat":52.16143659236783,"mode":3}
{"ept":0.001,"eps":0.1,"epv":1.0,"lon":4.8263293024347025,"time":"2015-09-24T10:54:17.146Z","epd":0.1,"epx":1.0,"speed":9.87317151780187,"alt":0.0,"epy":1.0,"track":342.71126345848523,"class":"TPV","lat":52.161521372262136,"mode":3}
{"ept":0.001,"eps":0.1,"epv":1.0,"lon":4.826286249064209,"time":"2015-09-24T10:54:18.146Z","epd":0.1,"epx":1.0,"speed":9.87317151780187,"alt":0.0,"epy":1.0,"track":342.71126345848523,"class":"TPV","lat":52.16160615215644,"mode":3}
{"ept":0.001,"eps":0.1,"epv":1.0,"lon":4.826243195693715,"time":"2015-09-24T10:54:19.146Z","epd":0.1,"epx":1.0,"speed":9.87317151780187,"alt":0.0,"epy":1.0,"track":342.71126345848523,"class":"TPV","lat":52.161690932050746,"mode":3}
{"ept":0.001,"eps":0.1,"epv":1.0,"lon":4.826200142323223,"time":"2015-09-24T10:54:20.146Z","epd":0.1,"epx":1.0,"speed":9.87317151780187,"alt":0.0,"epy":1.0,"track":342.71126345848523,"class":"TPV","lat":52.16177571194505,"mode":3}
{"ept":0.001,"eps":0.1,"epv":1.0,"lon":4.826157088952729,"time":"2015-09-24T10:54:21.146Z","epd":0.1,"epx":1.0,"speed":9.87317151780187,"alt":0.0,"epy":1.0,"track":342.71126345848523,"class":"TPV","lat":52.161860491839356,"mode":3}
{"ept":0.001,"eps":0.1,"epv":1.0,"lon":4.826114035582235,"time":"2015-09-24T10:54:22.146Z","epd":0.1,"epx":1.0,"speed":9.87317151780187,"alt":0.0,"epy":1.0,"track":342.71126345848523,"class":"TPV","lat":52.161945271733664,"mode":3}
{"ept":0.001,"eps":0.1,"epv":1.0,"lon":4.826070982211742,"time":"2015-09-24T10:54:23.146Z","epd":0.1,"epx":1.0,"speed":9.87317151780187,"alt":0.0,"epy":1.0,"track":342.71126345848523,"class":"TPV","lat":52.162030051627966,"mode":3}
{"ept":0.001,"eps":0.1,"epv":1.0,"lon":4.826027928841248,"time":"2015-09-24T10:54:24.146Z","epd":0.1,"epx":1.0,"speed":9.87317151780187,"alt":0.0,"epy":1.0,"track":342.71126345848523,"class":"TPV","lat":52.162114831522274,"mode":3}
{"ept":0.001,"eps":0.1,"epv":1.0,"lon":4.825984875470755,"time":"2015-09-24T10:54:25.146Z","epd":0.1,"epx":1.0,"speed":9.87317151780187,"alt":0.0,"epy":1.0,"track":342.71126345848523,"class":"TPV","lat":52.162199611416575,"mode":3}
{"ept":0.001,"eps":0.1,"epv":1.0,"lon":4.825941822100261,"time":"2015-09-24T10:54:26.146Z","epd":0.1,"epx":1.0,"speed":9.87317151780187,"alt":0.0,"epy":1.0,"track":342.71126345848523,"class":"TPV","lat":52.162284391310884,"mode":3}
{"ept":0.001,"eps":0.1,"epv":1.0,"lon":4.825898768729768,"time":"2015-09-24T10:54:27.146Z","epd":0.1,"epx":1.0,"speed":9.87317151780187,"alt":0.0,"epy":1.0,"track":342.71126345848523,"class":"TPV","lat":52.162369171205185,"mode":3}
{"ept":0.001,"eps":0.1,"epv":1.0,"lon":4.825855715359275,"time":"2015-09-24T10:54:28.146Z","epd":0.1,"epx":1.0,"speed":9.87317151780187,"alt":0.0,"epy":1.0,"track":342.71126345848523,"class":"TPV","lat":52.162453951099494,"mode":3}
{"ept":0.001,"eps":0.1,"epv":1.0,"lon":4.825812661988781,"time":"2015-09-24T10:54:29.146Z","epd":0.1,"epx":1.0,"speed":9.87317151780187,"alt":0.0,"epy":1.0,"track":342.71126345848523,"class":"TPV","lat":52.1625387309938,"mode":3}
{"ept":0.001,"eps":0.1,"epv":1.0,"lon":4.8257696086182875,"time":"2015-09-24T10:54:30.146Z","epd":0.1,"epx":1.0,"speed":9.87317151780187,"alt":0.0,"epy":1.0,"track":342.71126345848523,"class":"TPV","lat":52.1626235108881,"mode":3}
{"ept":0.001,"eps":0.1,"epv":1.0,"lon":4.825726555247794,"time":"2015-09-24T10:54:31.146Z","epd":0.1,"epx":1.0,"speed":9.87317151780187,"alt":0.0,"epy":1.0,"track":342.71126345848523,"class":"TPV","lat":52.16270829078241,"mode":3}
{"ept":0.001,"eps":0.1,"epv":1.0,"lon":4.8256835018773,"time":"2015-09-24T10:54:32.146Z","epd":0.1,"epx":1.0,"speed":9.87317151780187,"alt":0.0,"epy":1.0,"track":342.71126345848523,"class":"TPV","lat":52.16279307067671,"mode":3}
{"ept":0.001,"eps":0.1,"epv":1.0,"lon":4.825640448506808,"time":"2015-09-24T10:54:33.146Z","epd":0.1,"epx":1.0,"speed":9.87317151780187,"alt":0.0,"epy":1.0,"track":342.71126345848523,"class":"TPV","lat":52.16287785057102,"mode":3}
{"ept":0.001,"eps":0.1,"epv":1.0,"lon":4.825597395136314,"time":"2015-09-24T10:54:34.146Z","epd":0.1,"epx":1.0,"speed":9.87317151780187,"alt":0.0,"epy":1.0,"track":342.71126345848523,"class":"TPV","lat":52.16296263046533,"mode":3}
{"ept":0.001,"eps":0.1,"epv":1.0,"lon":4.82555434176582,"time":"2015-09-24T10:54:35.146Z","epd":0.1,"epx":1.0,"speed":9.87317151780187,"alt":0.0,"epy":1.0,"track":342.71126345848523,"class":"TPV","lat":52.16304741035963,"mode":3}
{"ept":0.001,"eps":0.1,"epv":1.0,"lon":4.825511288395327,"time":"2015-09-24T10:54:36.146Z","epd":0.1,"epx":1.0,"speed":9.87317151780187,"alt":0.0,"epy":1.0,"track":342.71126345848523,"class":"TPV","lat":52.16313219025394,"mode":3}
{"ept":0.001,"eps":0.1,"epv":1.0,"lon":4.825468235024833,"time":"2015-09-24T10:54:37.146Z","epd":0.1,"epx":1.0,"speed":9.87317151780187,"alt":0.0,"epy":1.0,"track":342.71126345848523,"class":"TPV","lat":52.16321697014824,"mode":3}
{"ept":0.001,"eps":0.1,"epv":1.0,"lon":4.82542518165434,"time":"2015-09-24T10:54:38.146Z","epd":0.1,"epx":1.0,"speed":9.87317151780187,"alt":0.0,"epy":1.0,"track":342.71126345848523,"class":"TPV","lat":52.16330175004255,"mode":3}
{"ept":0.001,"eps":0.1,"epv":1.0,"lon":4.825382128283846,"time":"2015-09-24T10:54:39.146Z","epd":0.1,"epx":1.0,"speed":9.87317151780187,"alt":0.0,"epy":1.0,"track":342.71126345848523,"class":"TPV","lat":52.16338652993685,"mode":3}
{"ept":0.001,"eps":0.1,"epv":1.0,"lon":4.825339074913353,"time":"2015-09-24T10:54:40.146Z","epd":0.1,"epx":1.0,"speed":9.87317151780187,"alt":0.0,"epy":1.0,"track":342.71126345848523,"class":"TPV","lat":52.16347130983116,"mode":3}
{"ept":0.001,"eps":0.1,"epv":1.0,"lon":4.82529602154286,"time":"2015-09-24T10:54:41.146Z","epd":0.1,"epx":1.0,"speed":9.87317151780187,"alt":0.0,"epy":1.0,"track":342.71126345848523,"class":"TPV","lat":52.16355608972547,"mode":3}
{"ept":0.001,"eps":0.1,"epv":1.0,"lon":4.825252968172366,"time":"2015-09-24T10:54:42.146Z","epd":0.1,"epx":1.0,"speed":9.87317151780187,"alt":0.0,"epy":1.0,"track":342.71126345848523,"class":"TPV","lat":52.16364086961977,"mode":3}
{"ept":0.001,"eps":0.1,"epv":1.0,"lon":4.825209914801873,"time":"2015-09-24T10:54:43.146Z","epd":0.1,"epx":1.0,"speed":9.87317151780187,"alt":0.0,"epy":1.0,"track":342.71126345848523,"class":"TPV","lat":52.16372564951408,"mode":3}
{"ept":0.001,"eps":0.1,"epv":1.0,"lon":4.825166861431379,"time":"2015-09-24T10:54:44.146Z","epd":0.1,"epx":1.0,"speed":9.87317151780187,"alt":0.0,"epy":1.0,"track":342.71126345848523,"class":"TPV","lat":52.16381042940838,"mode":3}
{"ept":0.001,"eps":0.1,"epv":1.0,"lon":4.825123808060885,"time":"2015-09-24T10:54:45.146Z","epd":0.1,"epx":1.0,"speed":9.87317151780187,"alt":0.0,"epy":1.0,"track":342.71126345848523,"class":"TPV","lat":52.16389520930269,"mode":3}
{"ept":0.001,"eps":0.1,"epv":1.0,"lon":4.825080754690393,"time":"2015-09-24T10:54:46.146Z","epd":0.1,"epx":1.0,"speed":9.87317151780187,"alt":0.0,"epy":1.0,"track":342.71126345848523,"class":"TPV","lat":52.163979989196996,"mode":3}
{"ept":0.001,"eps":0.1,"epv":1.0,"lon":4.825037701319899,"time":"2015-09-24T10:54:47.146Z","epd":0.1,"epx":1.0,"speed":9.87317151780187,"alt":0.0,"epy":1.0,"track":342.71126345848523,"class":"TPV","lat":52.1640647690913,"mode":3}
{"ept":0.001,"eps":0.1,"epv":1.0,"lon":4.8249946479494055,"time":"2015-09-24T10:54:48.146Z","epd":0.1,"epx":1.0,"speed":9.87317151780187,"alt":0.0,"epy":1.0,"track":342.71126345848523,"class":"TPV","lat":52.164149548985606,"mode":3}
{"ept":0.001,"eps":0.1,"epv":1.0,"lon":4.824951594578912,"time":"2015-09-24T10:54:49.146Z","epd":0.1,"epx":1.0,"speed":9.87317151780187,"alt":0.0,"epy":1.0,"track":342.71126345848523,"class":"TPV","lat":52.16423432887991,"mode":3}
{"ept":0.001,"eps":0.1,"epv":1.0,"lon":4.824908541208418,"time":"2015-09-24T10:54:50.146Z","epd":0.1,"epx":1.0,"speed":9.87317151780187,"alt":0.0,"epy":1.0,"track":342.71126345848523,"class":"TPV","lat":52.164319108774215,"mode":3}
{"ept":0.001,"eps":0.1,"epv":1.0,"lon":4.824865487837925,"time":"2015-09-24T10:54:51.146Z","epd":0.1,"epx":1.0,"speed":9.87317151780187,"alt":0.0,"epy":1.0,"track":342.71126345848523,"class":"TPV","lat":52.164403888668524,"mode":3}
{"ept":0.001,"eps":0.1,"epv":1.0,"lon":4.824822434467432,"time":"2015-09-24T10:54:52.146Z","epd":0.1,"epx":1.0,"speed":9.87317151780187,"alt":0.0,"epy":1.0,"track":342.71126345848523,"class":"TPV","lat":52.164488668562825,"mode":3}
{"ept":0.001,"eps":0.1,"epv":1.0,"lon":4.824779381096938,"time":"2015-09-24T10:54:53.146Z","epd":0.1,"epx":1.0,"speed":9.87317151780187,"alt":0.0,"epy":1.0,"track":342.71126345848523,"class":"TPV","lat":52.16457344845713,"mode":3}
{"ept":0.001,"eps":0.1,"epv":1.0,"lon":4.824736327726445,"time":"2015-09-24T10:54:54.146Z","epd":0.1,"epx":1.0,"speed":9.87317151780187,"alt":0.0,"epy":1.0,"track":342.71126345848523,"class":"TPV","lat":52.164658228351435,"mode":3}
{"ept":0.001,"eps":0.1,"epv":1.0,"lon":4.824693274355951,"time":"2015-09-24T10:54:55.146Z","epd":0.1,"epx":1.0,"speed":9.87317151780187,"alt":0.0,"epy":1.0,"track":342.71126345848523,"class":"TPV","lat":52.16474300824574,"mode":3}
{"ept":0.001,"eps":0.1,"epv":1.0,"lon":4.824650220985458,"time":"2015-09-24T10:54:56.146Z","epd":0.1,"epx":1.0,"speed":9.87317151780187,"alt":0.0,"epy":1.0,"track":342.71126345848523,"class":"TPV","lat":52.164827788140045,"mode":3}
{"ept":0.001,"eps":0.1,"epv":1.0,"lon":4.824607167614964,"time":"2015-09-24T10:54:57.146Z","epd":0.1,"epx":1.0,"speed":9.87317151780187,"alt":0.0,"epy":1.0,"track":342.71126345848523,"class":"TPV","lat":52.16491256803435,"mode":3}
{"ept":0.001,"eps":0.1,"epv":1.0,"lon":4.82456411424447,"time":"2015-09-24T10:54:58.146Z","epd":0.1,"epx":1.0,"speed":9.87317151780187,"alt":0.0,"epy":1.0,"track":342.71126345848523,"class":"TPV","lat":52.16499734792866,"mode":3}
{"ept":0.001,"eps":0.1,"epv":1.0,"lon":4.824521060873978,"time":"2015-09-24T10:54:59.146Z","epd":0.1,"epx":1.0,"speed":9.87317151780187,"alt":0.0,"epy":1.0,"track":342.71126345848523,"class":"TPV","lat":52.16508212782296,"mode":3}
{"ept":0.001,"eps":0.1,"epv":1.0,"lon":4.824478007503484,"time":"2015-09-24T10:55:00.146Z","epd":0.1,"epx":1.0,"speed":9.87317151780187,"alt":0.0,"epy":1.0,"track":342.71126345848523,"class":"TPV","lat":52.16516690771727,"mode":3}
{"ept":0.001,"eps":0.1,"epv":1.0,"lon":4.8244349541329905,"time":"2015-09-24T10:55:01.146Z","epd":0.1,"epx":1.0,"speed":9.87317151780187,"alt":0.0,"epy":1.0,"track":342.71126345848523,"class":"TPV","lat":52.16525168761157,"mode":3}
{"ept":0.001,"eps":0.1,"epv":1.0,"lon":4.824391900762497,"time":"2015-09-24T10:55:02.146Z","epd":0.1,"epx":1.0,"speed":9.87317151780187,"alt":0.0,"epy":1.0,"track":342.71126345848523,"class":"TPV","lat":52.16533646750588,"mode":3}
{"ept":0.001,"eps":0.1,"epv":1.0,"lon":4.824348847392003,"time":"2015-09-24T10:55:03.146Z","epd":0.1,"epx":1.0,"speed":9.87317151780187,"alt":0.0,"epy":1.0,"track":342.71126345848523,"class":"TPV","lat":52.16542124740019,"mode":3}
{"ept":0.001,"eps":0.1,"epv":1.0,"lon":4.82430579402151,"time":"2015-09-24T10:55:04.146Z","epd":0.1,"epx":1.0,"speed":9.87317151780187,"alt":0.0,"epy":1.0,"track":342.71126345848523,"class":"TPV","lat":52.16550602729449,"mode":3}
{"ept":0.001,"eps":0.1,"epv":1.0,"lon":4.824262740651017,"time":"2015-09-24T10:55:05.146Z","epd":0.1,"epx":1.0,"speed":9.87317151780187,"alt":0.0,"epy":1.0,"track":342.71126345848523,"class":"TPV","lat":52.1655908071888,"mode":3}
{"ept":0.001,"eps":0.1,"epv":1.0,"lon":4.824219687280523,"time":"2015-09-24T10:55:06.146Z","epd":0.1,"epx":1.0,"speed":9.87317151780187,"alt":0.0,"epy":1.0,"track":342.71126345848523,"class":"TPV","lat":52.1656755870831,"mode":3}
{"ept":0.001,"eps":0.1,"epv":1.0,"lon":4.82417663391003,"time":"2015-09-24T10:55:07.146Z","epd":0.1,"epx":1.0,"speed":9.87317151780187,"alt":0.0,"epy":1.0,"track":342.71126345848523,"class":"TPV","lat":52.16576036697741,"mode":3}
{"ept":0.001,"eps":0.1,"epv":1.0,"lon":4.824133580539536,"time":"2015-09-24T10:55:08.146Z","epd":0.1,"epx":1.0,"speed":9.87317151780187,"alt":0.0,"epy":1.0,"track":342.71126345848523,"class":"TPV","lat":52.16584514687171,"mode":3}
{"ept":0.001,"eps":0.1,"epv":1.0,"lon":4.824090527169043,"time":"2015-09-24T10:55:09.146Z","epd":0.1,"epx":1.0,"speed":9.87317151780187,"alt":0.0,"epy":1.0,"track":342.71126345848523,"class":"TPV","lat":52.16592992676602,"mode":3}
{"ept":0.001,"eps":0.1,"epv":1.0,"lon":4.824047473798549,"time":"2015-09-24T10:55:10.146Z","epd":0.1,"epx":1.0,"speed":9.87317151780187,"alt":0.0,"epy":1.0,"track":342.71126345848523,"class":"TPV","lat":52.16601470666033,"mode":3}
{"ept":0.001,"eps":0.1,"epv":1.0,"lon":4.824004420428055,"time":"2015-09-24T10:55:11.146Z","epd":0.1,"epx":1.0,"speed":9.87317151780187,"alt":0.0,"epy":1.0,"track":342.71126345848523,"class":"TPV","lat":52.16609948655463,"mode":3}
{"ept":0.001,"eps":0.1,"epv":1.0,"lon":4.823961367057563,"time":"2015-09-24T10:55:12.146Z","epd":0.1,"epx":1.0,"speed":9.87317151780187,"alt":0.0,"epy":1.0,"track":342.71126345848523,"class":"TPV","lat":52.16618426644894,"mode":3}
{"ept":0.001,"eps":0.1,"epv":1.0,"lon":4.823918313687069,"time":"2015-09-24T10:55:13.146Z","epd":0.1,"epx":1.0,"speed":9.87317151780187,"alt":0.0,"epy":1.0,"track":342.71126345848523,"class":"TPV","lat":52.16626904634324,"mode":3}
{"ept":0.001,"eps":0.1,"epv":1.0,"lon":4.8238752603165755,"time":"2015-09-24T10:55:14.146Z","epd":0.1,"epx":1.0,"speed":9.87317151780187,"alt":0.0,"epy":1.0,"track":342.71126345848523,"class":"TPV","lat":52.16635382623755,"mode":3}
{"ept":0.001,"eps":0.1,"epv":1.0,"lon":4.823832206946082,"time":"2015-09-24T10:55:15.146Z","epd":0.1,"epx":1.0,"speed":9.87317151780187,"alt":0.0,"epy":1.0,"track":342.71126345848523,"class":"TPV","lat":52.166438606131855,"mode":3}
{"ept":0.001,"eps":0.1,"epv":1.0,"lon":4.823789153575588,"time":"2015-09-24T10:55:16.146Z","epd":0.1,"epx":1.0,"speed":9.87317151780187,"alt":0.0,"epy":1.0,"track":342.71126345848523,"class":"TPV","lat":52.16652338602616,"mode":3}
{"ept":0.001,"eps":0.1,"epv":1.0,"lon":4.823746100205095,"time":"2015-09-24T10:55:17.146Z","epd":0.1,"epx":1.0,"speed":9.87317151780187,"alt":0.0,"epy":1.0,"track":342.71126345848523,"class":"TPV","lat":52.166608165920465,"mode":3}
{"ept":0.001,"eps":0.1,"epv":1.0,"lon":4.823703046834602,"time":"2015-09-24T10:55:18.146Z","epd":0.1,"epx":1.0,"speed":9.87317151780187,"alt":0.0,"epy":1.0,"track":342.71126345848523,"class":"TPV","lat":52.166692945814766,"mode":3}
{"ept":0.001,"eps":0.1,"epv":1.0,"lon":4.8236599934641085,"time":"2015-09-24T10:55:19.146Z","epd":0.1,"epx":1.0,"speed":9.87317151780187,"alt":0.0,"epy":1.0,"track":342.71126345848523,"class":"TPV","lat":52.166777725709075,"mode":3}
{"ept":0.001,"eps":0.1,"epv":1.0,"lon":4.823616940093615,"time":"2015-09-24T10:55:20.146Z","epd":0.1,"epx":1.0,"speed":9.87317151780187,"alt":0.0,"epy":1.0,"track":342.71126345848523,"class":"TPV","lat":52.166862505603376,"mode":3}
{"ept":0.001,"eps":0.1,"epv":1.0,"lon":4.823573886723121,"time":"2015-09-24T10:55:21.146Z","epd":0.1,"epx":1.0,"speed":9.87317151780187,"alt":0.0,"epy":1.0,"track":342.71126345848523,"class":"TPV","lat":52.166947285497685,"mode":3}
{"ept":0.001,"eps":0.1,"epv":1.0,"lon":4.823530833352628,"time":"2015-09-24T10:55:22.146Z","epd":0.1,"epx":1.0,"speed":9.87317151780187,"alt":0.0,"epy":1.0,"track":342.71126345848523,"class":"TPV","lat":52.16703206539199,"mode":3}
{"ept":0.001,"eps":0.1,"epv":1.0,"lon":4.823487779982134,"time":"2015-09-24T10:55:23.146Z","epd":0.1,"epx":1.0,"speed":9.87317151780187,"alt":0.0,"epy":1.0,"track":342.71126345848523,"class":"TPV","lat":52.167116845286294,"mode":3}
{"ept":0.001,"eps":0.1,"epv":1.0,"lon":4.823444726611641,"time":"2015-09-24T10:55:24.146Z","epd":0.1,"epx":1.0,"speed":9.87317151780187,"alt":0.0,"epy":1.0,"track":342.71126345848523,"class":"TPV","lat":52.1672016251806,"mode":3}
{"ept":0.001,"eps":0.1,"epv":1.0,"lon":4.823401673241148,"time":"2015-09-24T10:55:25.146Z","epd":0.1,"epx":1.0,"speed":9.87317151780187,"alt":0.0,"epy":1.0,"track":342.71126345848523,"class":"TPV","lat":52.167286405074904,"mode":3}
{"ept":0.001,"eps":0.1,"epv":1.0,"lon":4.823358619870654,"time":"2015-09-24T10:55:26.146Z","epd":0.1,"epx":1.0,"speed":9.87317151780187,"alt":0.0,"epy":1.0,"track":342.71126345848523,"class":"TPV","lat":52.16737118496921,"mode":3}
{"ept":0.001,"eps":0.1,"epv":1.0,"lon":4.823315566500161,"time":"2015-09-24T10:55:27.146Z","epd":0.1,"epx":1.0,"speed":9.87317151780187,"alt":0.0,"epy":1.0,"track":342.71126345848523,"class":"TPV","lat":52.16745596486352,"mode":3}
{"ept":0.001,"eps":0.1,"epv":1.0,"lon":4.823272513129667,"time":"2015-09-24T10:55:28.146Z","epd":0.1,"epx":1.0,"speed":9.87317151780187,"alt":0.0,"epy":1.0,"track":342.71126345848523,"class":"TPV","lat":52.16754074475782,"mode":3}
{"ept":0.001,"eps":0.1,"epv":1.0,"lon":4.823229459759173,"time":"2015-09-24T10:55:29.146Z","epd":0.1,"epx":1.0,"speed":9.87317151780187,"alt":0.0,"epy":1.0,"track":342.71126345848523,"class":"TPV","lat":52.16762552465213,"mode":3}
{"ept":0.001,"eps":0.1,"epv":1.0,"lon":4.82318640638868,"time":"2015-09-24T10:55:30.146Z","epd":0.1,"epx":1.0,"speed":9.87317151780187,"alt":0.0,"epy":1.0,"track":342.71126345848523,"class":"TPV","lat":52.16771030454643,"mode":3}
{"ept":0.001,"eps":0.1,"epv":1.0,"lon":4.823143353018187,"time":"2015-09-24T10:55:31.146Z","epd":0.1,"epx":1.0,"speed":9.87317151780187,"alt":0.0,"epy":1.0,"track":342.71126345848523,"class":"TPV","lat":52.16779508444074,"mode":3}
{"ept":0.001,"eps":0.1,"epv":1.0,"lon":4.8231002996476935,"time":"2015-09-24T10:55:32.146Z","epd":0.1,"epx":1.0,"speed":9.87317151780187,"alt":0.0,"epy":1.0,"track":342.71126345848523,"class":"TPV","lat":52.16787986433504,"mode":3}
{"ept":0.001,"eps":0.1,"epv":1.0,"lon":4.8230572462772,"time":"2015-09-24T10:55:33.146Z","epd":0.1,"epx":1.0,"speed":9.87317151780187,"alt":0.0,"epy":1.0,"track":342.71126345848523,"class":"TPV","lat":52.16796464422935,"mode":3}
{"ept":0.001,"eps":0.1,"epv":1.0,"lon":4.823014192906706,"time":"2015-09-24T10:55:34.146Z","epd":0.1,"epx":1.0,"speed":9.87317151780187,"alt":0.0,"epy":1.0,"track":342.71126345848523,"class":"TPV","lat":52.16804942412366,"mode":3}
{"ept":0.001,"eps":0.1,"epv":1.0,"lon":4.822971139536213,"time":"2015-09-24T10:55:35.146Z","epd":0.1,"epx":1.0,"speed":9.87317151780187,"alt":0.0,"epy":1.0,"track":342.71126345848523,"class":"TPV","lat":52.16813420401796,"mode":3}
{"ept":0.001,"eps":0.1,"epv":1.0,"lon":4.822928086165719,"time":"2015-09-24T10:55:36.146Z","epd":0.1,"epx":1.0,"speed":9.87317151780187,"alt":0.0,"epy":1.0,"track":342.71126345848523,"class":"TPV","lat":52.16821898391227,"mode":3}
{"ept":0.001,"eps":0.1,"epv":1.0,"lon":4.822885032795226,"time":"2015-09-24T10:55:37.146Z","epd":0.1,"epx":1.0,"speed":9.87317151780187,"alt":0.0,"epy":1.0,"track":342.71126345848523,"class":"TPV","lat":52.16830376380657,"mode":3}
{"ept":0.001,"eps":0.1,"epv":1.0,"lon":4.822841979424733,"time":"2015-09-24T10:55:38.146Z","epd":0.1,"epx":1.0,"speed":9.87317151780187,"alt":0.0,"epy":1.0,"track":342.71126345848523,"class":"TPV","lat":52.16838854370088,"mode":3}
{"ept":0.001,"eps":0.1,"epv":1.0,"lon":4.822798926054239,"time":"2015-09-24T10:55:39.146Z","epd":0.1,"epx":1.0,"speed":9.87317151780187,"alt":0.0,"epy":1.0,"track":342.71126345848523,"class":"TPV","lat":52.16847332359519,"mode":3}
{"ept":0.001,"eps":0.1,"epv":1.0,"lon":4.822755872683746,"time":"2015-09-24T10:55:40.146Z","epd":0.1,"epx":1.0,"speed":9.87317151780187,"alt":0.0,"epy":1.0,"track":342.71126345848523,"class":"TPV","lat":52.16855810348949,"mode":3}
{"ept":0.001,"eps":0.1,"epv":1.0,"lon":4.822712819313252,"time":"2015-09-24T10:55:41.146Z","epd":0.1,"epx":1.0,"speed":9.87317151780187,"alt":0.0,"epy":1.0,"track":342.71126345848523,"class":"TPV","lat":52.1686428833838,"mode":3}
{"ept":0.001,"eps":0.1,"epv":1.0,"lon":4.822669765942758,"time":"2015-09-24T10:55:42.146Z","epd":0.1,"epx":1.0,"speed":9.87317151780187,"alt":0.0,"epy":1.0,"track":342.71126345848523,"class":"TPV","lat":52.1687276632781,"mode":3}
{"ept":0.001,"eps":0.1,"epv":1.0,"lon":4.822626712572265,"time":"2015-09-24T10:55:43.146Z","epd":0.1,"epx":1.0,"speed":9.87317151780187,"alt":0.0,"epy":1.0,"track":342.71126345848523,"class":"TPV","lat":52.168812443172406,"mode":3}
{"ept":0.001,"eps":0.1,"epv":1.0,"lon":4.822583659201772,"time":"2015-09-24T10:55:44.146Z","epd":0.1,"epx":1.0,"speed":9.87317151780187,"alt":0.0,"epy":1.0,"track":342.71126345848523,"class":"TPV","lat":52.168897223066715,"mode":3}
{"ept":0.001,"eps":0.1,"epv":1.0,"lon":4.8225406058312785,"time":"2015-09-24T10:55:45.146Z","epd":0.1,"epx":1.0,"speed":9.87317151780187,"alt":0.0,"epy":1.0,"track":342.71126345848523,"class":"TPV","lat":52.168982002961016,"mode":3}
{"ept":0.001,"eps":0.1,"epv":1.0,"lon":4.822497552460785,"time":"2015-09-24T10:55:46.146Z","epd":0.1,"epx":1.0,"speed":9.87317151780187,"alt":0.0,"epy":1.0,"track":342.71126345848523,"class":"TPV","lat":52.169066782855325,"mode":3}
{"ept":0.001,"eps":0.1,"epv":1.0,"lon":4.822454499090291,"time":"2015-09-24T10:55:47.146Z","epd":0.1,"epx":1.0,"speed":9.87317151780187,"alt":0.0,"epy":1.0,"track":342.71126345848523,"class":"TPV","lat":52.169151562749626,"mode":3}
{"ept":0.001,"eps":0.1,"epv":1.0,"lon":4.822411445719798,"time":"2015-09-24T10:55:48.146Z","epd":0.1,"epx":1.0,"speed":9.87317151780187,"alt":0.0,"epy":1.0,"track":342.71126345848523,"class":"TPV","lat":52.169236342643934,"mode":3}
{"ept":0.001,"eps":0.1,"epv":1.0,"lon":4.822368392349304,"time":"2015-09-24T10:55:49.146Z","epd":0.1,"epx":1.0,"speed":9.87317151780187,"alt":0.0,"epy":1.0,"track":342.71126345848523,"class":"TPV","lat":52.169321122538236,"mode":3}
{"ept":0.001,"eps":0.1,"epv":1.0,"lon":4.822325338978811,"time":"2015-09-24T10:55:50.146Z","epd":0.1,"epx":1.0,"speed":9.87317151780187,"alt":0.0,"epy":1.0,"track":342.71126345848523,"class":"TPV","lat":52.169405902432544,"mode":3}
{"ept":0.001,"eps":0.1,"epv":1.0,"lon":4.822282285608318,"time":"2015-09-24T10:55:51.146Z","epd":0.1,"epx":1.0,"speed":9.87317151780187,"alt":0.0,"epy":1.0,"track":342.71126345848523,"class":"TPV","lat":52.16949068232685,"mode":3}
{"ept":0.001,"eps":0.1,"epv":1.0,"lon":4.822239232237824,"time":"2015-09-24T10:55:52.146Z","epd":0.1,"epx":1.0,"speed":9.87317151780187,"alt":0.0,"epy":1.0,"track":342.71126345848523,"class":"TPV","lat":52.169575462221154,"mode":3}
{"ept":0.001,"eps":0.1,"epv":1.0,"lon":4.822196178867331,"time":"2015-09-24T10:55:53.146Z","epd":0.1,"epx":1.0,"speed":9.87317151780187,"alt":0.0,"epy":1.0,"track":342.71126345848523,"class":"TPV","lat":52.16966024211546,"mode":3}
{"ept":0.001,"eps":0.1,"epv":1.0,"lon":4.822153125496837,"time":"2015-09-24T10:55:54.146Z","epd":0.1,"epx":1.0,"speed":9.87317151780187,"alt":0.0,"epy":1.0,"track":342.71126345848523,"class":"TPV","lat":52.169745022009764,"mode":3}
{"ept":0.001,"eps":0.1,"epv":1.0,"lon":4.8221100721263435,"time":"2015-09-24T10:55:55.146Z","epd":0.1,"epx":1.0,"speed":9.87317151780187,"alt":0.0,"epy":1.0,"track":342.71126345848523,"class":"TPV","lat":52.16982980190407,"mode":3}
{"ept":0.001,"eps":0.1,"epv":1.0,"lon":4.822067018755851,"time":"2015-09-24T10:55:56.146Z","epd":0.1,"epx":1.0,"speed":9.87317151780187,"alt":0.0,"epy":1.0,"track":342.71126345848523,"class":"TPV","lat":52.16991458179838,"mode":3}
{"ept":0.001,"eps":0.1,"epv":1.0,"lon":4.822023965385357,"time":"2015-09-24T10:55:57.146Z","epd":0.1,"epx":1.0,"speed":9.87317151780187,"alt":0.0,"epy":1.0,"track":342.71126345848523,"class":"TPV","lat":52.16999936169268,"mode":3}
{"ept":0.001,"eps":0.1,"epv":1.0,"lon":4.821980912014864,"time":"2015-09-24T10:55:58.146Z","epd":0.1,"epx":1.0,"speed":9.87317151780187,"alt":0.0,"epy":1.0,"track":342.71126345848523,"class":"TPV","lat":52.17008414158699,"mode":3}
{"ept":0.001,"eps":0.1,"epv":1.0,"lon":4.82193785864437,"time":"2015-09-24T10:55:59.146Z","epd":0.1,"epx":1.0,"speed":9.87317151780187,"alt":0.0,"epy":1.0,"track":342.71126345848523,"class":"TPV","lat":52.17016892148129,"mode":3}
{"ept":0.001,"eps":0.1,"epv":1.0,"lon":4.821894805273876,"time":"2015-09-24T10:56:00.146Z","epd":0.1,"epx":1.0,"speed":9.87317151780187,"alt":0.0,"epy":1.0,"track":342.71126345848523,"class":"TPV","lat":52.1702537013756,"mode":3}
{"ept":0.001,"eps":0.1,"epv":1.0,"lon":4.821851751903383,"time":"2015-09-24T10:56:01.146Z","epd":0.1,"epx":1.0,"speed":9.87317151780187,"alt":0.0,"epy":1.0,"track":342.71126345848523,"class":"TPV","lat":52.1703384812699,"mode":3}
{"ept":0.001,"eps":0.1,"epv":1.0,"lon":4.821808698532889,"time":"2015-09-24T10:56:02.146Z","epd":0.1,"epx":1.0,"speed":9.87317151780187,"alt":0.0,"epy":1.0,"track":342.71126345848523,"class":"TPV","lat":52.17042326116421,"mode":3}
{"ept":0.001,"eps":0.1,"epv":1.0,"lon":4.8217656451623965,"time":"2015-09-24T10:56:03.146Z","epd":0.1,"epx":1.0,"speed":9.87317151780187,"alt":0.0,"epy":1.0,"track":342.71126345848523,"class":"TPV","lat":52.17050804105852,"mode":3}
{"ept":0.001,"eps":0.1,"epv":1.0,"lon":4.821722591791903,"time":"2015-09-24T10:56:04.146Z","epd":0.1,"epx":1.0,"speed":9.87317151780187,"alt":0.0,"epy":1.0,"track":342.71126345848523,"class":"TPV","lat":52.17059282095282,"mode":3}
{"ept":0.001,"eps":0.1,"epv":1.0,"lon":4.821679538421409,"time":"2015-09-24T10:56:05.146Z","epd":0.1,"epx":1.0,"speed":9.87317151780187,"alt":0.0,"epy":1.0,"track":342.71126345848523,"class":"TPV","lat":52.17067760084713,"mode":3}
{"ept":0.001,"eps":0.1,"epv":1.0,"lon":4.821636485050916,"time":"2015-09-24T10:56:06.146Z","epd":0.1,"epx":1.0,"speed":9.87317151780187,"alt":0.0,"epy":1.0,"track":342.71126345848523,"class":"TPV","lat":52.17076238074143,"mode":3}
{"ept":0.001,"eps":0.1,"epv":1.0,"lon":4.821593431680422,"time":"2015-09-24T10:56:07.146Z","epd":0.1,"epx":1.0,"speed":9.87317151780187,"alt":0.0,"epy":1.0,"track":342.71126345848523,"class":"TPV","lat":52.17084716063574,"mode":3}
{"ept":0.001,"eps":0.1,"epv":1.0,"lon":4.8215503783099285,"time":"2015-09-24T10:56:08.146Z","epd":0.1,"epx":1.0,"speed":9.87317151780187,"alt":0.0,"epy":1.0,"track":342.71126345848523,"class":"TPV","lat":52.170931940530046,"mode":3}
{"ept":0.001,"eps":0.1,"epv":1.0,"lon":4.821507324939436,"time":"2015-09-24T10:56:09.146Z","epd":0.1,"epx":1.0,"speed":9.87317151780187,"alt":0.0,"epy":1.0,"track":342.71126345848523,"class":"TPV","lat":52.17101672042435,"mode":3}
{"ept":0.001,"eps":0.1,"epv":1.0,"lon":4.821464271568942,"time":"2015-09-24T10:56:10.146Z","epd":0.1,"epx":1.0,"speed":9.87317151780187,"alt":0.0,"epy":1.0,"track":342.71126345848523,"class":"TPV","lat":52.171101500318656,"mode":3}
{"ept":0.001,"eps":0.1,"epv":1.0,"lon":4.821421218198449,"time":"2015-09-24T10:56:11.146Z","epd":0.1,"epx":1.0,"speed":9.87317151780187,"alt":0.0,"epy":1.0,"track":342.71126345848523,"class":"TPV","lat":52.17118628021296,"mode":3}
{"ept":0.001,"eps":0.1,"epv":1.0,"lon":4.821378164827955,"time":"2015-09-24T10:56:12.146Z","epd":0.1,"epx":1.0,"speed":9.87317151780187,"alt":0.0,"epy":1.0,"track":342.71126345848523,"class":"TPV","lat":52.171271060107266,"mode":3}
{"ept":0.001,"eps":0.1,"epv":1.0,"lon":4.821335111457461,"time":"2015-09-24T10:56:13.146Z","epd":0.1,"epx":1.0,"speed":9.87317151780187,"alt":0.0,"epy":1.0,"track":342.71126345848523,"class":"TPV","lat":52.17135584000157,"mode":3}
{"ept":0.001,"eps":0.1,"epv":1.0,"lon":4.821292058086968,"time":"2015-09-24T10:56:14.146Z","epd":0.1,"epx":1.0,"speed":9.87317151780187,"alt":0.0,"epy":1.0,"track":342.71126345848523,"class":"TPV","lat":52.171440619895876,"mode":3}
{"ept":0.001,"eps":0.1,"epv":1.0,"lon":4.821249004716474,"time":"2015-09-24T10:56:15.146Z","epd":0.1,"epx":1.0,"speed":9.87317151780187,"alt":0.0,"epy":1.0,"track":342.71126345848523,"class":"TPV","lat":52.171525399790184,"mode":3}
{"ept":0.001,"eps":0.1,"epv":1.0,"lon":4.8212059513459815,"time":"2015-09-24T10:56:16.146Z","epd":0.1,"epx":1.0,"speed":9.87317151780187,"alt":0.0,"epy":1.0,"track":342.71126345848523,"class":"TPV","lat":52.171610179684485,"mode":3}
{"ept":0.001,"eps":0.1,"epv":1.0,"lon":4.821162897975488,"time":"2015-09-24T10:56:17.146Z","epd":0.1,"epx":1.0,"speed":9.87317151780187,"alt":0.0,"epy":1.0,"track":342.71126345848523,"class":"TPV","lat":52.171694959578794,"mode":3}
{"ept":0.001,"eps":0.1,"epv":1.0,"lon":4.821119844604994,"time":"2015-09-24T10:56:18.146Z","epd":0.1,"epx":1.0,"speed":9.87317151780187,"alt":0.0,"epy":1.0,"track":342.71126345848523,"class":"TPV","lat":52.171779739473095,"mode":3}
{"ept":0.001,"eps":0.1,"epv":1.0,"lon":4.821076791234501,"time":"2015-09-24T10:56:19.146Z","epd":0.1,"epx":1.0,"speed":9.87317151780187,"alt":0.0,"epy":1.0,"track":342.71126345848523,"class":"TPV","lat":52.1718645193674,"mode":3}
{"ept":0.001,"eps":0.1,"epv":1.0,"lon":4.821033737864007,"time":"2015-09-24T10:56:20.146Z","epd":0.1,"epx":1.0,"speed":9.87317151780187,"alt":0.0,"epy":1.0,"track":342.71126345848523,"class":"TPV","lat":52.17194929926171,"mode":3}
{"ept":0.001,"eps":0.1,"epv":1.0,"lon":4.8209906844935135,"time":"2015-09-24T10:56:21.146Z","epd":0.1,"epx":1.0,"speed":9.87317151780187,"alt":0.0,"epy":1.0,"track":342.71126345848523,"class":"TPV","lat":52.17203407915601,"mode":3}
{"ept":0.001,"eps":0.1,"epv":1.0,"lon":4.820947631123021,"time":"2015-09-24T10:56:22.146Z","epd":0.1,"epx":1.0,"speed":9.87317151780187,"alt":0.0,"epy":1.0,"track":342.71126345848523,"class":"TPV","lat":52.17211885905032,"mode":3}
{"ept":0.001,"eps":0.1,"epv":1.0,"lon":4.820904577752527,"time":"2015-09-24T10:56:23.147Z","epd":0.1,"epx":1.0,"speed":9.87317151780187,"alt":0.0,"epy":1.0,"track":342.71126345848523,"class":"TPV","lat":52.17220363894462,"mode":3}
{"ept":0.001,"eps":0.1,"epv":1.0,"lon":4.820861524382034,"time":"2015-09-24T10:56:24.147Z","epd":0.1,"epx":1.0,"speed":9.87317151780187,"alt":0.0,"epy":1.0,"track":342.71126345848523,"class":"TPV","lat":52.17228841883893,"mode":3}
{"ept":0.001,"eps":0.1,"epv":1.0,"lon":4.82081847101154,"time":"2015-09-24T10:56:25.146Z","epd":0.1,"epx":1.0,"speed":9.87317151780187,"alt":0.0,"epy":1.0,"track":342.71126345848523,"class":"TPV","lat":52.17237319873324,"mode":3}
{"ept":0.001,"eps":0.1,"epv":1.0,"lon":4.8207754176410464,"time":"2015-09-24T10:56:26.146Z","epd":0.1,"epx":1.0,"speed":9.87317151780187,"alt":0.0,"epy":1.0,"track":342.71126345848523,"class":"TPV","lat":52.17245797862754,"mode":3}
{"ept":0.001,"eps":0.1,"epv":1.0,"lon":4.820732364270553,"time":"2015-09-24T10:56:27.146Z","epd":0.1,"epx":1.0,"speed":9.87317151780187,"alt":0.0,"epy":1.0,"track":342.71126345848523,"class":"TPV","lat":52.17254275852185,"mode":3}
{"ept":0.001,"eps":0.1,"epv":1.0,"lon":4.82068931090006,"time":"2015-09-24T10:56:28.146Z","epd":0.1,"epx":1.0,"speed":9.87317151780187,"alt":0.0,"epy":1.0,"track":342.71126345848523,"class":"TPV","lat":52.17262753841615,"mode":3}
{"ept":0.001,"eps":0.1,"epv":1.0,"lon":4.8206462575295665,"time":"2015-09-24T10:56:29.146Z","epd":0.1,"epx":1.0,"speed":9.87317151780187,"alt":0.0,"epy":1.0,"track":342.71126345848523,"class":"TPV","lat":52.17271231831046,"mode":3}
{"ept":0.001,"eps":0.1,"epv":1.0,"lon":4.820603204159073,"time":"2015-09-24T10:56:30.146Z","epd":0.1,"epx":1.0,"speed":9.87317151780187,"alt":0.0,"epy":1.0,"track":342.71126345848523,"class":"TPV","lat":52.17279709820476,"mode":3}
{"ept":0.001,"eps":0.1,"epv":1.0,"lon":4.820560150788579,"time":"2015-09-24T10:56:31.146Z","epd":0.1,"epx":1.0,"speed":9.87317151780187,"alt":0.0,"epy":1.0,"track":342.71126345848523,"class":"TPV","lat":52.17288187809907,"mode":3}
{"ept":0.001,"eps":0.1,"epv":1.0,"lon":4.820517097418086,"time":"2015-09-24T10:56:32.146Z","epd":0.1,"epx":1.0,"speed":9.87317151780187,"alt":0.0,"epy":1.0,"track":342.71126345848523,"class":"TPV","lat":52.17296665799338,"mode":3}
{"ept":0.001,"eps":0.1,"epv":1.0,"lon":4.820474044047592,"time":"2015-09-24T10:56:33.146Z","epd":0.1,"epx":1.0,"speed":9.87317151780187,"alt":0.0,"epy":1.0,"track":342.71126345848523,"class":"TPV","lat":52.17305143788768,"mode":3}
{"ept":0.001,"eps":0.1,"epv":1.0,"lon":4.820430990677099,"time":"2015-09-24T10:56:34.146Z","epd":0.1,"epx":1.0,"speed":9.87317151780187,"alt":0.0,"epy":1.0,"track":342.71126345848523,"class":"TPV","lat":52.17313621778199,"mode":3}
{"ept":0.001,"eps":0.1,"epv":1.0,"lon":4.820387937306606,"time":"2015-09-24T10:56:35.146Z","epd":0.1,"epx":1.0,"speed":9.87317151780187,"alt":0.0,"epy":1.0,"track":342.71126345848523,"class":"TPV","lat":52.17322099767629,"mode":3}
{"ept":0.001,"eps":0.1,"epv":1.0,"lon":4.820344883936112,"time":"2015-09-24T10:56:36.147Z","epd":0.1,"epx":1.0,"speed":9.87317151780187,"alt":0.0,"epy":1.0,"track":342.71126345848523,"class":"TPV","lat":52.1733057775706,"mode":3}
{"ept":0.001,"eps":0.1,"epv":1.0,"lon":4.820301830565619,"time":"2015-09-24T10:56:37.147Z","epd":0.1,"epx":1.0,"speed":9.87317151780187,"alt":0.0,"epy":1.0,"track":342.71126345848523,"class":"TPV","lat":52.173390557464906,"mode":3}
{"ept":0.001,"eps":0.1,"epv":1.0,"lon":4.820258777195125,"time":"2015-09-24T10:56:38.146Z","epd":0.1,"epx":1.0,"speed":9.87317151780187,"alt":0.0,"epy":1.0,"track":342.71126345848523,"class":"TPV","lat":52.17347533735921,"mode":3}
{"ept":0.001,"eps":0.1,"epv":1.0,"lon":4.8202157238246315,"time":"2015-09-24T10:56:39.146Z","epd":0.1,"epx":1.0,"speed":9.87317151780187,"alt":0.0,"epy":1.0,"track":342.71126345848523,"class":"TPV","lat":52.173560117253516,"mode":3}
{"ept":0.001,"eps":0.1,"epv":1.0,"lon":4.820172670454138,"time":"2015-09-24T10:56:40.146Z","epd":0.1,"epx":1.0,"speed":9.87317151780187,"alt":0.0,"epy":1.0,"track":342.71126345848523,"class":"TPV","lat":52.17364489714782,"mode":3}
{"ept":0.001,"eps":0.1,"epv":1.0,"lon":4.820129617083645,"time":"2015-09-24T10:56:41.146Z","epd":0.1,"epx":1.0,"speed":9.87317151780187,"alt":0.0,"epy":1.0,"track":342.71126345848523,"class":"TPV","lat":52.173729677042125,"mode":3}
{"ept":0.001,"eps":0.1,"epv":1.0,"lon":4.820086563713152,"time":"2015-09-24T10:56:42.146Z","epd":0.1,"epx":1.0,"speed":9.87317151780187,"alt":0.0,"epy":1.0,"track":342.71126345848523,"class":"TPV","lat":52.17381445693643,"mode":3}
{"ept":0.001,"eps":0.1,"epv":1.0,"lon":4.820043510342658,"time":"2015-09-24T10:56:43.146Z","epd":0.1,"epx":1.0,"speed":9.87317151780187,"alt":0.0,"epy":1.0,"track":342.71126345848523,"class":"TPV","lat":52.173899236830735,"mode":3}
{"ept":0.001,"eps":0.1,"epv":1.0,"lon":4.820000456972164,"time":"2015-09-24T10:56:44.146Z","epd":0.1,"epx":1.0,"speed":9.87317151780187,"alt":0.0,"epy":1.0,"track":342.71126345848523,"class":"TPV","lat":52.17398401672504,"mode":3}
{"ept":0.001,"eps":0.1,"epv":1.0,"lon":4.819957403601671,"time":"2015-09-24T10:56:45.146Z","epd":0.1,"epx":1.0,"speed":9.87317151780187,"alt":0.0,"epy":1.0,"track":342.71126345848523,"class":"TPV","lat":52.174068796619345,"mode":3}
{"ept":0.001,"eps":0.1,"epv":1.0,"lon":4.819914350231177,"time":"2015-09-24T10:56:46.146Z","epd":0.1,"epx":1.0,"speed":9.87317151780187,"alt":0.0,"epy":1.0,"track":342.71126345848523,"class":"TPV","lat":52.17415357651365,"mode":3}
{"ept":0.001,"eps":0.1,"epv":1.0,"lon":4.8198712968606845,"time":"2015-09-24T10:56:47.147Z","epd":0.1,"epx":1.0,"speed":9.87317151780187,"alt":0.0,"epy":1.0,"track":342.71126345848523,"class":"TPV","lat":52.174238356407955,"mode":3}
{"ept":0.001,"eps":0.1,"epv":1.0,"lon":4.819828243490191,"time":"2015-09-24T10:56:48.146Z","epd":0.1,"epx":1.0,"speed":9.87317151780187,"alt":0.0,"epy":1.0,"track":342.71126345848523,"class":"TPV","lat":52.17432313630226,"mode":3}
{"ept":0.001,"eps":0.1,"epv":1.0,"lon":4.819785190119697,"time":"2015-09-24T10:56:49.146Z","epd":0.1,"epx":1.0,"speed":9.87317151780187,"alt":0.0,"epy":1.0,"track":342.71126345848523,"class":"TPV","lat":52.17440791619657,"mode":3}
{"ept":0.001,"eps":0.1,"epv":1.0,"lon":4.819742136749204,"time":"2015-09-24T10:56:50.146Z","epd":0.1,"epx":1.0,"speed":9.87317151780187,"alt":0.0,"epy":1.0,"track":342.71126345848523,"class":"TPV","lat":52.17449269609087,"mode":3}
{"ept":0.001,"eps":0.1,"epv":1.0,"lon":4.81969908337871,"time":"2015-09-24T10:56:51.147Z","epd":0.1,"epx":1.0,"speed":9.87317151780187,"alt":0.0,"epy":1.0,"track":342.71126345848523,"class":"TPV","lat":52.17457747598518,"mode":3}
{"ept":0.001,"eps":0.1,"epv":1.0,"lon":4.8196560300082165,"time":"2015-09-24T10:56:52.146Z","epd":0.1,"epx":1.0,"speed":9.87317151780187,"alt":0.0,"epy":1.0,"track":342.71126345848523,"class":"TPV","lat":52.17466225587948,"mode":3}
{"ept":0.001,"eps":0.1,"epv":1.0,"lon":4.819612976637723,"time":"2015-09-24T10:56:53.146Z","epd":0.1,"epx":1.0,"speed":9.87317151780187,"alt":0.0,"epy":1.0,"track":342.71126345848523,"class":"TPV","lat":52.17474703577379,"mode":3}
{"ept":0.001,"eps":0.1,"epv":1.0,"lon":4.81956992326723,"time":"2015-09-24T10:56:54.146Z","epd":0.1,"epx":1.0,"speed":9.87317151780187,"alt":0.0,"epy":1.0,"track":342.71126345848523,"class":"TPV","lat":52.17483181566809,"mode":3}
{"ept":0.001,"eps":0.1,"epv":1.0,"lon":4.819526869896737,"time":"2015-09-24T10:56:55.146Z","epd":0.1,"epx":1.0,"speed":9.87317151780187,"alt":0.0,"epy":1.0,"track":342.71126345848523,"class":"TPV","lat":52.1749165955624,"mode":3}
{"ept":0.001,"eps":0.1,"epv":1.0,"lon":4.819483816526243,"time":"2015-09-24T10:56:56.147Z","epd":0.1,"epx":1.0,"speed":9.87317151780187,"alt":0.0,"epy":1.0,"track":342.71126345848523,"class":"TPV","lat":52.17500137545671,"mode":3}
{"ept":0.001,"eps":0.1,"epv":1.0,"lon":4.819440763155749,"time":"2015-09-24T10:56:57.146Z","epd":0.1,"epx":1.0,"speed":9.87317151780187,"alt":0.0,"epy":1.0,"track":342.71126345848523,"class":"TPV","lat":52.17508615535101,"mode":3}
{"ept":0.001,"eps":0.1,"epv":1.0,"lon":4.819397709785256,"time":"2015-09-24T10:56:58.146Z","epd":0.1,"epx":1.0,"speed":9.87317151780187,"alt":0.0,"epy":1.0,"track":342.71126345848523,"class":"TPV","lat":52.17517093524532,"mode":3}
{"ept":0.001,"eps":0.1,"epv":1.0,"lon":4.819354656414762,"time":"2015-09-24T10:56:59.146Z","epd":0.1,"epx":1.0,"speed":9.87317151780187,"alt":0.0,"epy":1.0,"track":342.71126345848523,"class":"TPV","lat":52.17525571513962,"mode":3}
{"ept":0.001,"eps":0.1,"epv":1.0,"lon":4.8193116030442695,"time":"2015-09-24T10:57:00.147Z","epd":0.1,"epx":1.0,"speed":9.87317151780187,"alt":0.0,"epy":1.0,"track":342.71126345848523,"class":"TPV","lat":52.17534049503393,"mode":3}
{"ept":0.001,"eps":0.1,"epv":1.0,"lon":4.819268549673776,"time":"2015-09-24T10:57:01.146Z","epd":0.1,"epx":1.0,"speed":9.87317151780187,"alt":0.0,"epy":1.0,"track":342.71126345848523,"class":"TPV","lat":52.17542527492824,"mode":3}
{"ept":0.001,"eps":0.1,"epv":1.0,"lon":4.819225496303282,"time":"2015-09-24T10:57:02.146Z","epd":0.1,"epx":1.0,"speed":9.87317151780187,"alt":0.0,"epy":1.0,"track":342.71126345848523,"class":"TPV","lat":52.17551005482254,"mode":3}
{"ept":0.001,"eps":0.1,"epv":1.0,"lon":4.819182442932789,"time":"2015-09-24T10:57:03.146Z","epd":0.1,"epx":1.0,"speed":9.87317151780187,"alt":0.0,"epy":1.0,"track":342.71126345848523,"class":"TPV","lat":52.17559483471685,"mode":3}
{"ept":0.001,"eps":0.1,"epv":1.0,"lon":4.819139389562295,"time":"2015-09-24T10:57:04.146Z","epd":0.1,"epx":1.0,"speed":9.87317151780187,"alt":0.0,"epy":1.0,"track":342.71126345848523,"class":"TPV","lat":52.17567961461115,"mode":3}
{"ept":0.001,"eps":0.1,"epv":1.0,"lon":4.8190963361918016,"time":"2015-09-24T10:57:05.147Z","epd":0.1,"epx":1.0,"speed":9.87317151780187,"alt":0.0,"epy":1.0,"track":342.71126345848523,"class":"TPV","lat":52.17576439450546,"mode":3}
{"ept":0.001,"eps":0.1,"epv":1.0,"lon":4.819053282821308,"time":"2015-09-24T10:57:06.146Z","epd":0.1,"epx":1.0,"speed":9.87317151780187,"alt":0.0,"epy":1.0,"track":342.71126345848523,"class":"TPV","lat":52.17584917439976,"mode":3}
{"ept":0.001,"eps":0.1,"epv":1.0,"lon":4.819010229450815,"time":"2015-09-24T10:57:07.146Z","epd":0.1,"epx":1.0,"speed":9.87317151780187,"alt":0.0,"epy":1.0,"track":342.71126345848523,"class":"TPV","lat":52.17593395429407,"mode":3}
{"ept":0.001,"eps":0.1,"epv":1.0,"lon":4.818967176080322,"time":"2015-09-24T10:57:08.146Z","epd":0.1,"epx":1.0,"speed":9.87317151780187,"alt":0.0,"epy":1.0,"track":342.71126345848523,"class":"TPV","lat":52.176018734188375,"mode":3}
{"ept":0.001,"eps":0.1,"epv":1.0,"lon":4.818924122709828,"time":"2015-09-24T10:57:09.147Z","epd":0.1,"epx":1.0,"speed":9.87317151780187,"alt":0.0,"epy":1.0,"track":342.71126345848523,"class":"TPV","lat":52.176103514082676,"mode":3}
{"ept":0.001,"eps":0.1,"epv":1.0,"lon":4.8188810693393345,"time":"2015-09-24T10:57:10.146Z","epd":0.1,"epx":1.0,"speed":9.87317151780187,"alt":0.0,"epy":1.0,"track":342.71126345848523,"class":"TPV","lat":52.176188293976985,"mode":3}
{"ept":0.001,"eps":0.1,"epv":1.0,"lon":4.818838015968841,"time":"2015-09-24T10:57:11.146Z","epd":0.1,"epx":1.0,"speed":9.87317151780187,"alt":0.0,"epy":1.0,"track":342.71126345848523,"class":"TPV","lat":52.176273073871286,"mode":3}
{"ept":0.001,"eps":0.1,"epv":1.0,"lon":4.818794962598347,"time":"2015-09-24T10:57:12.146Z","epd":0.1,"epx":1.0,"speed":9.87317151780187,"alt":0.0,"epy":1.0,"track":342.71126345848523,"class":"TPV","lat":52.176357853765595,"mode":3}
{"ept":0.001,"eps":0.1,"epv":1.0,"lon":4.818751909227855,"time":"2015-09-24T10:57:13.146Z","epd":0.1,"epx":1.0,"speed":9.87317151780187,"alt":0.0,"epy":1.0,"track":342.71126345848523,"class":"TPV","lat":52.1764426336599,"mode":3}
{"ept":0.001,"eps":0.1,"epv":1.0,"lon":4.818708855857361,"time":"2015-09-24T10:57:14.147Z","epd":0.1,"epx":1.0,"speed":9.87317151780187,"alt":0.0,"epy":1.0,"track":342.71126345848523,"class":"TPV","lat":52.176527413554204,"mode":3}
{"ept":0.001,"eps":0.1,"epv":1.0,"lon":4.818665802486867,"time":"2015-09-24T10:57:15.146Z","epd":0.1,"epx":1.0,"speed":9.87317151780187,"alt":0.0,"epy":1.0,"track":342.71126345848523,"class":"TPV","lat":52.17661219344851,"mode":3}
{"ept":0.001,"eps":0.1,"epv":1.0,"lon":4.818622749116374,"time":"2015-09-24T10:57:16.146Z","epd":0.1,"epx":1.0,"speed":9.87317151780187,"alt":0.0,"epy":1.0,"track":342.71126345848523,"class":"TPV","lat":52.176696973342814,"mode":3}
{"ept":0.001,"eps":0.1,"epv":1.0,"lon":4.81857969574588,"time":"2015-09-24T10:57:17.146Z","epd":0.1,"epx":1.0,"speed":9.87317151780187,"alt":0.0,"epy":1.0,"track":342.71126345848523,"class":"TPV","lat":52.17678175323712,"mode":3}
{"ept":0.001,"eps":0.1,"epv":1.0,"lon":4.818536642375387,"time":"2015-09-24T10:57:18.146Z","epd":0.1,"epx":1.0,"speed":9.87317151780187,"alt":0.0,"epy":1.0,"track":342.71126345848523,"class":"TPV","lat":52.17686653313143,"mode":3}
{"ept":0.001,"eps":0.1,"epv":1.0,"lon":4.818493589004894,"time":"2015-09-24T10:57:19.147Z","epd":0.1,"epx":1.0,"speed":9.87317151780187,"alt":0.0,"epy":1.0,"track":342.71126345848523,"class":"TPV","lat":52.17695131302573,"mode":3}
{"ept":0.001,"eps":0.1,"epv":1.0,"lon":4.8184505356344,"time":"2015-09-24T10:57:20.146Z","epd":0.1,"epx":1.0,"speed":9.87317151780187,"alt":0.0,"epy":1.0,"track":342.71126345848523,"class":"TPV","lat":52.17703609292004,"mode":3}
{"ept":0.001,"eps":0.1,"epv":1.0,"lon":4.818407482263907,"time":"2015-09-24T10:57:21.146Z","epd":0.1,"epx":1.0,"speed":9.87317151780187,"alt":0.0,"epy":1.0,"track":342.71126345848523,"class":"TPV","lat":52.17712087281434,"mode":3}
{"ept":0.001,"eps":0.1,"epv":1.0,"lon":4.818364428893413,"time":"2015-09-24T10:57:22.146Z","epd":0.1,"epx":1.0,"speed":9.87317151780187,"alt":0.0,"epy":1.0,"track":342.71126345848523,"class":"TPV","lat":52.17720565270865,"mode":3}
{"ept":0.001,"eps":0.1,"epv":1.0,"lon":4.8183213755229195,"time":"2015-09-24T10:57:23.146Z","epd":0.1,"epx":1.0,"speed":9.87317151780187,"alt":0.0,"epy":1.0,"track":342.71126345848523,"class":"TPV","lat":52.17729043260295,"mode":3}
{"ept":0.001,"eps":0.1,"epv":1.0,"lon":4.818278322152426,"time":"2015-09-24T10:57:24.147Z","epd":0.1,"epx":1.0,"speed":9.87317151780187,"alt":0.0,"epy":1.0,"track":342.71126345848523,"class":"TPV","lat":52.17737521249726,"mode":3}
{"ept":0.001,"eps":0.1,"epv":1.0,"lon":4.818235268781932,"time":"2015-09-24T10:57:25.146Z","epd":0.1,"epx":1.0,"speed":9.87317151780187,"alt":0.0,"epy":1.0,"track":342.71126345848523,"class":"TPV","lat":52.17745999239157,"mode":3}
{"ept":0.001,"eps":0.1,"epv":1.0,"lon":4.81819221541144,"time":"2015-09-24T10:57:26.146Z","epd":0.1,"epx":1.0,"speed":9.87317151780187,"alt":0.0,"epy":1.0,"track":342.71126345848523,"class":"TPV","lat":52.17754477228587,"mode":3}
{"ept":0.001,"eps":0.1,"epv":1.0,"lon":4.818149162040946,"time":"2015-09-24T10:57:27.146Z","epd":0.1,"epx":1.0,"speed":9.87317151780187,"alt":0.0,"epy":1.0,"track":342.71126345848523,"class":"TPV","lat":52.17762955218018,"mode":3}
{"ept":0.001,"eps":0.1,"epv":1.0,"lon":4.818106108670452,"time":"2015-09-24T10:57:28.146Z","epd":0.1,"epx":1.0,"speed":9.87317151780187,"alt":0.0,"epy":1.0,"track":342.71126345848523,"class":"TPV","lat":52.17771433207448,"mode":3}
{"ept":0.001,"eps":0.1,"epv":1.0,"lon":4.818063055299959,"time":"2015-09-24T10:57:29.147Z","epd":0.1,"epx":1.0,"speed":9.87317151780187,"alt":0.0,"epy":1.0,"track":342.71126345848523,"class":"TPV","lat":52.17779911196879,"mode":3}
{"ept":0.001,"eps":0.1,"epv":1.0,"lon":4.818020001929465,"time":"2015-09-24T10:57:30.146Z","epd":0.1,"epx":1.0,"speed":9.87317151780187,"alt":0.0,"epy":1.0,"track":342.71126345848523,"class":"TPV","lat":52.1778838918631,"mode":3}
{"ept":0.001,"eps":0.1,"epv":1.0,"lon":4.817976948558972,"time":"2015-09-24T10:57:31.146Z","epd":0.1,"epx":1.0,"speed":9.87317151780187,"alt":0.0,"epy":1.0,"track":342.71126345848523,"class":"TPV","lat":52.1779686717574,"mode":3}
{"ept":0.001,"eps":0.1,"epv":1.0,"lon":4.817933895188479,"time":"2015-09-24T10:57:32.146Z","epd":0.1,"epx":1.0,"speed":9.87317151780187,"alt":0.0,"epy":1.0,"track":342.71126345848523,"class":"TPV","lat":52.17805345165171,"mode":3}
{"ept":0.001,"eps":0.1,"epv":1.0,"lon":4.817890841817985,"time":"2015-09-24T10:57:33.146Z","epd":0.1,"epx":1.0,"speed":9.87317151780187,"alt":0.0,"epy":1.0,"track":342.71126345848523,"class":"TPV","lat":52.17813823154601,"mode":3}
{"ept":0.001,"eps":0.1,"epv":1.0,"lon":4.817847788447492,"time":"2015-09-24T10:57:34.147Z","epd":0.1,"epx":1.0,"speed":9.87317151780187,"alt":0.0,"epy":1.0,"track":342.71126345848523,"class":"TPV","lat":52.178223011440316,"mode":3}
{"ept":0.001,"eps":0.1,"epv":1.0,"lon":4.817804735076998,"time":"2015-09-24T10:57:35.146Z","epd":0.1,"epx":1.0,"speed":9.87317151780187,"alt":0.0,"epy":1.0,"track":342.71126345848523,"class":"TPV","lat":52.17830779133462,"mode":3}
{"ept":0.001,"eps":0.1,"epv":1.0,"lon":4.8177616817065045,"time":"2015-09-24T10:57:36.146Z","epd":0.1,"epx":1.0,"speed":9.87317151780187,"alt":0.0,"epy":1.0,"track":342.71126345848523,"class":"TPV","lat":52.178392571228926,"mode":3}
{"ept":0.001,"eps":0.1,"epv":1.0,"lon":4.817718628336011,"time":"2015-09-24T10:57:37.146Z","epd":0.1,"epx":1.0,"speed":9.87317151780187,"alt":0.0,"epy":1.0,"track":342.71126345848523,"class":"TPV","lat":52.178477351123234,"mode":3}
{"ept":0.001,"eps":0.1,"epv":1.0,"lon":4.817675574965517,"time":"2015-09-24T10:57:38.147Z","epd":0.1,"epx":1.0,"speed":9.87317151780187,"alt":0.0,"epy":1.0,"track":342.71126345848523,"class":"TPV","lat":52.178562131017536,"mode":3}
{"ept":0.001,"eps":0.1,"epv":1.0,"lon":4.817632521595025,"time":"2015-09-24T10:57:39.146Z","epd":0.1,"epx":1.0,"speed":9.87317151780187,"alt":0.0,"epy":1.0,"track":342.71126345848523,"class":"TPV","lat":52.178646910911844,"mode":3}
{"ept":0.001,"eps":0.1,"epv":1.0,"lon":4.817589468224531,"time":"2015-09-24T10:57:40.146Z","epd":0.1,"epx":1.0,"speed":9.87317151780187,"alt":0.0,"epy":1.0,"track":342.71126345848523,"class":"TPV","lat":52.178731690806146,"mode":3}
{"ept":0.001,"eps":0.1,"epv":1.0,"lon":4.8175464148540375,"time":"2015-09-24T10:57:41.146Z","epd":0.1,"epx":1.0,"speed":9.87317151780187,"alt":0.0,"epy":1.0,"track":342.71126345848523,"class":"TPV","lat":52.178816470700454,"mode":3}
{"ept":0.001,"eps":0.1,"epv":1.0,"lon":4.817503361483544,"time":"2015-09-24T10:57:42.146Z","epd":0.1,"epx":1.0,"speed":9.87317151780187,"alt":0.0,"epy":1.0,"track":342.71126345848523,"class":"TPV","lat":52.17890125059476,"mode":3}
{"ept":0.001,"eps":0.1,"epv":1.0,"lon":4.81746030811305,"time":"2015-09-24T10:57:43.146Z","epd":0.1,"epx":1.0,"speed":9.87317151780187,"alt":0.0,"epy":1.0,"track":342.71126345848523,"class":"TPV","lat":52.178986030489064,"mode":3}
{"ept":0.001,"eps":0.1,"epv":1.0,"lon":4.817417254742557,"time":"2015-09-24T10:57:44.146Z","epd":0.1,"epx":1.0,"speed":9.87317151780187,"alt":0.0,"epy":1.0,"track":342.71126345848523,"class":"TPV","lat":52.17907081038337,"mode":3}
{"ept":0.001,"eps":0.1,"epv":1.0,"lon":4.817374201372064,"time":"2015-09-24T10:57:45.146Z","epd":0.1,"epx":1.0,"speed":9.87317151780187,"alt":0.0,"epy":1.0,"track":342.71126345848523,"class":"TPV","lat":52.179155590277674,"mode":3}
{"ept":0.001,"eps":0.1,"epv":1.0,"lon":4.81733114800157,"time":"2015-09-24T10:57:46.146Z","epd":0.1,"epx":1.0,"speed":9.87317151780187,"alt":0.0,"epy":1.0,"track":342.71126345848523,"class":"TPV","lat":52.17924037017198,"mode":3}
{"ept":0.001,"eps":0.1,"epv":1.0,"lon":4.817288094631077,"time":"2015-09-24T10:57:47.146Z","epd":0.1,"epx":1.0,"speed":9.87317151780187,"alt":0.0,"epy":1.0,"track":342.71126345848523,"class":"TPV","lat":52.17932515006628,"mode":3}
{"ept":0.001,"eps":0.1,"epv":1.0,"lon":4.817245041260583,"time":"2015-09-24T10:57:48.146Z","epd":0.1,"epx":1.0,"speed":9.87317151780187,"alt":0.0,"epy":1.0,"track":342.71126345848523,"class":"TPV","lat":52.17940992996059,"mode":3}
{"ept":0.001,"eps":0.1,"epv":1.0,"lon":4.81720198789009,"time":"2015-09-24T10:57:49.146Z","epd":0.1,"epx":1.0,"speed":9.87317151780187,"alt":0.0,"epy":1.0,"track":342.71126345848523,"class":"TPV","lat":52.1794947098549,"mode":3}
{"ept":0.001,"eps":0.1,"epv":1.0,"lon":4.817158934519596,"time":"2015-09-24T10:57:50.147Z","epd":0.1,"epx":1.0,"speed":9.87317151780187,"alt":0.0,"epy":1.0,"track":342.71126345848523,"class":"TPV","lat":52.1795794897492,"mode":3}
{"ept":0.001,"eps":0.1,"epv":1.0,"lon":4.817115881149103,"time":"2015-09-24T10:57:51.147Z","epd":0.1,"epx":1.0,"speed":9.87317151780187,"alt":0.0,"epy":1.0,"track":342.71126345848523,"class":"TPV","lat":52.17966426964351,"mode":3}
{"ept":0.001,"eps":0.1,"epv":1.0,"lon":4.81707282777861,"time":"2015-09-24T10:57:52.146Z","epd":0.1,"epx":1.0,"speed":9.87317151780187,"alt":0.0,"epy":1.0,"track":342.71126345848523,"class":"TPV","lat":52.17974904953781,"mode":3}
{"ept":0.001,"eps":0.1,"epv":1.0,"lon":4.817029774408116,"time":"2015-09-24T10:57:53.146Z","epd":0.1,"epx":1.0,"speed":9.87317151780187,"alt":0.0,"epy":1.0,"track":342.71126345848523,"class":"TPV","lat":52.17983382943212,"mode":3}
{"ept":0.001,"eps":0.1,"epv":1.0,"lon":4.8169867210376225,"time":"2015-09-24T10:57:54.146Z","epd":0.1,"epx":1.0,"speed":9.87317151780187,"alt":0.0,"epy":1.0,"track":342.71126345848523,"class":"TPV","lat":52.17991860932643,"mode":3}
{"ept":0.001,"eps":0.1,"epv":1.0,"lon":4.816943667667129,"time":"2015-09-24T10:57:55.146Z","epd":0.1,"epx":1.0,"speed":9.87317151780187,"alt":0.0,"epy":1.0,"track":342.71126345848523,"class":"TPV","lat":52.18000338922073,"mode":3}
{"ept":0.001,"eps":0.1,"epv":1.0,"lon":4.816900614296635,"time":"2015-09-24T10:57:56.146Z","epd":0.1,"epx":1.0,"speed":9.87317151780187,"alt":0.0,"epy":1.0,"track":342.71126345848523,"class":"TPV","lat":52.18008816911504,"mode":3}
{"ept":0.001,"eps":0.1,"epv":1.0,"lon":4.816857560926142,"time":"2015-09-24T10:57:57.146Z","epd":0.1,"epx":1.0,"speed":9.87317151780187,"alt":0.0,"epy":1.0,"track":342.71126345848523,"class":"TPV","lat":52.18017294900934,"mode":3}
{"ept":0.001,"eps":0.1,"epv":1.0,"lon":4.816814507555649,"time":"2015-09-24T10:57:58.146Z","epd":0.1,"epx":1.0,"speed":9.87317151780187,"alt":0.0,"epy":1.0,"track":342.71126345848523,"class":"TPV","lat":52.18025772890365,"mode":3}
{"ept":0.001,"eps":0.1,"epv":1.0,"lon":4.816771454185155,"time":"2015-09-24T10:57:59.146Z","epd":0.1,"epx":1.0,"speed":9.87317151780187,"alt":0.0,"epy":1.0,"track":342.71126345848523,"class":"TPV","lat":52.180342508797956,"mode":3}
{"ept":0.001,"eps":0.1,"epv":1.0,"lon":4.816728400814662,"time":"2015-09-24T10:58:00.146Z","epd":0.1,"epx":1.0,"speed":9.87317151780187,"alt":0.0,"epy":1.0,"track":342.71126345848523,"class":"TPV","lat":52.18042728869226,"mode":3}
{"ept":0.001,"eps":0.1,"epv":1.0,"lon":4.816685347444168,"time":"2015-09-24T10:58:01.146Z","epd":0.1,"epx":1.0,"speed":9.87317151780187,"alt":0.0,"epy":1.0,"track":342.71126345848523,"class":"TPV","lat":52.180512068586566,"mode":3}
{"ept":0.001,"eps":0.1,"epv":1.0,"lon":4.816642294073675,"time":"2015-09-24T10:58:02.146Z","epd":0.1,"epx":1.0,"speed":9.87317151780187,"alt":0.0,"epy":1.0,"track":342.71126345848523,"class":"TPV","lat":52.18059684848087,"mode":3}
{"ept":0.001,"eps":0.1,"epv":1.0,"lon":4.816599240703181,"time":"2015-09-24T10:58:03.146Z","epd":0.1,"epx":1.0,"speed":9.87317151780187,"alt":0.0,"epy":1.0,"track":342.71126345848523,"class":"TPV","lat":52.180681628375176,"mode":3}
{"ept":0.001,"eps":0.1,"epv":1.0,"lon":4.816556187332688,"time":"2015-09-24T10:58:04.147Z","epd":0.1,"epx":1.0,"speed":9.87317151780187,"alt":0.0,"epy":1.0,"track":342.71126345848523,"class":"TPV","lat":52.18076640826948,"mode":3}
{"ept":0.001,"eps":0.1,"epv":1.0,"lon":4.816513133962195,"time":"2015-09-24T10:58:05.147Z","epd":0.1,"epx":1.0,"speed":9.87317151780187,"alt":0.0,"epy":1.0,"track":342.71126345848523,"class":"TPV","lat":52.180851188163786,"mode":3}
{"ept":0.001,"eps":0.1,"epv":1.0,"lon":4.816470080591701,"time":"2015-09-24T10:58:06.147Z","epd":0.1,"epx":1.0,"speed":9.87317151780187,"alt":0.0,"epy":1.0,"track":342.71126345848523,"class":"TPV","lat":52.180935968058094,"mode":3}
{"ept":0.001,"eps":0.1,"epv":1.0,"lon":4.8164270272212075,"time":"2015-09-24T10:58:07.146Z","epd":0.1,"epx":1.0,"speed":9.87317151780187,"alt":0.0,"epy":1.0,"track":342.71126345848523,"class":"TPV","lat":52.181020747952395,"mode":3}
{"ept":0.001,"eps":0.1,"epv":1.0,"lon":4.816383973850714,"time":"2015-09-24T10:58:08.146Z","epd":0.1,"epx":1.0,"speed":9.87317151780187,"alt":0.0,"epy":1.0,"track":342.71126345848523,"class":"TPV","lat":52.181105527846704,"mode":3}
{"ept":0.001,"eps":0.1,"epv":1.0,"lon":4.81634092048022,"time":"2015-09-24T10:58:09.146Z","epd":0.1,"epx":1.0,"speed":9.87317151780187,"alt":0.0,"epy":1.0,"track":342.71126345848523,"class":"TPV","lat":52.181190307741005,"mode":3}
{"ept":0.001,"eps":0.1,"epv":1.0,"lon":4.816297867109727,"time":"2015-09-24T10:58:10.146Z","epd":0.1,"epx":1.0,"speed":9.87317151780187,"alt":0.0,"epy":1.0,"track":342.71126345848523,"class":"TPV","lat":52.18127508763531,"mode":3}
{"ept":0.001,"eps":0.1,"epv":1.0,"lon":4.816254813739234,"time":"2015-09-24T10:58:11.146Z","epd":0.1,"epx":1.0,"speed":9.87317151780187,"alt":0.0,"epy":1.0,"track":342.71126345848523,"class":"TPV","lat":52.18135986752962,"mode":3}
{"ept":0.001,"eps":0.1,"epv":1.0,"lon":4.81621176036874,"time":"2015-09-24T10:58:12.146Z","epd":0.1,"epx":1.0,"speed":9.87317151780187,"alt":0.0,"epy":1.0,"track":342.71126345848523,"class":"TPV","lat":52.18144464742392,"mode":3}
{"ept":0.001,"eps":0.1,"epv":1.0,"lon":4.816168706998247,"time":"2015-09-24T10:58:13.146Z","epd":0.1,"epx":1.0,"speed":9.87317151780187,"alt":0.0,"epy":1.0,"track":342.71126345848523,"class":"TPV","lat":52.18152942731823,"mode":3}
{"ept":0.001,"eps":0.1,"epv":1.0,"lon":4.816125653627753,"time":"2015-09-24T10:58:14.146Z","epd":0.1,"epx":1.0,"speed":9.87317151780187,"alt":0.0,"epy":1.0,"track":342.71126345848523,"class":"TPV","lat":52.18161420721253,"mode":3}
{"ept":0.001,"eps":0.1,"epv":1.0,"lon":4.81608260025726,"time":"2015-09-24T10:58:15.146Z","epd":0.1,"epx":1.0,"speed":9.87317151780187,"alt":0.0,"epy":1.0,"track":342.71126345848523,"class":"TPV","lat":52.18169898710684,"mode":3}
{"ept":0.001,"eps":0.1,"epv":1.0,"lon":4.816039546886766,"time":"2015-09-24T10:58:16.147Z","epd":0.1,"epx":1.0,"speed":9.87317151780187,"alt":0.0,"epy":1.0,"track":342.71126345848523,"class":"TPV","lat":52.18178376700114,"mode":3}
{"ept":0.001,"eps":0.1,"epv":1.0,"lon":4.815996493516273,"time":"2015-09-24T10:58:17.146Z","epd":0.1,"epx":1.0,"speed":9.87317151780187,"alt":0.0,"epy":1.0,"track":342.71126345848523,"class":"TPV","lat":52.18186854689545,"mode":3}
