{"class":"VERSION","release":"3.6","rev":"3.6","proto_major":3,"proto_minor":7}
{"class":"DEVICES","devices":[{"class":"DEVICE","path":"gpsd://192.168.50.240:61000","activated":"2015-09-24T10:53:35.738Z","driver":"JSON slave driver"}]}
{"class":"WATCH","enable":true,"json":true,"nmea":false,"raw":0,"scaled":false,"timing":false}
{"ept":0.001,"eps":0.1,"epv":1.0,"lon":4.871391865116188,"time":"2015-09-24T10:54:02.146Z","epd":0.1,"epx":1.0,"speed":10.669763385463387,"alt":0.0,"epy":1.0,"track":245.11080911371423,"class":"TPV","lat":52.194384331108175,"mode":3}
{"ept":0.001,"eps":0.1,"epv":1.0,"lon":4.871249847708787,"time":"2015-09-24T10:54:03.146Z","epd":0.1,"epx":1.0,"speed":10.669763385463387,"alt":0.0,"epy":1.0,"track":245.11080911371423,"class":"TPV","lat":52.194343946831914,"mode":3}
{"ept":0.001,"eps":0.1,"epv":1.0,"lon":4.871107830301386,"time":"2015-09-24T10:54:04.146Z","epd":0.1,"epx":1.0,"speed":10.669763385463387,"alt":0.0,"epy":1.0,"track":245.11080911371423,"class":"TPV","lat":52.19430356255565,"mode":3}
{"ept":0.001,"eps":0.1,"epv":1.0,"lon":4.870965812893986,"time":"2015-09-24T10:54:05.146Z","epd":0.1,"epx":1.0,"speed":10.669763385463387,"alt":0.0,"epy":1.0,"track":245.11080911371423,"class":"TPV","lat":52.19426317827939,"mode":3}
{"ept":0.001,"eps":0.1,"epv":1.0,"lon":4.870823795486585,"time":"2015-09-24T10:54:06.146Z","epd":0.1,"epx":1.0,"speed":10.669763385463387,"alt":0.0,"epy":1.0,"track":245.11080911371423,"class":"TPV","lat":52.19422279400313,"mode":3}
{"ept":0.001,"eps":0.1,"epv":1.0,"lon":4.8706817780791845,"time":"2015-09-24T10:54:07.146Z","epd":0.1,"epx":1.0,"speed":10.669763385463387,"alt":0.0,"epy":1.0,"track":245.11080911371423,"class":"TPV","lat":52.19418240972687,"mode":3}
{"ept":0.001,"eps":0.1,"epv":1.0,"lon":4.870539760671783,"time":"2015-09-24T10:54:08.146Z","epd":0.1,"epx":1.0,"speed":10.669763385463387,"alt":0.0,"epy":1.0,"track":245.11080911371423,"class":"TPV","lat":52.19414202545061,"mode":3}
{"ept":0.001,"eps":0.1,"epv":1.0,"lon":4.870397743264383,"time":"2015-09-24T10:54:09.147Z","epd":0.1,"epx":1.0,"speed":10.669763385463387,"alt":0.0,"epy":1.0,"track":245.11080911371423,"class":"TPV","lat":52.19410164117435,"mode":3}
{"ept":0.001,"eps":0.1,"epv":1.0,"lon":4.870255725856982,"time":"2015-09-24T10:54:10.146Z","epd":0.1,"epx":1.0,"speed":10.669763385463387,"alt":0.0,"epy":1.0,"track":245.11080911371423,"class":"TPV","lat":52.19406125689809,"mode":3}
{"ept":0.001,"eps":0.1,"epv":1.0,"lon":4.870113708449582,"time":"2015-09-24T10:54:11.146Z","epd":0.1,"epx":1.0,"speed":10.669763385463387,"alt":0.0,"epy":1.0,"track":245.11080911371423,"class":"TPV","lat":52.19402087262183,"mode":3}
{"ept":0.001,"eps":0.1,"epv":1.0,"lon":4.86997169104218,"time":"2015-09-24T10:54:12.146Z","epd":0.1,"epx":1.0,"speed":10.669763385463387,"alt":0.0,"epy":1.0,"track":245.11080911371423,"class":"TPV","lat":52.19398048834557,"mode":3}
{"ept":0.001,"eps":0.1,"epv":1.0,"lon":4.86982967363478,"time":"2015-09-24T10:54:13.146Z","epd":0.1,"epx":1.0,"speed":10.669763385463387,"alt":0.0,"epy":1.0,"track":245.11080911371423,"class":"TPV","lat":52.193940104069306,"mode":3}
{"ept":0.001,"eps":0.1,"epv":1.0,"lon":4.869687656227379,"time":"2015-09-24T10:54:14.146Z","epd":0.1,"epx":1.0,"speed":10.669763385463387,"alt":0.0,"epy":1.0,"track":245.11080911371423,"class":"TPV","lat":52.193899719793045,"mode":3}
{"ept":0.001,"eps":0.1,"epv":1.0,"lon":4.869545638819979,"time":"2015-09-24T10:54:15.146Z","epd":0.1,"epx":1.0,"speed":10.669763385463387,"alt":0.0,"epy":1.0,"track":245.11080911371423,"class":"TPV","lat":52.193859335516784,"mode":3}
{"ept":0.001,"eps":0.1,"epv":1.0,"lon":4.8694036214125775,"time":"2015-09-24T10:54:16.146Z","epd":0.1,"epx":1.0,"speed":10.669763385463387,"alt":0.0,"epy":1.0,"track":245.11080911371423,"class":"TPV","lat":52.19381895124052,"mode":3}
{"ept":0.001,"eps":0.1,"epv":1.0,"lon":4.869261604005177,"time":"2015-09-24T10:54:17.146Z","epd":0.1,"epx":1.0,"speed":10.669763385463387,"alt":0.0,"epy":1.0,"track":245.11080911371423,"class":"TPV","lat":52.19377856696426,"mode":3}
{"ept":0.001,"eps":0.1,"epv":1.0,"lon":4.869119586597776,"time":"2015-09-24T10:54:18.146Z","epd":0.1,"epx":1.0,"speed":10.669763385463387,"alt":0.0,"epy":1.0,"track":245.11080911371423,"class":"TPV","lat":52.193738182688,"mode":3}
{"ept":0.001,"eps":0.1,"epv":1.0,"lon":4.868977569190376,"time":"2015-09-24T10:54:19.146Z","epd":0.1,"epx":1.0,"speed":10.669763385463387,"alt":0.0,"epy":1.0,"track":245.11080911371423,"class":"TPV","lat":52.19369779841174,"mode":3}
{"ept":0.001,"eps":0.1,"epv":1.0,"lon":4.868835551782975,"time":"2015-09-24T10:54:20.146Z","epd":0.1,"epx":1.0,"speed":10.669763385463387,"alt":0.0,"epy":1.0,"track":245.11080911371423,"class":"TPV","lat":52.19365741413548,"mode":3}
{"ept":0.001,"eps":0.1,"epv":1.0,"lon":4.868693534375574,"time":"2015-09-24T10:54:21.146Z","epd":0.1,"epx":1.0,"speed":10.669763385463387,"alt":0.0,"epy":1.0,"track":245.11080911371423,"class":"TPV","lat":52.19361702985922,"mode":3}
{"ept":0.001,"eps":0.1,"epv":1.0,"lon":4.868551516968173,"time":"2015-09-24T10:54:22.146Z","epd":0.1,"epx":1.0,"speed":10.669763385463387,"alt":0.0,"epy":1.0,"track":245.11080911371423,"class":"TPV","lat":52.19357664558296,"mode":3}
{"ept":0.001,"eps":0.1,"epv":1.0,"lon":4.868409499560773,"time":"2015-09-24T10:54:23.146Z","epd":0.1,"epx":1.0,"speed":10.669763385463387,"alt":0.0,"epy":1.0,"track":245.11080911371423,"class":"TPV","lat":52.1935362613067,"mode":3}
{"ept":0.001,"eps":0.1,"epv":1.0,"lon":4.868267482153372,"time":"2015-09-24T10:54:24.146Z","epd":0.1,"epx":1.0,"speed":10.669763385463387,"alt":0.0,"epy":1.0,"track":245.11080911371423,"class":"TPV","lat":52.193495877030436,"mode":3}
{"ept":0.001,"eps":0.1,"epv":1.0,"lon":4.8681254647459715,"time":"2015-09-24T10:54:25.146Z","epd":0.1,"epx":1.0,"speed":10.669763385463387,"alt":0.0,"epy":1.0,"track":245.11080911371423,"class":"TPV","lat":52.193455492754175,"mode":3}
{"ept":0.001,"eps":0.1,"epv":1.0,"lon":4.86798344733857,"time":"2015-09-24T10:54:26.146Z","epd":0.1,"epx":1.0,"speed":10.669763385463387,"alt":0.0,"epy":1.0,"track":245.11080911371423,"class":"TPV","lat":52.193415108477915,"mode":3}
{"ept":0.001,"eps":0.1,"epv":1.0,"lon":4.86784142993117,"time":"2015-09-24T10:54:27.146Z","epd":0.1,"epx":1.0,"speed":10.669763385463387,"alt":0.0,"epy":1.0,"track":245.11080911371423,"class":"TPV","lat":52.193374724201654,"mode":3}
{"ept":0.001,"eps":0.1,"epv":1.0,"lon":4.867699412523769,"time":"2015-09-24T10:54:28.146Z","epd":0.1,"epx":1.0,"speed":10.669763385463387,"alt":0.0,"epy":1.0,"track":245.11080911371423,"class":"TPV","lat":52.19333433992539,"mode":3}
{"ept":0.001,"eps":0.1,"epv":1.0,"lon":4.867557395116368,"time":"2015-09-24T10:54:29.146Z","epd":0.1,"epx":1.0,"speed":10.669763385463387,"alt":0.0,"epy":1.0,"track":245.11080911371423,"class":"TPV","lat":52.193293955649125,"mode":3}
{"ept":0.001,"eps":0.1,"epv":1.0,"lon":4.8674153777089675,"time":"2015-09-24T10:54:30.146Z","epd":0.1,"epx":1.0,"speed":10.669763385463387,"alt":0.0,"epy":1.0,"track":245.11080911371423,"class":"TPV","lat":52.193253571372864,"mode":3}
{"ept":0.001,"eps":0.1,"epv":1.0,"lon":4.867273360301566,"time":"2015-09-24T10:54:31.146Z","epd":0.1,"epx":1.0,"speed":10.669763385463387,"alt":0.0,"epy":1.0,"track":245.11080911371423,"class":"TPV","lat":52.1932131870966,"mode":3}
{"ept":0.001,"eps":0.1,"epv":1.0,"lon":4.867131342894166,"time":"2015-09-24T10:54:32.146Z","epd":0.1,"epx":1.0,"speed":10.669763385463387,"alt":0.0,"epy":1.0,"track":245.11080911371423,"class":"TPV","lat":52.19317280282034,"mode":3}
{"ept":0.001,"eps":0.1,"epv":1.0,"lon":4.866989325486765,"time":"2015-09-24T10:54:33.146Z","epd":0.1,"epx":1.0,"speed":10.669763385463387,"alt":0.0,"epy":1.0,"track":245.11080911371423,"class":"TPV","lat":52.19313241854408,"mode":3}
{"ept":0.001,"eps":0.1,"epv":1.0,"lon":4.866847308079365,"time":"2015-09-24T10:54:34.146Z","epd":0.1,"epx":1.0,"speed":10.669763385463387,"alt":0.0,"epy":1.0,"track":245.11080911371423,"class":"TPV","lat":52.19309203426782,"mode":3}
{"ept":0.001,"eps":0.1,"epv":1.0,"lon":4.8667052906719634,"time":"2015-09-24T10:54:35.146Z","epd":0.1,"epx":1.0,"speed":10.669763385463387,"alt":0.0,"epy":1.0,"track":245.11080911371423,"class":"TPV","lat":52.19305164999156,"mode":3}
{"ept":0.001,"eps":0.1,"epv":1.0,"lon":4.866563273264563,"time":"2015-09-24T10:54:36.146Z","epd":0.1,"epx":1.0,"speed":10.669763385463387,"alt":0.0,"epy":1.0,"track":245.11080911371423,"class":"TPV","lat":52.1930112657153,"mode":3}
{"ept":0.001,"eps":0.1,"epv":1.0,"lon":4.866421255857162,"time":"2015-09-24T10:54:37.146Z","epd":0.1,"epx":1.0,"speed":10.669763385463387,"alt":0.0,"epy":1.0,"track":245.11080911371423,"class":"TPV","lat":52.19297088143904,"mode":3}
{"ept":0.001,"eps":0.1,"epv":1.0,"lon":4.866279238449762,"time":"2015-09-24T10:54:38.146Z","epd":0.1,"epx":1.0,"speed":10.669763385463387,"alt":0.0,"epy":1.0,"track":245.11080911371423,"class":"TPV","lat":52.19293049716278,"mode":3}
{"ept":0.001,"eps":0.1,"epv":1.0,"lon":4.866137221042361,"time":"2015-09-24T10:54:39.146Z","epd":0.1,"epx":1.0,"speed":10.669763385463387,"alt":0.0,"epy":1.0,"track":245.11080911371423,"class":"TPV","lat":52.192890112886516,"mode":3}
{"ept":0.001,"eps":0.1,"epv":1.0,"lon":4.86599520363496,"time":"2015-09-24T10:54:40.146Z","epd":0.1,"epx":1.0,"speed":10.669763385463387,"alt":0.0,"epy":1.0,"track":245.11080911371423,"class":"TPV","lat":52.192849728610256,"mode":3}
{"ept":0.001,"eps":0.1,"epv":1.0,"lon":4.865853186227559,"time":"2015-09-24T10:54:41.146Z","epd":0.1,"epx":1.0,"speed":10.669763385463387,"alt":0.0,"epy":1.0,"track":245.11080911371423,"class":"TPV","lat":52.192809344333995,"mode":3}
{"ept":0.001,"eps":0.1,"epv":1.0,"lon":4.865711168820159,"time":"2015-09-24T10:54:42.146Z","epd":0.1,"epx":1.0,"speed":10.669763385463387,"alt":0.0,"epy":1.0,"track":245.11080911371423,"class":"TPV","lat":52.192768960057734,"mode":3}
{"ept":0.001,"eps":0.1,"epv":1.0,"lon":4.865569151412758,"time":"2015-09-24T10:54:43.146Z","epd":0.1,"epx":1.0,"speed":10.669763385463387,"alt":0.0,"epy":1.0,"track":245.11080911371423,"class":"TPV","lat":52.19272857578147,"mode":3}
{"ept":0.001,"eps":0.1,"epv":1.0,"lon":4.865427134005357,"time":"2015-09-24T10:54:44.146Z","epd":0.1,"epx":1.0,"speed":10.669763385463387,"alt":0.0,"epy":1.0,"track":245.11080911371423,"class":"TPV","lat":52.19268819150521,"mode":3}
{"ept":0.001,"eps":0.1,"epv":1.0,"lon":4.865285116597956,"time":"2015-09-24T10:54:45.146Z","epd":0.1,"epx":1.0,"speed":10.669763385463387,"alt":0.0,"epy":1.0,"track":245.11080911371423,"class":"TPV","lat":52.19264780722895,"mode":3}
{"ept":0.001,"eps":0.1,"epv":1.0,"lon":4.865143099190556,"time":"2015-09-24T10:54:46.146Z","epd":0.1,"epx":1.0,"speed":10.669763385463387,"alt":0.0,"epy":1.0,"track":245.11080911371423,"class":"TPV","lat":52.19260742295269,"mode":3}
{"ept":0.001,"eps":0.1,"epv":1.0,"lon":4.865001081783155,"time":"2015-09-24T10:54:47.146Z","epd":0.1,"epx":1.0,"speed":10.669763385463387,"alt":0.0,"epy":1.0,"track":245.11080911371423,"class":"TPV","lat":52.19256703867643,"mode":3}
{"ept":0.001,"eps":0.1,"epv":1.0,"lon":4.8648590643757545,"time":"2015-09-24T10:54:48.146Z","epd":0.1,"epx":1.0,"speed":10.669763385463387,"alt":0.0,"epy":1.0,"track":245.11080911371423,"class":"TPV","lat":52.19252665440017,"mode":3}
{"ept":0.001,"eps":0.1,"epv":1.0,"lon":4.864717046968353,"time":"2015-09-24T10:54:49.146Z","epd":0.1,"epx":1.0,"speed":10.669763385463387,"alt":0.0,"epy":1.0,"track":245.11080911371423,"class":"TPV","lat":52.19248627012391,"mode":3}
{"ept":0.001,"eps":0.1,"epv":1.0,"lon":4.864575029560953,"time":"2015-09-24T10:54:50.146Z","epd":0.1,"epx":1.0,"speed":10.669763385463387,"alt":0.0,"epy":1.0,"track":245.11080911371423,"class":"TPV","lat":52.19244588584765,"mode":3}
{"ept":0.001,"eps":0.1,"epv":1.0,"lon":4.864433012153552,"time":"2015-09-24T10:54:51.146Z","epd":0.1,"epx":1.0,"speed":10.669763385463387,"alt":0.0,"epy":1.0,"track":245.11080911371423,"class":"TPV","lat":52.192405501571386,"mode":3}
{"ept":0.001,"eps":0.1,"epv":1.0,"lon":4.864290994746152,"time":"2015-09-24T10:54:52.146Z","epd":0.1,"epx":1.0,"speed":10.669763385463387,"alt":0.0,"epy":1.0,"track":245.11080911371423,"class":"TPV","lat":52.192365117295125,"mode":3}
{"ept":0.001,"eps":0.1,"epv":1.0,"lon":4.8641489773387505,"time":"2015-09-24T10:54:53.146Z","epd":0.1,"epx":1.0,"speed":10.669763385463387,"alt":0.0,"epy":1.0,"track":245.11080911371423,"class":"TPV","lat":52.192324733018864,"mode":3}
{"ept":0.001,"eps":0.1,"epv":1.0,"lon":4.86400695993135,"time":"2015-09-24T10:54:54.146Z","epd":0.1,"epx":1.0,"speed":10.669763385463387,"alt":0.0,"epy":1.0,"track":245.11080911371423,"class":"TPV","lat":52.192284348742604,"mode":3}
{"ept":0.001,"eps":0.1,"epv":1.0,"lon":4.863864942523949,"time":"2015-09-24T10:54:55.146Z","epd":0.1,"epx":1.0,"speed":10.669763385463387,"alt":0.0,"epy":1.0,"track":245.11080911371423,"class":"TPV","lat":52.19224396446634,"mode":3}
{"ept":0.001,"eps":0.1,"epv":1.0,"lon":4.863722925116549,"time":"2015-09-24T10:54:56.146Z","epd":0.1,"epx":1.0,"speed":10.669763385463387,"alt":0.0,"epy":1.0,"track":245.11080911371423,"class":"TPV","lat":52.19220358019008,"mode":3}
{"ept":0.001,"eps":0.1,"epv":1.0,"lon":4.863580907709148,"time":"2015-09-24T10:54:57.146Z","epd":0.1,"epx":1.0,"speed":10.669763385463387,"alt":0.0,"epy":1.0,"track":245.11080911371423,"class":"TPV","lat":52.19216319591382,"mode":3}
{"ept":0.001,"eps":0.1,"epv":1.0,"lon":4.863438890301747,"time":"2015-09-24T10:54:58.146Z","epd":0.1,"epx":1.0,"speed":10.669763385463387,"alt":0.0,"epy":1.0,"track":245.11080911371423,"class":"TPV","lat":52.19212281163756,"mode":3}
{"ept":0.001,"eps":0.1,"epv":1.0,"lon":4.863296872894346,"time":"2015-09-24T10:54:59.146Z","epd":0.1,"epx":1.0,"speed":10.669763385463387,"alt":0.0,"epy":1.0,"track":245.11080911371423,"class":"TPV","lat":52.1920824273613,"mode":3}
{"ept":0.001,"eps":0.1,"epv":1.0,"lon":4.863154855486946,"time":"2015-09-24T10:55:00.146Z","epd":0.1,"epx":1.0,"speed":10.669763385463387,"alt":0.0,"epy":1.0,"track":245.11080911371423,"class":"TPV","lat":52.19204204308504,"mode":3}
{"ept":0.001,"eps":0.1,"epv":1.0,"lon":4.863012838079545,"time":"2015-09-24T10:55:01.146Z","epd":0.1,"epx":1.0,"speed":10.669763385463387,"alt":0.0,"epy":1.0,"track":245.11080911371423,"class":"TPV","lat":52.19200165880878,"mode":3}
{"ept":0.001,"eps":0.1,"epv":1.0,"lon":4.8628708206721445,"time":"2015-09-24T10:55:02.146Z","epd":0.1,"epx":1.0,"speed":10.669763385463387,"alt":0.0,"epy":1.0,"track":245.11080911371423,"class":"TPV","lat":52.19196127453252,"mode":3}
{"ept":0.001,"eps":0.1,"epv":1.0,"lon":4.862728803264743,"time":"2015-09-24T10:55:03.146Z","epd":0.1,"epx":1.0,"speed":10.669763385463387,"alt":0.0,"epy":1.0,"track":245.11080911371423,"class":"TPV","lat":52.191920890256256,"mode":3}
{"ept":0.001,"eps":0.1,"epv":1.0,"lon":4.862586785857343,"time":"2015-09-24T10:55:04.146Z","epd":0.1,"epx":1.0,"speed":10.669763385463387,"alt":0.0,"epy":1.0,"track":245.11080911371423,"class":"TPV","lat":52.191880505979995,"mode":3}
{"ept":0.001,"eps":0.1,"epv":1.0,"lon":4.862444768449942,"time":"2015-09-24T10:55:05.146Z","epd":0.1,"epx":1.0,"speed":10.669763385463387,"alt":0.0,"epy":1.0,"track":245.11080911371423,"class":"TPV","lat":52.191840121703734,"mode":3}
{"ept":0.001,"eps":0.1,"epv":1.0,"lon":4.862302751042542,"time":"2015-09-24T10:55:06.146Z","epd":0.1,"epx":1.0,"speed":10.669763385463387,"alt":0.0,"epy":1.0,"track":245.11080911371423,"class":"TPV","lat":52.19179973742747,"mode":3}
{"ept":0.001,"eps":0.1,"epv":1.0,"lon":4.8621607336351405,"time":"2015-09-24T10:55:07.146Z","epd":0.1,"epx":1.0,"speed":10.669763385463387,"alt":0.0,"epy":1.0,"track":245.11080911371423,"class":"TPV","lat":52.19175935315121,"mode":3}
{"ept":0.001,"eps":0.1,"epv":1.0,"lon":4.86201871622774,"time":"2015-09-24T10:55:08.146Z","epd":0.1,"epx":1.0,"speed":10.669763385463387,"alt":0.0,"epy":1.0,"track":245.11080911371423,"class":"TPV","lat":52.19171896887495,"mode":3}
{"ept":0.001,"eps":0.1,"epv":1.0,"lon":4.861876698820339,"time":"2015-09-24T10:55:09.146Z","epd":0.1,"epx":1.0,"speed":10.669763385463387,"alt":0.0,"epy":1.0,"track":245.11080911371423,"class":"TPV","lat":52.19167858459869,"mode":3}
{"ept":0.001,"eps":0.1,"epv":1.0,"lon":4.861734681412938,"time":"2015-09-24T10:55:10.146Z","epd":0.1,"epx":1.0,"speed":10.669763385463387,"alt":0.0,"epy":1.0,"track":245.11080911371423,"class":"TPV","lat":52.19163820032243,"mode":3}
{"ept":0.001,"eps":0.1,"epv":1.0,"lon":4.861592664005538,"time":"2015-09-24T10:55:11.146Z","epd":0.1,"epx":1.0,"speed":10.669763385463387,"alt":0.0,"epy":1.0,"track":245.11080911371423,"class":"TPV","lat":52.19159781604617,"mode":3}
{"ept":0.001,"eps":0.1,"epv":1.0,"lon":4.861450646598136,"time":"2015-09-24T10:55:12.146Z","epd":0.1,"epx":1.0,"speed":10.669763385463387,"alt":0.0,"epy":1.0,"track":245.11080911371423,"class":"TPV","lat":52.19155743176991,"mode":3}
{"ept":0.001,"eps":0.1,"epv":1.0,"lon":4.861308629190736,"time":"2015-09-24T10:55:13.146Z","epd":0.1,"epx":1.0,"speed":10.669763385463387,"alt":0.0,"epy":1.0,"track":245.11080911371423,"class":"TPV","lat":52.19151704749365,"mode":3}
{"ept":0.001,"eps":0.1,"epv":1.0,"lon":4.861166611783335,"time":"2015-09-24T10:55:14.146Z","epd":0.1,"epx":1.0,"speed":10.669763385463387,"alt":0.0,"epy":1.0,"track":245.11080911371423,"class":"TPV","lat":52.19147666321739,"mode":3}
{"ept":0.001,"eps":0.1,"epv":1.0,"lon":4.861024594375935,"time":"2015-09-24T10:55:15.146Z","epd":0.1,"epx":1.0,"speed":10.669763385463387,"alt":0.0,"epy":1.0,"track":245.11080911371423,"class":"TPV","lat":52.191436278941126,"mode":3}
{"ept":0.001,"eps":0.1,"epv":1.0,"lon":4.8608825769685335,"time":"2015-09-24T10:55:16.146Z","epd":0.1,"epx":1.0,"speed":10.669763385463387,"alt":0.0,"epy":1.0,"track":245.11080911371423,"class":"TPV","lat":52.191395894664865,"mode":3}
{"ept":0.001,"eps":0.1,"epv":1.0,"lon":4.860740559561133,"time":"2015-09-24T10:55:17.146Z","epd":0.1,"epx":1.0,"speed":10.669763385463387,"alt":0.0,"epy":1.0,"track":245.11080911371423,"class":"TPV","lat":52.191355510388604,"mode":3}
{"ept":0.001,"eps":0.1,"epv":1.0,"lon":4.860598542153732,"time":"2015-09-24T10:55:18.146Z","epd":0.1,"epx":1.0,"speed":10.669763385463387,"alt":0.0,"epy":1.0,"track":245.11080911371423,"class":"TPV","lat":52.19131512611234,"mode":3}
{"ept":0.001,"eps":0.1,"epv":1.0,"lon":4.860456524746332,"time":"2015-09-24T10:55:19.146Z","epd":0.1,"epx":1.0,"speed":10.669763385463387,"alt":0.0,"epy":1.0,"track":245.11080911371423,"class":"TPV","lat":52.19127474183608,"mode":3}
{"ept":0.001,"eps":0.1,"epv":1.0,"lon":4.860314507338931,"time":"2015-09-24T10:55:20.146Z","epd":0.1,"epx":1.0,"speed":10.669763385463387,"alt":0.0,"epy":1.0,"track":245.11080911371423,"class":"TPV","lat":52.19123435755982,"mode":3}
{"ept":0.001,"eps":0.1,"epv":1.0,"lon":4.86017248993153,"time":"2015-09-24T10:55:21.146Z","epd":0.1,"epx":1.0,"speed":10.669763385463387,"alt":0.0,"epy":1.0,"track":245.11080911371423,"class":"TPV","lat":52.19119397328356,"mode":3}
{"ept":0.001,"eps":0.1,"epv":1.0,"lon":4.860030472524129,"time":"2015-09-24T10:55:22.146Z","epd":0.1,"epx":1.0,"speed":10.669763385463387,"alt":0.0,"epy":1.0,"track":245.11080911371423,"class":"TPV","lat":52.1911535890073,"mode":3}
{"ept":0.001,"eps":0.1,"epv":1.0,"lon":4.859888455116729,"time":"2015-09-24T10:55:23.146Z","epd":0.1,"epx":1.0,"speed":10.669763385463387,"alt":0.0,"epy":1.0,"track":245.11080911371423,"class":"TPV","lat":52.19111320473104,"mode":3}
{"ept":0.001,"eps":0.1,"epv":1.0,"lon":4.859746437709328,"time":"2015-09-24T10:55:24.146Z","epd":0.1,"epx":1.0,"speed":10.669763385463387,"alt":0.0,"epy":1.0,"track":245.11080911371423,"class":"TPV","lat":52.19107282045478,"mode":3}
{"ept":0.001,"eps":0.1,"epv":1.0,"lon":4.8596044203019275,"time":"2015-09-24T10:55:25.146Z","epd":0.1,"epx":1.0,"speed":10.669763385463387,"alt":0.0,"epy":1.0,"track":245.11080911371423,"class":"TPV","lat":52.19103243617852,"mode":3}
{"ept":0.001,"eps":0.1,"epv":1.0,"lon":4.859462402894526,"time":"2015-09-24T10:55:26.146Z","epd":0.1,"epx":1.0,"speed":10.669763385463387,"alt":0.0,"epy":1.0,"track":245.11080911371423,"class":"TPV","lat":52.190992051902256,"mode":3}
{"ept":0.001,"eps":0.1,"epv":1.0,"lon":4.859320385487126,"time":"2015-09-24T10:55:27.146Z","epd":0.1,"epx":1.0,"speed":10.669763385463387,"alt":0.0,"epy":1.0,"track":245.11080911371423,"class":"TPV","lat":52.190951667625995,"mode":3}
{"ept":0.001,"eps":0.1,"epv":1.0,"lon":4.859178368079725,"time":"2015-09-24T10:55:28.146Z","epd":0.1,"epx":1.0,"speed":10.669763385463387,"alt":0.0,"epy":1.0,"track":245.11080911371423,"class":"TPV","lat":52.19091128334973,"mode":3}
{"ept":0.001,"eps":0.1,"epv":1.0,"lon":4.859036350672325,"time":"2015-09-24T10:55:29.146Z","epd":0.1,"epx":1.0,"speed":10.669763385463387,"alt":0.0,"epy":1.0,"track":245.11080911371423,"class":"TPV","lat":52.19087089907347,"mode":3}
{"ept":0.001,"eps":0.1,"epv":1.0,"lon":4.8588943332649235,"time":"2015-09-24T10:55:30.146Z","epd":0.1,"epx":1.0,"speed":10.669763385463387,"alt":0.0,"epy":1.0,"track":245.11080911371423,"class":"TPV","lat":52.190830514797206,"mode":3}
{"ept":0.001,"eps":0.1,"epv":1.0,"lon":4.858752315857523,"time":"2015-09-24T10:55:31.146Z","epd":0.1,"epx":1.0,"speed":10.669763385463387,"alt":0.0,"epy":1.0,"track":245.11080911371423,"class":"TPV","lat":52.190790130520945,"mode":3}
{"ept":0.001,"eps":0.1,"epv":1.0,"lon":4.858610298450122,"time":"2015-09-24T10:55:32.146Z","epd":0.1,"epx":1.0,"speed":10.669763385463387,"alt":0.0,"epy":1.0,"track":245.11080911371423,"class":"TPV","lat":52.190749746244684,"mode":3}
{"ept":0.001,"eps":0.1,"epv":1.0,"lon":4.858468281042722,"time":"2015-09-24T10:55:33.146Z","epd":0.1,"epx":1.0,"speed":10.669763385463387,"alt":0.0,"epy":1.0,"track":245.11080911371423,"class":"TPV","lat":52.19070936196842,"mode":3}
{"ept":0.001,"eps":0.1,"epv":1.0,"lon":4.858326263635321,"time":"2015-09-24T10:55:34.146Z","epd":0.1,"epx":1.0,"speed":10.669763385463387,"alt":0.0,"epy":1.0,"track":245.11080911371423,"class":"TPV","lat":52.19066897769216,"mode":3}
{"ept":0.001,"eps":0.1,"epv":1.0,"lon":4.85818424622792,"time":"2015-09-24T10:55:35.146Z","epd":0.1,"epx":1.0,"speed":10.669763385463387,"alt":0.0,"epy":1.0,"track":245.11080911371423,"class":"TPV","lat":52.1906285934159,"mode":3}
{"ept":0.001,"eps":0.1,"epv":1.0,"lon":4.858042228820519,"time":"2015-09-24T10:55:36.146Z","epd":0.1,"epx":1.0,"speed":10.669763385463387,"alt":0.0,"epy":1.0,"track":245.11080911371423,"class":"TPV","lat":52.19058820913964,"mode":3}
{"ept":0.001,"eps":0.1,"epv":1.0,"lon":4.857900211413119,"time":"2015-09-24T10:55:37.146Z","epd":0.1,"epx":1.0,"speed":10.669763385463387,"alt":0.0,"epy":1.0,"track":245.11080911371423,"class":"TPV","lat":52.19054782486338,"mode":3}
{"ept":0.001,"eps":0.1,"epv":1.0,"lon":4.857758194005718,"time":"2015-09-24T10:55:38.146Z","epd":0.1,"epx":1.0,"speed":10.669763385463387,"alt":0.0,"epy":1.0,"track":245.11080911371423,"class":"TPV","lat":52.19050744058712,"mode":3}
{"ept":0.001,"eps":0.1,"epv":1.0,"lon":4.8576161765983175,"time":"2015-09-24T10:55:39.146Z","epd":0.1,"epx":1.0,"speed":10.669763385463387,"alt":0.0,"epy":1.0,"track":245.11080911371423,"class":"TPV","lat":52.19046705631086,"mode":3}
{"ept":0.001,"eps":0.1,"epv":1.0,"lon":4.857474159190916,"time":"2015-09-24T10:55:40.146Z","epd":0.1,"epx":1.0,"speed":10.669763385463387,"alt":0.0,"epy":1.0,"track":245.11080911371423,"class":"TPV","lat":52.1904266720346,"mode":3}
{"ept":0.001,"eps":0.1,"epv":1.0,"lon":4.857332141783516,"time":"2015-09-24T10:55:41.146Z","epd":0.1,"epx":1.0,"speed":10.669763385463387,"alt":0.0,"epy":1.0,"track":245.11080911371423,"class":"TPV","lat":52.190386287758336,"mode":3}
{"ept":0.001,"eps":0.1,"epv":1.0,"lon":4.857190124376115,"time":"2015-09-24T10:55:42.146Z","epd":0.1,"epx":1.0,"speed":10.669763385463387,"alt":0.0,"epy":1.0,"track":245.11080911371423,"class":"TPV","lat":52.190345903482076,"mode":3}
{"ept":0.001,"eps":0.1,"epv":1.0,"lon":4.857048106968715,"time":"2015-09-24T10:55:43.146Z","epd":0.1,"epx":1.0,"speed":10.669763385463387,"alt":0.0,"epy":1.0,"track":245.11080911371423,"class":"TPV","lat":52.190305519205815,"mode":3}
{"ept":0.001,"eps":0.1,"epv":1.0,"lon":4.856906089561313,"time":"2015-09-24T10:55:44.146Z","epd":0.1,"epx":1.0,"speed":10.669763385463387,"alt":0.0,"epy":1.0,"track":245.11080911371423,"class":"TPV","lat":52.190265134929554,"mode":3}
{"ept":0.001,"eps":0.1,"epv":1.0,"lon":4.856764072153913,"time":"2015-09-24T10:55:45.146Z","epd":0.1,"epx":1.0,"speed":10.669763385463387,"alt":0.0,"epy":1.0,"track":245.11080911371423,"class":"TPV","lat":52.19022475065329,"mode":3}
{"ept":0.001,"eps":0.1,"epv":1.0,"lon":4.856622054746512,"time":"2015-09-24T10:55:46.146Z","epd":0.1,"epx":1.0,"speed":10.669763385463387,"alt":0.0,"epy":1.0,"track":245.11080911371423,"class":"TPV","lat":52.19018436637703,"mode":3}
{"ept":0.001,"eps":0.1,"epv":1.0,"lon":4.856480037339112,"time":"2015-09-24T10:55:47.146Z","epd":0.1,"epx":1.0,"speed":10.669763385463387,"alt":0.0,"epy":1.0,"track":245.11080911371423,"class":"TPV","lat":52.19014398210077,"mode":3}
{"ept":0.001,"eps":0.1,"epv":1.0,"lon":4.8563380199317105,"time":"2015-09-24T10:55:48.146Z","epd":0.1,"epx":1.0,"speed":10.669763385463387,"alt":0.0,"epy":1.0,"track":245.11080911371423,"class":"TPV","lat":52.19010359782451,"mode":3}
{"ept":0.001,"eps":0.1,"epv":1.0,"lon":4.85619600252431,"time":"2015-09-24T10:55:49.146Z","epd":0.1,"epx":1.0,"speed":10.669763385463387,"alt":0.0,"epy":1.0,"track":245.11080911371423,"class":"TPV","lat":52.19006321354825,"mode":3}
{"ept":0.001,"eps":0.1,"epv":1.0,"lon":4.856053985116909,"time":"2015-09-24T10:55:50.146Z","epd":0.1,"epx":1.0,"speed":10.669763385463387,"alt":0.0,"epy":1.0,"track":245.11080911371423,"class":"TPV","lat":52.19002282927199,"mode":3}
{"ept":0.001,"eps":0.1,"epv":1.0,"lon":4.855911967709508,"time":"2015-09-24T10:55:51.146Z","epd":0.1,"epx":1.0,"speed":10.669763385463387,"alt":0.0,"epy":1.0,"track":245.11080911371423,"class":"TPV","lat":52.18998244499573,"mode":3}
{"ept":0.001,"eps":0.1,"epv":1.0,"lon":4.855769950302108,"time":"2015-09-24T10:55:52.146Z","epd":0.1,"epx":1.0,"speed":10.669763385463387,"alt":0.0,"epy":1.0,"track":245.11080911371423,"class":"TPV","lat":52.18994206071947,"mode":3}
{"ept":0.001,"eps":0.1,"epv":1.0,"lon":4.8556279328947065,"time":"2015-09-24T10:55:53.146Z","epd":0.1,"epx":1.0,"speed":10.669763385463387,"alt":0.0,"epy":1.0,"track":245.11080911371423,"class":"TPV","lat":52.189901676443206,"mode":3}
{"ept":0.001,"eps":0.1,"epv":1.0,"lon":4.855485915487306,"time":"2015-09-24T10:55:54.146Z","epd":0.1,"epx":1.0,"speed":10.669763385463387,"alt":0.0,"epy":1.0,"track":245.11080911371423,"class":"TPV","lat":52.189861292166945,"mode":3}
{"ept":0.001,"eps":0.1,"epv":1.0,"lon":4.855343898079905,"time":"2015-09-24T10:55:55.146Z","epd":0.1,"epx":1.0,"speed":10.669763385463387,"alt":0.0,"epy":1.0,"track":245.11080911371423,"class":"TPV","lat":52.189820907890685,"mode":3}
{"ept":0.001,"eps":0.1,"epv":1.0,"lon":4.855201880672505,"time":"2015-09-24T10:55:56.146Z","epd":0.1,"epx":1.0,"speed":10.669763385463387,"alt":0.0,"epy":1.0,"track":245.11080911371423,"class":"TPV","lat":52.189780523614424,"mode":3}
{"ept":0.001,"eps":0.1,"epv":1.0,"lon":4.855059863265104,"time":"2015-09-24T10:55:57.146Z","epd":0.1,"epx":1.0,"speed":10.669763385463387,"alt":0.0,"epy":1.0,"track":245.11080911371423,"class":"TPV","lat":52.18974013933816,"mode":3}
{"ept":0.001,"eps":0.1,"epv":1.0,"lon":4.854917845857703,"time":"2015-09-24T10:55:58.146Z","epd":0.1,"epx":1.0,"speed":10.669763385463387,"alt":0.0,"epy":1.0,"track":245.11080911371423,"class":"TPV","lat":52.1896997550619,"mode":3}
{"ept":0.001,"eps":0.1,"epv":1.0,"lon":4.854775828450302,"time":"2015-09-24T10:55:59.146Z","epd":0.1,"epx":1.0,"speed":10.669763385463387,"alt":0.0,"epy":1.0,"track":245.11080911371423,"class":"TPV","lat":52.18965937078564,"mode":3}
{"ept":0.001,"eps":0.1,"epv":1.0,"lon":4.854633811042902,"time":"2015-09-24T10:56:00.146Z","epd":0.1,"epx":1.0,"speed":10.669763385463387,"alt":0.0,"epy":1.0,"track":245.11080911371423,"class":"TPV","lat":52.18961898650938,"mode":3}
{"ept":0.001,"eps":0.1,"epv":1.0,"lon":4.854491793635501,"time":"2015-09-24T10:56:01.146Z","epd":0.1,"epx":1.0,"speed":10.669763385463387,"alt":0.0,"epy":1.0,"track":245.11080911371423,"class":"TPV","lat":52.18957860223312,"mode":3}
{"ept":0.001,"eps":0.1,"epv":1.0,"lon":4.8543497762281005,"time":"2015-09-24T10:56:02.146Z","epd":0.1,"epx":1.0,"speed":10.669763385463387,"alt":0.0,"epy":1.0,"track":245.11080911371423,"class":"TPV","lat":52.18953821795686,"mode":3}
{"ept":0.001,"eps":0.1,"epv":1.0,"lon":4.854207758820699,"time":"2015-09-24T10:56:03.146Z","epd":0.1,"epx":1.0,"speed":10.669763385463387,"alt":0.0,"epy":1.0,"track":245.11080911371423,"class":"TPV","lat":52.1894978336806,"mode":3}
{"ept":0.001,"eps":0.1,"epv":1.0,"lon":4.854065741413299,"time":"2015-09-24T10:56:04.146Z","epd":0.1,"epx":1.0,"speed":10.669763385463387,"alt":0.0,"epy":1.0,"track":245.11080911371423,"class":"TPV","lat":52.18945744940434,"mode":3}
{"ept":0.001,"eps":0.1,"epv":1.0,"lon":4.853923724005898,"time":"2015-09-24T10:56:05.146Z","epd":0.1,"epx":1.0,"speed":10.669763385463387,"alt":0.0,"epy":1.0,"track":245.11080911371423,"class":"TPV","lat":52.189417065128076,"mode":3}
{"ept":0.001,"eps":0.1,"epv":1.0,"lon":4.853781706598498,"time":"2015-09-24T10:56:06.146Z","epd":0.1,"epx":1.0,"speed":10.669763385463387,"alt":0.0,"epy":1.0,"track":245.11080911371423,"class":"TPV","lat":52.189376680851815,"mode":3}
{"ept":0.001,"eps":0.1,"epv":1.0,"lon":4.8536396891910965,"time":"2015-09-24T10:56:07.146Z","epd":0.1,"epx":1.0,"speed":10.669763385463387,"alt":0.0,"epy":1.0,"track":245.11080911371423,"class":"TPV","lat":52.189336296575554,"mode":3}
{"ept":0.001,"eps":0.1,"epv":1.0,"lon":4.853497671783696,"time":"2015-09-24T10:56:08.146Z","epd":0.1,"epx":1.0,"speed":10.669763385463387,"alt":0.0,"epy":1.0,"track":245.11080911371423,"class":"TPV","lat":52.18929591229929,"mode":3}
{"ept":0.001,"eps":0.1,"epv":1.0,"lon":4.853379210549874,"time":"2015-09-24T10:56:09.146Z","epd":0.1,"epx":1.0,"speed":10.077211386410596,"alt":0.0,"epy":1.0,"track":4.078991270171585,"class":"TPV","lat":52.1892757247132,"mode":3}
{"ept":0.001,"eps":0.1,"epv":1.0,"lon":4.853389728327972,"time":"2015-09-24T10:56:10.146Z","epd":0.1,"epx":1.0,"speed":10.077211386410596,"alt":0.0,"epy":1.0,"track":4.078991270171585,"class":"TPV","lat":52.18936612168928,"mode":3}
{"ept":0.001,"eps":0.1,"epv":1.0,"lon":4.853400246106071,"time":"2015-09-24T10:56:11.146Z","epd":0.1,"epx":1.0,"speed":10.077211386410596,"alt":0.0,"epy":1.0,"track":4.078991270171585,"class":"TPV","lat":52.18945651866536,"mode":3}
{"ept":0.001,"eps":0.1,"epv":1.0,"lon":4.8534107638841695,"time":"2015-09-24T10:56:12.146Z","epd":0.1,"epx":1.0,"speed":10.077211386410596,"alt":0.0,"epy":1.0,"track":4.078991270171585,"class":"TPV","lat":52.18954691564144,"mode":3}
{"ept":0.001,"eps":0.1,"epv":1.0,"lon":4.853421281662268,"time":"2015-09-24T10:56:13.146Z","epd":0.1,"epx":1.0,"speed":10.077211386410596,"alt":0.0,"epy":1.0,"track":4.078991270171585,"class":"TPV","lat":52.18963731261752,"mode":3}
{"ept":0.001,"eps":0.1,"epv":1.0,"lon":4.853431799440366,"time":"2015-09-24T10:56:14.146Z","epd":0.1,"epx":1.0,"speed":10.077211386410596,"alt":0.0,"epy":1.0,"track":4.078991270171585,"class":"TPV","lat":52.189727709593605,"mode":3}
{"ept":0.001,"eps":0.1,"epv":1.0,"lon":4.853442317218465,"time":"2015-09-24T10:56:15.146Z","epd":0.1,"epx":1.0,"speed":10.077211386410596,"alt":0.0,"epy":1.0,"track":4.078991270171585,"class":"TPV","lat":52.18981810656969,"mode":3}
{"ept":0.001,"eps":0.1,"epv":1.0,"lon":4.853452834996563,"time":"2015-09-24T10:56:16.146Z","epd":0.1,"epx":1.0,"speed":10.077211386410596,"alt":0.0,"epy":1.0,"track":4.078991270171585,"class":"TPV","lat":52.189908503545766,"mode":3}
{"ept":0.001,"eps":0.1,"epv":1.0,"lon":4.853463352774662,"time":"2015-09-24T10:56:17.146Z","epd":0.1,"epx":1.0,"speed":10.077211386410596,"alt":0.0,"epy":1.0,"track":4.078991270171585,"class":"TPV","lat":52.18999890052185,"mode":3}
{"ept":0.001,"eps":0.1,"epv":1.0,"lon":4.85347387055276,"time":"2015-09-24T10:56:18.146Z","epd":0.1,"epx":1.0,"speed":10.077211386410596,"alt":0.0,"epy":1.0,"track":4.078991270171585,"class":"TPV","lat":52.19008929749793,"mode":3}
{"ept":0.001,"eps":0.1,"epv":1.0,"lon":4.853484388330859,"time":"2015-09-24T10:56:19.146Z","epd":0.1,"epx":1.0,"speed":10.077211386410596,"alt":0.0,"epy":1.0,"track":4.078991270171585,"class":"TPV","lat":52.19017969447401,"mode":3}
{"ept":0.001,"eps":0.1,"epv":1.0,"lon":4.853494906108957,"time":"2015-09-24T10:56:20.146Z","epd":0.1,"epx":1.0,"speed":10.077211386410596,"alt":0.0,"epy":1.0,"track":4.078991270171585,"class":"TPV","lat":52.190270091450095,"mode":3}
{"ept":0.001,"eps":0.1,"epv":1.0,"lon":4.853505423887055,"time":"2015-09-24T10:56:21.146Z","epd":0.1,"epx":1.0,"speed":10.077211386410596,"alt":0.0,"epy":1.0,"track":4.078991270171585,"class":"TPV","lat":52.19036048842617,"mode":3}
{"ept":0.001,"eps":0.1,"epv":1.0,"lon":4.853515941665154,"time":"2015-09-24T10:56:22.146Z","epd":0.1,"epx":1.0,"speed":10.077211386410596,"alt":0.0,"epy":1.0,"track":4.078991270171585,"class":"TPV","lat":52.19045088540226,"mode":3}
{"ept":0.001,"eps":0.1,"epv":1.0,"lon":4.853526459443253,"time":"2015-09-24T10:56:23.146Z","epd":0.1,"epx":1.0,"speed":10.077211386410596,"alt":0.0,"epy":1.0,"track":4.078991270171585,"class":"TPV","lat":52.190541282378334,"mode":3}
{"ept":0.001,"eps":0.1,"epv":1.0,"lon":4.853536977221351,"time":"2015-09-24T10:56:24.147Z","epd":0.1,"epx":1.0,"speed":10.077211386410596,"alt":0.0,"epy":1.0,"track":4.078991270171585,"class":"TPV","lat":52.19063167935442,"mode":3}
{"ept":0.001,"eps":0.1,"epv":1.0,"lon":4.853547494999449,"time":"2015-09-24T10:56:25.146Z","epd":0.1,"epx":1.0,"speed":10.077211386410596,"alt":0.0,"epy":1.0,"track":4.078991270171585,"class":"TPV","lat":52.1907220763305,"mode":3}
{"ept":0.001,"eps":0.1,"epv":1.0,"lon":4.8535580127775475,"time":"2015-09-24T10:56:26.146Z","epd":0.1,"epx":1.0,"speed":10.077211386410596,"alt":0.0,"epy":1.0,"track":4.078991270171585,"class":"TPV","lat":52.19081247330658,"mode":3}
{"ept":0.001,"eps":0.1,"epv":1.0,"lon":4.853568530555647,"time":"2015-09-24T10:56:27.146Z","epd":0.1,"epx":1.0,"speed":10.077211386410596,"alt":0.0,"epy":1.0,"track":4.078991270171585,"class":"TPV","lat":52.19090287028266,"mode":3}
{"ept":0.001,"eps":0.1,"epv":1.0,"lon":4.853579048333745,"time":"2015-09-24T10:56:28.146Z","epd":0.1,"epx":1.0,"speed":10.077211386410596,"alt":0.0,"epy":1.0,"track":4.078991270171585,"class":"TPV","lat":52.19099326725874,"mode":3}
{"ept":0.001,"eps":0.1,"epv":1.0,"lon":4.853589566111843,"time":"2015-09-24T10:56:29.146Z","epd":0.1,"epx":1.0,"speed":10.077211386410596,"alt":0.0,"epy":1.0,"track":4.078991270171585,"class":"TPV","lat":52.191083664234824,"mode":3}
{"ept":0.001,"eps":0.1,"epv":1.0,"lon":4.853600083889941,"time":"2015-09-24T10:56:30.146Z","epd":0.1,"epx":1.0,"speed":10.077211386410596,"alt":0.0,"epy":1.0,"track":4.078991270171585,"class":"TPV","lat":52.19117406121091,"mode":3}
{"ept":0.001,"eps":0.1,"epv":1.0,"lon":4.8536106016680405,"time":"2015-09-24T10:56:31.146Z","epd":0.1,"epx":1.0,"speed":10.077211386410596,"alt":0.0,"epy":1.0,"track":4.078991270171585,"class":"TPV","lat":52.191264458186986,"mode":3}
{"ept":0.001,"eps":0.1,"epv":1.0,"lon":4.853621119446139,"time":"2015-09-24T10:56:32.146Z","epd":0.1,"epx":1.0,"speed":10.077211386410596,"alt":0.0,"epy":1.0,"track":4.078991270171585,"class":"TPV","lat":52.19135485516307,"mode":3}
{"ept":0.001,"eps":0.1,"epv":1.0,"lon":4.853631637224237,"time":"2015-09-24T10:56:33.146Z","epd":0.1,"epx":1.0,"speed":10.077211386410596,"alt":0.0,"epy":1.0,"track":4.078991270171585,"class":"TPV","lat":52.19144525213915,"mode":3}
{"ept":0.001,"eps":0.1,"epv":1.0,"lon":4.853642155002335,"time":"2015-09-24T10:56:34.146Z","epd":0.1,"epx":1.0,"speed":10.077211386410596,"alt":0.0,"epy":1.0,"track":4.078991270171585,"class":"TPV","lat":52.19153564911523,"mode":3}
{"ept":0.001,"eps":0.1,"epv":1.0,"lon":4.853652672780434,"time":"2015-09-24T10:56:35.146Z","epd":0.1,"epx":1.0,"speed":10.077211386410596,"alt":0.0,"epy":1.0,"track":4.078991270171585,"class":"TPV","lat":52.191626046091315,"mode":3}
{"ept":0.001,"eps":0.1,"epv":1.0,"lon":4.853663190558533,"time":"2015-09-24T10:56:36.146Z","epd":0.1,"epx":1.0,"speed":10.077211386410596,"alt":0.0,"epy":1.0,"track":4.078991270171585,"class":"TPV","lat":52.19171644306739,"mode":3}
{"ept":0.001,"eps":0.1,"epv":1.0,"lon":4.853673708336631,"time":"2015-09-24T10:56:37.147Z","epd":0.1,"epx":1.0,"speed":10.077211386410596,"alt":0.0,"epy":1.0,"track":4.078991270171585,"class":"TPV","lat":52.191806840043476,"mode":3}
{"ept":0.001,"eps":0.1,"epv":1.0,"lon":4.853684226114729,"time":"2015-09-24T10:56:38.146Z","epd":0.1,"epx":1.0,"speed":10.077211386410596,"alt":0.0,"epy":1.0,"track":4.078991270171585,"class":"TPV","lat":52.19189723701956,"mode":3}
{"ept":0.001,"eps":0.1,"epv":1.0,"lon":4.853694743892828,"time":"2015-09-24T10:56:39.146Z","epd":0.1,"epx":1.0,"speed":10.077211386410596,"alt":0.0,"epy":1.0,"track":4.078991270171585,"class":"TPV","lat":52.19198763399564,"mode":3}
{"ept":0.001,"eps":0.1,"epv":1.0,"lon":4.853705261670926,"time":"2015-09-24T10:56:40.146Z","epd":0.1,"epx":1.0,"speed":10.077211386410596,"alt":0.0,"epy":1.0,"track":4.078991270171585,"class":"TPV","lat":52.19207803097172,"mode":3}
{"ept":0.001,"eps":0.1,"epv":1.0,"lon":4.853715779449025,"time":"2015-09-24T10:56:41.146Z","epd":0.1,"epx":1.0,"speed":10.077211386410596,"alt":0.0,"epy":1.0,"track":4.078991270171585,"class":"TPV","lat":52.1921684279478,"mode":3}
{"ept":0.001,"eps":0.1,"epv":1.0,"lon":4.853726297227123,"time":"2015-09-24T10:56:42.146Z","epd":0.1,"epx":1.0,"speed":10.077211386410596,"alt":0.0,"epy":1.0,"track":4.078991270171585,"class":"TPV","lat":52.19225882492388,"mode":3}
{"ept":0.001,"eps":0.1,"epv":1.0,"lon":4.853736815005222,"time":"2015-09-24T10:56:43.146Z","epd":0.1,"epx":1.0,"speed":10.077211386410596,"alt":0.0,"epy":1.0,"track":4.078991270171585,"class":"TPV","lat":52.19234922189997,"mode":3}
{"ept":0.001,"eps":0.1,"epv":1.0,"lon":4.85374733278332,"time":"2015-09-24T10:56:44.146Z","epd":0.1,"epx":1.0,"speed":10.077211386410596,"alt":0.0,"epy":1.0,"track":4.078991270171585,"class":"TPV","lat":52.192439618876044,"mode":3}
{"ept":0.001,"eps":0.1,"epv":1.0,"lon":4.8537578505614185,"time":"2015-09-24T10:56:45.146Z","epd":0.1,"epx":1.0,"speed":10.077211386410596,"alt":0.0,"epy":1.0,"track":4.078991270171585,"class":"TPV","lat":52.19253001585213,"mode":3}
{"ept":0.001,"eps":0.1,"epv":1.0,"lon":4.853768368339517,"time":"2015-09-24T10:56:46.146Z","epd":0.1,"epx":1.0,"speed":10.077211386410596,"alt":0.0,"epy":1.0,"track":4.078991270171585,"class":"TPV","lat":52.192620412828205,"mode":3}
{"ept":0.001,"eps":0.1,"epv":1.0,"lon":4.853778886117616,"time":"2015-09-24T10:56:47.146Z","epd":0.1,"epx":1.0,"speed":10.077211386410596,"alt":0.0,"epy":1.0,"track":4.078991270171585,"class":"TPV","lat":52.19271080980429,"mode":3}
{"ept":0.001,"eps":0.1,"epv":1.0,"lon":4.853789403895714,"time":"2015-09-24T10:56:48.146Z","epd":0.1,"epx":1.0,"speed":10.077211386410596,"alt":0.0,"epy":1.0,"track":4.078991270171585,"class":"TPV","lat":52.19280120678037,"mode":3}
{"ept":0.001,"eps":0.1,"epv":1.0,"lon":4.853799921673812,"time":"2015-09-24T10:56:49.146Z","epd":0.1,"epx":1.0,"speed":10.077211386410596,"alt":0.0,"epy":1.0,"track":4.078991270171585,"class":"TPV","lat":52.19289160375645,"mode":3}
{"ept":0.001,"eps":0.1,"epv":1.0,"lon":4.853810439451911,"time":"2015-09-24T10:56:50.146Z","epd":0.1,"epx":1.0,"speed":10.077211386410596,"alt":0.0,"epy":1.0,"track":4.078991270171585,"class":"TPV","lat":52.192982000732535,"mode":3}
{"ept":0.001,"eps":0.1,"epv":1.0,"lon":4.85382095723001,"time":"2015-09-24T10:56:51.146Z","epd":0.1,"epx":1.0,"speed":10.077211386410596,"alt":0.0,"epy":1.0,"track":4.078991270171585,"class":"TPV","lat":52.19307239770861,"mode":3}
{"ept":0.001,"eps":0.1,"epv":1.0,"lon":4.853831475008108,"time":"2015-09-24T10:56:52.146Z","epd":0.1,"epx":1.0,"speed":10.077211386410596,"alt":0.0,"epy":1.0,"track":4.078991270171585,"class":"TPV","lat":52.193162794684696,"mode":3}
{"ept":0.001,"eps":0.1,"epv":1.0,"lon":4.853841992786206,"time":"2015-09-24T10:56:53.146Z","epd":0.1,"epx":1.0,"speed":10.077211386410596,"alt":0.0,"epy":1.0,"track":4.078991270171585,"class":"TPV","lat":52.19325319166078,"mode":3}
{"ept":0.001,"eps":0.1,"epv":1.0,"lon":4.8538525105643044,"time":"2015-09-24T10:56:54.146Z","epd":0.1,"epx":1.0,"speed":10.077211386410596,"alt":0.0,"epy":1.0,"track":4.078991270171585,"class":"TPV","lat":52.19334358863686,"mode":3}
{"ept":0.001,"eps":0.1,"epv":1.0,"lon":4.853863028342404,"time":"2015-09-24T10:56:55.146Z","epd":0.1,"epx":1.0,"speed":10.077211386410596,"alt":0.0,"epy":1.0,"track":4.078991270171585,"class":"TPV","lat":52.19343398561294,"mode":3}
{"ept":0.001,"eps":0.1,"epv":1.0,"lon":4.853873546120502,"time":"2015-09-24T10:56:56.146Z","epd":0.1,"epx":1.0,"speed":10.077211386410596,"alt":0.0,"epy":1.0,"track":4.078991270171585,"class":"TPV","lat":52.19352438258902,"mode":3}
{"ept":0.001,"eps":0.1,"epv":1.0,"lon":4.8538840638986,"time":"2015-09-24T10:56:57.146Z","epd":0.1,"epx":1.0,"speed":10.077211386410596,"alt":0.0,"epy":1.0,"track":4.078991270171585,"class":"TPV","lat":52.1936147795651,"mode":3}
{"ept":0.001,"eps":0.1,"epv":1.0,"lon":4.853894581676698,"time":"2015-09-24T10:56:58.146Z","epd":0.1,"epx":1.0,"speed":10.077211386410596,"alt":0.0,"epy":1.0,"track":4.078991270171585,"class":"TPV","lat":52.19370517654119,"mode":3}
{"ept":0.001,"eps":0.1,"epv":1.0,"lon":4.853905099454797,"time":"2015-09-24T10:56:59.146Z","epd":0.1,"epx":1.0,"speed":10.077211386410596,"alt":0.0,"epy":1.0,"track":4.078991270171585,"class":"TPV","lat":52.193795573517264,"mode":3}
{"ept":0.001,"eps":0.1,"epv":1.0,"lon":4.853915617232896,"time":"2015-09-24T10:57:00.146Z","epd":0.1,"epx":1.0,"speed":10.077211386410596,"alt":0.0,"epy":1.0,"track":4.078991270171585,"class":"TPV","lat":52.19388597049335,"mode":3}
{"ept":0.001,"eps":0.1,"epv":1.0,"lon":4.853926135010994,"time":"2015-09-24T10:57:01.146Z","epd":0.1,"epx":1.0,"speed":10.077211386410596,"alt":0.0,"epy":1.0,"track":4.078991270171585,"class":"TPV","lat":52.193976367469425,"mode":3}
{"ept":0.001,"eps":0.1,"epv":1.0,"lon":4.853936652789092,"time":"2015-09-24T10:57:02.146Z","epd":0.1,"epx":1.0,"speed":10.077211386410596,"alt":0.0,"epy":1.0,"track":4.078991270171585,"class":"TPV","lat":52.19406676444551,"mode":3}
{"ept":0.001,"eps":0.1,"epv":1.0,"lon":4.853947170567191,"time":"2015-09-24T10:57:03.146Z","epd":0.1,"epx":1.0,"speed":10.077211386410596,"alt":0.0,"epy":1.0,"track":4.078991270171585,"class":"TPV","lat":52.19415716142159,"mode":3}
{"ept":0.001,"eps":0.1,"epv":1.0,"lon":4.8539576883452895,"time":"2015-09-24T10:57:04.146Z","epd":0.1,"epx":1.0,"speed":10.077211386410596,"alt":0.0,"epy":1.0,"track":4.078991270171585,"class":"TPV","lat":52.19424755839767,"mode":3}
{"ept":0.001,"eps":0.1,"epv":1.0,"lon":4.853968206123388,"time":"2015-09-24T10:57:05.147Z","epd":0.1,"epx":1.0,"speed":10.077211386410596,"alt":0.0,"epy":1.0,"track":4.078991270171585,"class":"TPV","lat":52.194337955373754,"mode":3}
{"ept":0.001,"eps":0.1,"epv":1.0,"lon":4.853978723901486,"time":"2015-09-24T10:57:06.146Z","epd":0.1,"epx":1.0,"speed":10.077211386410596,"alt":0.0,"epy":1.0,"track":4.078991270171585,"class":"TPV","lat":52.19442835234983,"mode":3}
{"ept":0.001,"eps":0.1,"epv":1.0,"lon":4.853989241679585,"time":"2015-09-24T10:57:07.146Z","epd":0.1,"epx":1.0,"speed":10.077211386410596,"alt":0.0,"epy":1.0,"track":4.078991270171585,"class":"TPV","lat":52.194518749325916,"mode":3}
{"ept":0.001,"eps":0.1,"epv":1.0,"lon":4.853999759457683,"time":"2015-09-24T10:57:08.146Z","epd":0.1,"epx":1.0,"speed":10.077211386410596,"alt":0.0,"epy":1.0,"track":4.078991270171585,"class":"TPV","lat":52.194609146302,"mode":3}
{"ept":0.001,"eps":0.1,"epv":1.0,"lon":4.854010277235782,"time":"2015-09-24T10:57:09.146Z","epd":0.1,"epx":1.0,"speed":10.077211386410596,"alt":0.0,"epy":1.0,"track":4.078991270171585,"class":"TPV","lat":52.19469954327808,"mode":3}
{"ept":0.001,"eps":0.1,"epv":1.0,"lon":4.85402079501388,"time":"2015-09-24T10:57:10.146Z","epd":0.1,"epx":1.0,"speed":10.077211386410596,"alt":0.0,"epy":1.0,"track":4.078991270171585,"class":"TPV","lat":52.19478994025416,"mode":3}
{"ept":0.001,"eps":0.1,"epv":1.0,"lon":4.854031312791979,"time":"2015-09-24T10:57:11.146Z","epd":0.1,"epx":1.0,"speed":10.077211386410596,"alt":0.0,"epy":1.0,"track":4.078991270171585,"class":"TPV","lat":52.194880337230245,"mode":3}
{"ept":0.001,"eps":0.1,"epv":1.0,"lon":4.854041830570077,"time":"2015-09-24T10:57:12.146Z","epd":0.1,"epx":1.0,"speed":10.077211386410596,"alt":0.0,"epy":1.0,"track":4.078991270171585,"class":"TPV","lat":52.19497073420632,"mode":3}
{"ept":0.001,"eps":0.1,"epv":1.0,"lon":4.8540523483481754,"time":"2015-09-24T10:57:13.146Z","epd":0.1,"epx":1.0,"speed":10.077211386410596,"alt":0.0,"epy":1.0,"track":4.078991270171585,"class":"TPV","lat":52.195061131182406,"mode":3}
{"ept":0.001,"eps":0.1,"epv":1.0,"lon":4.854062866126274,"time":"2015-09-24T10:57:14.146Z","epd":0.1,"epx":1.0,"speed":10.077211386410596,"alt":0.0,"epy":1.0,"track":4.078991270171585,"class":"TPV","lat":52.19515152815848,"mode":3}
{"ept":0.001,"eps":0.1,"epv":1.0,"lon":4.854073383904373,"time":"2015-09-24T10:57:15.146Z","epd":0.1,"epx":1.0,"speed":10.077211386410596,"alt":0.0,"epy":1.0,"track":4.078991270171585,"class":"TPV","lat":52.19524192513457,"mode":3}
{"ept":0.001,"eps":0.1,"epv":1.0,"lon":4.854083901682471,"time":"2015-09-24T10:57:16.146Z","epd":0.1,"epx":1.0,"speed":10.077211386410596,"alt":0.0,"epy":1.0,"track":4.078991270171585,"class":"TPV","lat":52.19533232211065,"mode":3}
{"ept":0.001,"eps":0.1,"epv":1.0,"lon":4.854094419460569,"time":"2015-09-24T10:57:17.146Z","epd":0.1,"epx":1.0,"speed":10.077211386410596,"alt":0.0,"epy":1.0,"track":4.078991270171585,"class":"TPV","lat":52.19542271908673,"mode":3}
{"ept":0.001,"eps":0.1,"epv":1.0,"lon":4.8541049372386675,"time":"2015-09-24T10:57:18.146Z","epd":0.1,"epx":1.0,"speed":10.077211386410596,"alt":0.0,"epy":1.0,"track":4.078991270171585,"class":"TPV","lat":52.19551311606281,"mode":3}
{"ept":0.001,"eps":0.1,"epv":1.0,"lon":4.854115455016767,"time":"2015-09-24T10:57:19.147Z","epd":0.1,"epx":1.0,"speed":10.077211386410596,"alt":0.0,"epy":1.0,"track":4.078991270171585,"class":"TPV","lat":52.19560351303889,"mode":3}
{"ept":0.001,"eps":0.1,"epv":1.0,"lon":4.854125972794865,"time":"2015-09-24T10:57:20.146Z","epd":0.1,"epx":1.0,"speed":10.077211386410596,"alt":0.0,"epy":1.0,"track":4.078991270171585,"class":"TPV","lat":52.195693910014974,"mode":3}
{"ept":0.001,"eps":0.1,"epv":1.0,"lon":4.854136490572963,"time":"2015-09-24T10:57:21.146Z","epd":0.1,"epx":1.0,"speed":10.077211386410596,"alt":0.0,"epy":1.0,"track":4.078991270171585,"class":"TPV","lat":52.19578430699106,"mode":3}
{"ept":0.001,"eps":0.1,"epv":1.0,"lon":4.854147008351061,"time":"2015-09-24T10:57:22.146Z","epd":0.1,"epx":1.0,"speed":10.077211386410596,"alt":0.0,"epy":1.0,"track":4.078991270171585,"class":"TPV","lat":52.195874703967135,"mode":3}
{"ept":0.001,"eps":0.1,"epv":1.0,"lon":4.8541575261291605,"time":"2015-09-24T10:57:23.146Z","epd":0.1,"epx":1.0,"speed":10.077211386410596,"alt":0.0,"epy":1.0,"track":4.078991270171585,"class":"TPV","lat":52.19596510094322,"mode":3}
{"ept":0.001,"eps":0.1,"epv":1.0,"lon":4.854168043907259,"time":"2015-09-24T10:57:24.147Z","epd":0.1,"epx":1.0,"speed":10.077211386410596,"alt":0.0,"epy":1.0,"track":4.078991270171585,"class":"TPV","lat":52.196055497919296,"mode":3}
{"ept":0.001,"eps":0.1,"epv":1.0,"lon":4.854178561685357,"time":"2015-09-24T10:57:25.146Z","epd":0.1,"epx":1.0,"speed":10.077211386410596,"alt":0.0,"epy":1.0,"track":4.078991270171585,"class":"TPV","lat":52.19614589489538,"mode":3}
{"ept":0.001,"eps":0.1,"epv":1.0,"lon":4.854189079463455,"time":"2015-09-24T10:57:26.146Z","epd":0.1,"epx":1.0,"speed":10.077211386410596,"alt":0.0,"epy":1.0,"track":4.078991270171585,"class":"TPV","lat":52.196236291871465,"mode":3}
{"ept":0.001,"eps":0.1,"epv":1.0,"lon":4.854199597241554,"time":"2015-09-24T10:57:27.146Z","epd":0.1,"epx":1.0,"speed":10.077211386410596,"alt":0.0,"epy":1.0,"track":4.078991270171585,"class":"TPV","lat":52.19632668884754,"mode":3}
{"ept":0.001,"eps":0.1,"epv":1.0,"lon":4.854210115019653,"time":"2015-09-24T10:57:28.146Z","epd":0.1,"epx":1.0,"speed":10.077211386410596,"alt":0.0,"epy":1.0,"track":4.078991270171585,"class":"TPV","lat":52.196417085823626,"mode":3}
{"ept":0.001,"eps":0.1,"epv":1.0,"lon":4.854220632797751,"time":"2015-09-24T10:57:29.146Z","epd":0.1,"epx":1.0,"speed":10.077211386410596,"alt":0.0,"epy":1.0,"track":4.078991270171585,"class":"TPV","lat":52.1965074827997,"mode":3}
{"ept":0.001,"eps":0.1,"epv":1.0,"lon":4.854231150575849,"time":"2015-09-24T10:57:30.146Z","epd":0.1,"epx":1.0,"speed":10.077211386410596,"alt":0.0,"epy":1.0,"track":4.078991270171585,"class":"TPV","lat":52.19659787977579,"mode":3}
{"ept":0.001,"eps":0.1,"epv":1.0,"lon":4.854241668353948,"time":"2015-09-24T10:57:31.146Z","epd":0.1,"epx":1.0,"speed":10.077211386410596,"alt":0.0,"epy":1.0,"track":4.078991270171585,"class":"TPV","lat":52.19668827675187,"mode":3}
{"ept":0.001,"eps":0.1,"epv":1.0,"lon":4.854265273407569,"time":"2015-09-24T10:57:32.146Z","epd":0.1,"epx":1.0,"speed":9.708968180370336,"alt":0.0,"epy":1.0,"track":163.39668668118895,"class":"TPV","lat":52.19670321265694,"mode":3}
{"ept":0.001,"eps":0.1,"epv":1.0,"lon":4.854305980518337,"time":"2015-09-24T10:57:33.146Z","epd":0.1,"epx":1.0,"speed":9.708968180370336,"alt":0.0,"epy":1.0,"track":163.39668668118895,"class":"TPV","lat":52.19661953830914,"mode":3}
{"ept":0.001,"eps":0.1,"epv":1.0,"lon":4.854346687629105,"time":"2015-09-24T10:57:34.146Z","epd":0.1,"epx":1.0,"speed":9.708968180370336,"alt":0.0,"epy":1.0,"track":163.39668668118895,"class":"TPV","lat":52.196535863961344,"mode":3}
{"ept":0.001,"eps":0.1,"epv":1.0,"lon":4.854387394739873,"time":"2015-09-24T10:57:35.146Z","epd":0.1,"epx":1.0,"speed":9.708968180370336,"alt":0.0,"epy":1.0,"track":163.39668668118895,"class":"TPV","lat":52.19645218961354,"mode":3}
{"ept":0.001,"eps":0.1,"epv":1.0,"lon":4.854428101850641,"time":"2015-09-24T10:57:36.146Z","epd":0.1,"epx":1.0,"speed":9.708968180370336,"alt":0.0,"epy":1.0,"track":163.39668668118895,"class":"TPV","lat":52.19636851526574,"mode":3}
{"ept":0.001,"eps":0.1,"epv":1.0,"lon":4.85446880896141,"time":"2015-09-24T10:57:37.146Z","epd":0.1,"epx":1.0,"speed":9.708968180370336,"alt":0.0,"epy":1.0,"track":163.39668668118895,"class":"TPV","lat":52.19628484091794,"mode":3}
{"ept":0.001,"eps":0.1,"epv":1.0,"lon":4.854509516072177,"time":"2015-09-24T10:57:38.146Z","epd":0.1,"epx":1.0,"speed":9.708968180370336,"alt":0.0,"epy":1.0,"track":163.39668668118895,"class":"TPV","lat":52.196201166570134,"mode":3}
{"ept":0.001,"eps":0.1,"epv":1.0,"lon":4.854550223182946,"time":"2015-09-24T10:57:39.146Z","epd":0.1,"epx":1.0,"speed":9.708968180370336,"alt":0.0,"epy":1.0,"track":163.39668668118895,"class":"TPV","lat":52.196117492222335,"mode":3}
{"ept":0.001,"eps":0.1,"epv":1.0,"lon":4.854590930293713,"time":"2015-09-24T10:57:40.146Z","epd":0.1,"epx":1.0,"speed":9.708968180370336,"alt":0.0,"epy":1.0,"track":163.39668668118895,"class":"TPV","lat":52.196033817874536,"mode":3}
{"ept":0.001,"eps":0.1,"epv":1.0,"lon":4.854631637404482,"time":"2015-09-24T10:57:41.146Z","epd":0.1,"epx":1.0,"speed":9.708968180370336,"alt":0.0,"epy":1.0,"track":163.39668668118895,"class":"TPV","lat":52.19595014352674,"mode":3}
{"ept":0.001,"eps":0.1,"epv":1.0,"lon":4.85467234451525,"time":"2015-09-24T10:57:42.146Z","epd":0.1,"epx":1.0,"speed":9.708968180370336,"alt":0.0,"epy":1.0,"track":163.39668668118895,"class":"TPV","lat":52.19586646917893,"mode":3}
{"ept":0.001,"eps":0.1,"epv":1.0,"lon":4.8547130516260175,"time":"2015-09-24T10:57:43.146Z","epd":0.1,"epx":1.0,"speed":9.708968180370336,"alt":0.0,"epy":1.0,"track":163.39668668118895,"class":"TPV","lat":52.19578279483113,"mode":3}
{"ept":0.001,"eps":0.1,"epv":1.0,"lon":4.854753758736786,"time":"2015-09-24T10:57:44.146Z","epd":0.1,"epx":1.0,"speed":9.708968180370336,"alt":0.0,"epy":1.0,"track":163.39668668118895,"class":"TPV","lat":52.19569912048333,"mode":3}
{"ept":0.001,"eps":0.1,"epv":1.0,"lon":4.8547944658475535,"time":"2015-09-24T10:57:45.146Z","epd":0.1,"epx":1.0,"speed":9.708968180370336,"alt":0.0,"epy":1.0,"track":163.39668668118895,"class":"TPV","lat":52.19561544613553,"mode":3}
{"ept":0.001,"eps":0.1,"epv":1.0,"lon":4.854835172958322,"time":"2015-09-24T10:57:46.146Z","epd":0.1,"epx":1.0,"speed":9.708968180370336,"alt":0.0,"epy":1.0,"track":163.39668668118895,"class":"TPV","lat":52.19553177178773,"mode":3}
{"ept":0.001,"eps":0.1,"epv":1.0,"lon":4.85487588006909,"time":"2015-09-24T10:57:47.146Z","epd":0.1,"epx":1.0,"speed":9.708968180370336,"alt":0.0,"epy":1.0,"track":163.39668668118895,"class":"TPV","lat":52.19544809743993,"mode":3}
{"ept":0.001,"eps":0.1,"epv":1.0,"lon":4.854916587179858,"time":"2015-09-24T10:57:48.146Z","epd":0.1,"epx":1.0,"speed":9.708968180370336,"alt":0.0,"epy":1.0,"track":163.39668668118895,"class":"TPV","lat":52.19536442309213,"mode":3}
{"ept":0.001,"eps":0.1,"epv":1.0,"lon":4.854957294290626,"time":"2015-09-24T10:57:49.146Z","epd":0.1,"epx":1.0,"speed":9.708968180370336,"alt":0.0,"epy":1.0,"track":163.39668668118895,"class":"TPV","lat":52.195280748744324,"mode":3}
{"ept":0.001,"eps":0.1,"epv":1.0,"lon":4.854998001401394,"time":"2015-09-24T10:57:50.146Z","epd":0.1,"epx":1.0,"speed":9.708968180370336,"alt":0.0,"epy":1.0,"track":163.39668668118895,"class":"TPV","lat":52.195197074396525,"mode":3}
{"ept":0.001,"eps":0.1,"epv":1.0,"lon":4.855038708512162,"time":"2015-09-24T10:57:51.147Z","epd":0.1,"epx":1.0,"speed":9.708968180370336,"alt":0.0,"epy":1.0,"track":163.39668668118895,"class":"TPV","lat":52.195113400048726,"mode":3}
{"ept":0.001,"eps":0.1,"epv":1.0,"lon":4.855079415622931,"time":"2015-09-24T10:57:52.146Z","epd":0.1,"epx":1.0,"speed":9.708968180370336,"alt":0.0,"epy":1.0,"track":163.39668668118895,"class":"TPV","lat":52.19502972570092,"mode":3}
{"ept":0.001,"eps":0.1,"epv":1.0,"lon":4.855120122733698,"time":"2015-09-24T10:57:53.146Z","epd":0.1,"epx":1.0,"speed":9.708968180370336,"alt":0.0,"epy":1.0,"track":163.39668668118895,"class":"TPV","lat":52.19494605135312,"mode":3}
{"ept":0.001,"eps":0.1,"epv":1.0,"lon":4.855160829844467,"time":"2015-09-24T10:57:54.146Z","epd":0.1,"epx":1.0,"speed":9.708968180370336,"alt":0.0,"epy":1.0,"track":163.39668668118895,"class":"TPV","lat":52.19486237700532,"mode":3}
{"ept":0.001,"eps":0.1,"epv":1.0,"lon":4.855201536955234,"time":"2015-09-24T10:57:55.146Z","epd":0.1,"epx":1.0,"speed":9.708968180370336,"alt":0.0,"epy":1.0,"track":163.39668668118895,"class":"TPV","lat":52.194778702657516,"mode":3}
{"ept":0.001,"eps":0.1,"epv":1.0,"lon":4.855242244066003,"time":"2015-09-24T10:57:56.146Z","epd":0.1,"epx":1.0,"speed":9.708968180370336,"alt":0.0,"epy":1.0,"track":163.39668668118895,"class":"TPV","lat":52.19469502830972,"mode":3}
{"ept":0.001,"eps":0.1,"epv":1.0,"lon":4.855282951176771,"time":"2015-09-24T10:57:57.146Z","epd":0.1,"epx":1.0,"speed":9.708968180370336,"alt":0.0,"epy":1.0,"track":163.39668668118895,"class":"TPV","lat":52.19461135396192,"mode":3}
{"ept":0.001,"eps":0.1,"epv":1.0,"lon":4.8553236582875385,"time":"2015-09-24T10:57:58.146Z","epd":0.1,"epx":1.0,"speed":9.708968180370336,"alt":0.0,"epy":1.0,"track":163.39668668118895,"class":"TPV","lat":52.19452767961412,"mode":3}
{"ept":0.001,"eps":0.1,"epv":1.0,"lon":4.855364365398307,"time":"2015-09-24T10:57:59.146Z","epd":0.1,"epx":1.0,"speed":9.708968180370336,"alt":0.0,"epy":1.0,"track":163.39668668118895,"class":"TPV","lat":52.19444400526631,"mode":3}
{"ept":0.001,"eps":0.1,"epv":1.0,"lon":4.8554050725090745,"time":"2015-09-24T10:58:00.146Z","epd":0.1,"epx":1.0,"speed":9.708968180370336,"alt":0.0,"epy":1.0,"track":163.39668668118895,"class":"TPV","lat":52.194360330918514,"mode":3}
{"ept":0.001,"eps":0.1,"epv":1.0,"lon":4.855445779619843,"time":"2015-09-24T10:58:01.146Z","epd":0.1,"epx":1.0,"speed":9.708968180370336,"alt":0.0,"epy":1.0,"track":163.39668668118895,"class":"TPV","lat":52.194276656570715,"mode":3}
{"ept":0.001,"eps":0.1,"epv":1.0,"lon":4.855486486730611,"time":"2015-09-24T10:58:02.146Z","epd":0.1,"epx":1.0,"speed":9.708968180370336,"alt":0.0,"epy":1.0,"track":163.39668668118895,"class":"TPV","lat":52.19419298222291,"mode":3}
{"ept":0.001,"eps":0.1,"epv":1.0,"lon":4.855527193841379,"time":"2015-09-24T10:58:03.146Z","epd":0.1,"epx":1.0,"speed":9.708968180370336,"alt":0.0,"epy":1.0,"track":163.39668668118895,"class":"TPV","lat":52.19410930787511,"mode":3}
{"ept":0.001,"eps":0.1,"epv":1.0,"lon":4.855567900952147,"time":"2015-09-24T10:58:04.146Z","epd":0.1,"epx":1.0,"speed":9.708968180370336,"alt":0.0,"epy":1.0,"track":163.39668668118895,"class":"TPV","lat":52.19402563352731,"mode":3}
{"ept":0.001,"eps":0.1,"epv":1.0,"lon":4.855608608062915,"time":"2015-09-24T10:58:05.147Z","epd":0.1,"epx":1.0,"speed":9.708968180370336,"alt":0.0,"epy":1.0,"track":163.39668668118895,"class":"TPV","lat":52.19394195917951,"mode":3}
{"ept":0.001,"eps":0.1,"epv":1.0,"lon":4.855637360657101,"time":"2015-09-24T10:58:06.147Z","epd":0.1,"epx":1.0,"speed":9.833519057185642,"alt":0.0,"epy":1.0,"track":214.14455096478432,"class":"TPV","lat":52.193859314669986,"mode":3}
{"ept":0.001,"eps":0.1,"epv":1.0,"lon":4.855556374456985,"time":"2015-09-24T10:58:07.146Z","epd":0.1,"epx":1.0,"speed":9.833519057185642,"alt":0.0,"epy":1.0,"track":214.14455096478432,"class":"TPV","lat":52.19378612375984,"mode":3}
{"ept":0.001,"eps":0.1,"epv":1.0,"lon":4.855475388256869,"time":"2015-09-24T10:58:08.146Z","epd":0.1,"epx":1.0,"speed":9.833519057185642,"alt":0.0,"epy":1.0,"track":214.14455096478432,"class":"TPV","lat":52.19371293284971,"mode":3}
{"ept":0.001,"eps":0.1,"epv":1.0,"lon":4.855394402056753,"time":"2015-09-24T10:58:09.146Z","epd":0.1,"epx":1.0,"speed":9.833519057185642,"alt":0.0,"epy":1.0,"track":214.14455096478432,"class":"TPV","lat":52.19363974193957,"mode":3}
{"ept":0.001,"eps":0.1,"epv":1.0,"lon":4.855313415856636,"time":"2015-09-24T10:58:10.146Z","epd":0.1,"epx":1.0,"speed":9.833519057185642,"alt":0.0,"epy":1.0,"track":214.14455096478432,"class":"TPV","lat":52.193566551029434,"mode":3}
{"ept":0.001,"eps":0.1,"epv":1.0,"lon":4.85523242965652,"time":"2015-09-24T10:58:11.146Z","epd":0.1,"epx":1.0,"speed":9.833519057185642,"alt":0.0,"epy":1.0,"track":214.14455096478432,"class":"TPV","lat":52.1934933601193,"mode":3}
{"ept":0.001,"eps":0.1,"epv":1.0,"lon":4.855151443456403,"time":"2015-09-24T10:58:12.146Z","epd":0.1,"epx":1.0,"speed":9.833519057185642,"alt":0.0,"epy":1.0,"track":214.14455096478432,"class":"TPV","lat":52.193420169209155,"mode":3}
{"ept":0.001,"eps":0.1,"epv":1.0,"lon":4.8550704572562875,"time":"2015-09-24T10:58:13.146Z","epd":0.1,"epx":1.0,"speed":9.833519057185642,"alt":0.0,"epy":1.0,"track":214.14455096478432,"class":"TPV","lat":52.19334697829902,"mode":3}
{"ept":0.001,"eps":0.1,"epv":1.0,"lon":4.854989471056171,"time":"2015-09-24T10:58:14.146Z","epd":0.1,"epx":1.0,"speed":9.833519057185642,"alt":0.0,"epy":1.0,"track":214.14455096478432,"class":"TPV","lat":52.19327378738888,"mode":3}
{"ept":0.001,"eps":0.1,"epv":1.0,"lon":4.854908484856055,"time":"2015-09-24T10:58:15.146Z","epd":0.1,"epx":1.0,"speed":9.833519057185642,"alt":0.0,"epy":1.0,"track":214.14455096478432,"class":"TPV","lat":52.193200596478746,"mode":3}
{"ept":0.001,"eps":0.1,"epv":1.0,"lon":4.854827498655938,"time":"2015-09-24T10:58:16.147Z","epd":0.1,"epx":1.0,"speed":9.833519057185642,"alt":0.0,"epy":1.0,"track":214.14455096478432,"class":"TPV","lat":52.1931274055686,"mode":3}
