{"class":"VERSION","release":"3.6","rev":"3.6","proto_major":3,"proto_minor":7}
{"class":"DEVICES","devices":[{"class":"DEVICE","path":"gpsd://192.168.50.240:61000","activated":"2015-09-24T10:53:35.737Z","driver":"JSON slave driver"}]}
{"class":"WATCH","enable":true,"json":true,"nmea":false,"raw":0,"scaled":false,"timing":false}
{"ept":0.001,"eps":0.1,"epv":1.0,"lon":4.858097789630854,"time":"2015-09-24T10:54:02.146Z","epd":0.1,"epx":1.0,"speed":10.7633294947584,"alt":0.0,"epy":1.0,"track":346.5886982580135,"class":"TPV","lat":52.173187484258,"mode":3}
{"ept":0.001,"eps":0.1,"epv":1.0,"lon":4.8580611591780585,"time":"2015-09-24T10:54:03.146Z","epd":0.1,"epx":1.0,"speed":10.7633294947584,"alt":0.0,"epy":1.0,"track":346.5886982580135,"class":"TPV","lat":52.17328164156707,"mode":3}
{"ept":0.001,"eps":0.1,"epv":1.0,"lon":4.858024528725263,"time":"2015-09-24T10:54:04.146Z","epd":0.1,"epx":1.0,"speed":10.7633294947584,"alt":0.0,"epy":1.0,"track":346.5886982580135,"class":"TPV","lat":52.173375798876144,"mode":3}
{"ept":0.001,"eps":0.1,"epv":1.0,"lon":4.857987898272467,"time":"2015-09-24T10:54:05.146Z","epd":0.1,"epx":1.0,"speed":10.7633294947584,"alt":0.0,"epy":1.0,"track":346.5886982580135,"class":"TPV","lat":52.173469956185215,"mode":3}
{"ept":0.001,"eps":0.1,"epv":1.0,"lon":4.857951267819671,"time":"2015-09-24T10:54:06.146Z","epd":0.1,"epx":1.0,"speed":10.7633294947584,"alt":0.0,"epy":1.0,"track":346.5886982580135,"class":"TPV","lat":52.17356411349429,"mode":3}
{"ept":0.001,"eps":0.1,"epv":1.0,"lon":4.857914637366876,"time":"2015-09-24T10:54:07.146Z","epd":0.1,"epx":1.0,"speed":10.7633294947584,"alt":0.0,"epy":1.0,"track":346.5886982580135,"class":"TPV","lat":52.17365827080336,"mode":3}
{"ept":0.001,"eps":0.1,"epv":1.0,"lon":4.85787800691408,"time":"2015-09-24T10:54:08.146Z","epd":0.1,"epx":1.0,"speed":10.7633294947584,"alt":0.0,"epy":1.0,"track":346.5886982580135,"class":"TPV","lat":52.17375242811243,"mode":3}
{"ept":0.001,"eps":0.1,"epv":1.0,"lon":4.857841376461285,"time":"2015-09-24T10:54:09.146Z","epd":0.1,"epx":1.0,"speed":10.7633294947584,"alt":0.0,"epy":1.0,"track":346.5886982580135,"class":"TPV","lat":52.1738465854215,"mode":3}
{"ept":0.001,"eps":0.1,"epv":1.0,"lon":4.8578047460084886,"time":"2015-09-24T10:54:10.146Z","epd":0.1,"epx":1.0,"speed":10.7633294947584,"alt":0.0,"epy":1.0,"track":346.5886982580135,"class":"TPV","lat":52.17394074273057,"mode":3}
{"ept":0.001,"eps":0.1,"epv":1.0,"lon":4.857768115555693,"time":"2015-09-24T10:54:11.146Z","epd":0.1,"epx":1.0,"speed":10.7633294947584,"alt":0.0,"epy":1.0,"track":346.5886982580135,"class":"TPV","lat":52.17403490003964,"mode":3}
{"ept":0.001,"eps":0.1,"epv":1.0,"lon":4.857731485102898,"time":"2015-09-24T10:54:12.146Z","epd":0.1,"epx":1.0,"speed":10.7633294947584,"alt":0.0,"epy":1.0,"track":346.5886982580135,"class":"TPV","lat":52.174129057348715,"mode":3}
{"ept":0.001,"eps":0.1,"epv":1.0,"lon":4.857694854650102,"time":"2015-09-24T10:54:13.146Z","epd":0.1,"epx":1.0,"speed":10.7633294947584,"alt":0.0,"epy":1.0,"track":346.5886982580135,"class":"TPV","lat":52.174223214657786,"mode":3}
{"ept":0.001,"eps":0.1,"epv":1.0,"lon":4.857658224197307,"time":"2015-09-24T10:54:14.146Z","epd":0.1,"epx":1.0,"speed":10.7633294947584,"alt":0.0,"epy":1.0,"track":346.5886982580135,"class":"TPV","lat":52.17431737196686,"mode":3}
{"ept":0.001,"eps":0.1,"epv":1.0,"lon":4.85762159374451,"time":"2015-09-24T10:54:15.146Z","epd":0.1,"epx":1.0,"speed":10.7633294947584,"alt":0.0,"epy":1.0,"track":346.5886982580135,"class":"TPV","lat":52.17441152927593,"mode":3}
{"ept":0.001,"eps":0.1,"epv":1.0,"lon":4.857584963291715,"time":"2015-09-24T10:54:16.146Z","epd":0.1,"epx":1.0,"speed":10.7633294947584,"alt":0.0,"epy":1.0,"track":346.5886982580135,"class":"TPV","lat":52.174505686585,"mode":3}
{"ept":0.001,"eps":0.1,"epv":1.0,"lon":4.8575483328389195,"time":"2015-09-24T10:54:17.146Z","epd":0.1,"epx":1.0,"speed":10.7633294947584,"alt":0.0,"epy":1.0,"track":346.5886982580135,"class":"TPV","lat":52.17459984389407,"mode":3}
{"ept":0.001,"eps":0.1,"epv":1.0,"lon":4.857511702386124,"time":"2015-09-24T10:54:18.146Z","epd":0.1,"epx":1.0,"speed":10.7633294947584,"alt":0.0,"epy":1.0,"track":346.5886982580135,"class":"TPV","lat":52.17469400120314,"mode":3}
{"ept":0.001,"eps":0.1,"epv":1.0,"lon":4.857475071933329,"time":"2015-09-24T10:54:19.146Z","epd":0.1,"epx":1.0,"speed":10.7633294947584,"alt":0.0,"epy":1.0,"track":346.5886982580135,"class":"TPV","lat":52.174788158512214,"mode":3}
{"ept":0.001,"eps":0.1,"epv":1.0,"lon":4.857438441480532,"time":"2015-09-24T10:54:20.146Z","epd":0.1,"epx":1.0,"speed":10.7633294947584,"alt":0.0,"epy":1.0,"track":346.5886982580135,"class":"TPV","lat":52.174882315821286,"mode":3}
{"ept":0.001,"eps":0.1,"epv":1.0,"lon":4.857401811027737,"time":"2015-09-24T10:54:21.146Z","epd":0.1,"epx":1.0,"speed":10.7633294947584,"alt":0.0,"epy":1.0,"track":346.5886982580135,"class":"TPV","lat":52.17497647313036,"mode":3}
{"ept":0.001,"eps":0.1,"epv":1.0,"lon":4.857365180574941,"time":"2015-09-24T10:54:22.146Z","epd":0.1,"epx":1.0,"speed":10.7633294947584,"alt":0.0,"epy":1.0,"track":346.5886982580135,"class":"TPV","lat":52.17507063043943,"mode":3}
{"ept":0.001,"eps":0.1,"epv":1.0,"lon":4.857328550122146,"time":"2015-09-24T10:54:23.146Z","epd":0.1,"epx":1.0,"speed":10.7633294947584,"alt":0.0,"epy":1.0,"track":346.5886982580135,"class":"TPV","lat":52.1751647877485,"mode":3}
{"ept":0.001,"eps":0.1,"epv":1.0,"lon":4.8572919196693505,"time":"2015-09-24T10:54:24.146Z","epd":0.1,"epx":1.0,"speed":10.7633294947584,"alt":0.0,"epy":1.0,"track":346.5886982580135,"class":"TPV","lat":52.17525894505757,"mode":3}
{"ept":0.001,"eps":0.1,"epv":1.0,"lon":4.857255289216554,"time":"2015-09-24T10:54:25.146Z","epd":0.1,"epx":1.0,"speed":10.7633294947584,"alt":0.0,"epy":1.0,"track":346.5886982580135,"class":"TPV","lat":52.17535310236664,"mode":3}
{"ept":0.001,"eps":0.1,"epv":1.0,"lon":4.857218658763759,"time":"2015-09-24T10:54:26.146Z","epd":0.1,"epx":1.0,"speed":10.7633294947584,"alt":0.0,"epy":1.0,"track":346.5886982580135,"class":"TPV","lat":52.175447259675714,"mode":3}
{"ept":0.001,"eps":0.1,"epv":1.0,"lon":4.857182028310963,"time":"2015-09-24T10:54:27.146Z","epd":0.1,"epx":1.0,"speed":10.7633294947584,"alt":0.0,"epy":1.0,"track":346.5886982580135,"class":"TPV","lat":52.175541416984785,"mode":3}
{"ept":0.001,"eps":0.1,"epv":1.0,"lon":4.857145397858168,"time":"2015-09-24T10:54:28.146Z","epd":0.1,"epx":1.0,"speed":10.7633294947584,"alt":0.0,"epy":1.0,"track":346.5886982580135,"class":"TPV","lat":52.17563557429386,"mode":3}
{"ept":0.001,"eps":0.1,"epv":1.0,"lon":4.857108767405372,"time":"2015-09-24T10:54:29.146Z","epd":0.1,"epx":1.0,"speed":10.7633294947584,"alt":0.0,"epy":1.0,"track":346.5886982580135,"class":"TPV","lat":52.17572973160293,"mode":3}
{"ept":0.001,"eps":0.1,"epv":1.0,"lon":4.857072136952576,"time":"2015-09-24T10:54:30.146Z","epd":0.1,"epx":1.0,"speed":10.7633294947584,"alt":0.0,"epy":1.0,"track":346.5886982580135,"class":"TPV","lat":52.175823888912,"mode":3}
{"ept":0.001,"eps":0.1,"epv":1.0,"lon":4.8570355064997806,"time":"2015-09-24T10:54:31.146Z","epd":0.1,"epx":1.0,"speed":10.7633294947584,"alt":0.0,"epy":1.0,"track":346.5886982580135,"class":"TPV","lat":52.17591804622107,"mode":3}
{"ept":0.001,"eps":0.1,"epv":1.0,"lon":4.856998876046985,"time":"2015-09-24T10:54:32.146Z","epd":0.1,"epx":1.0,"speed":10.7633294947584,"alt":0.0,"epy":1.0,"track":346.5886982580135,"class":"TPV","lat":52.17601220353014,"mode":3}
{"ept":0.001,"eps":0.1,"epv":1.0,"lon":4.85696224559419,"time":"2015-09-24T10:54:33.146Z","epd":0.1,"epx":1.0,"speed":10.7633294947584,"alt":0.0,"epy":1.0,"track":346.5886982580135,"class":"TPV","lat":52.17610636083921,"mode":3}
{"ept":0.001,"eps":0.1,"epv":1.0,"lon":4.856925615141393,"time":"2015-09-24T10:54:34.146Z","epd":0.1,"epx":1.0,"speed":10.7633294947584,"alt":0.0,"epy":1.0,"track":346.5886982580135,"class":"TPV","lat":52.17620051814829,"mode":3}
{"ept":0.001,"eps":0.1,"epv":1.0,"lon":4.856888984688598,"time":"2015-09-24T10:54:35.146Z","epd":0.1,"epx":1.0,"speed":10.7633294947584,"alt":0.0,"epy":1.0,"track":346.5886982580135,"class":"TPV","lat":52.17629467545736,"mode":3}
{"ept":0.001,"eps":0.1,"epv":1.0,"lon":4.856852354235802,"time":"2015-09-24T10:54:36.146Z","epd":0.1,"epx":1.0,"speed":10.7633294947584,"alt":0.0,"epy":1.0,"track":346.5886982580135,"class":"TPV","lat":52.176388832766435,"mode":3}
{"ept":0.001,"eps":0.1,"epv":1.0,"lon":4.856815723783007,"time":"2015-09-24T10:54:37.146Z","epd":0.1,"epx":1.0,"speed":10.7633294947584,"alt":0.0,"epy":1.0,"track":346.5886982580135,"class":"TPV","lat":52.176482990075506,"mode":3}
{"ept":0.001,"eps":0.1,"epv":1.0,"lon":4.8567790933302115,"time":"2015-09-24T10:54:38.146Z","epd":0.1,"epx":1.0,"speed":10.7633294947584,"alt":0.0,"epy":1.0,"track":346.5886982580135,"class":"TPV","lat":52.17657714738458,"mode":3}
{"ept":0.001,"eps":0.1,"epv":1.0,"lon":4.856742462877415,"time":"2015-09-24T10:54:39.146Z","epd":0.1,"epx":1.0,"speed":10.7633294947584,"alt":0.0,"epy":1.0,"track":346.5886982580135,"class":"TPV","lat":52.17667130469365,"mode":3}
{"ept":0.001,"eps":0.1,"epv":1.0,"lon":4.85670583242462,"time":"2015-09-24T10:54:40.146Z","epd":0.1,"epx":1.0,"speed":10.7633294947584,"alt":0.0,"epy":1.0,"track":346.5886982580135,"class":"TPV","lat":52.17676546200272,"mode":3}
{"ept":0.001,"eps":0.1,"epv":1.0,"lon":4.856669201971824,"time":"2015-09-24T10:54:41.146Z","epd":0.1,"epx":1.0,"speed":10.7633294947584,"alt":0.0,"epy":1.0,"track":346.5886982580135,"class":"TPV","lat":52.17685961931179,"mode":3}
{"ept":0.001,"eps":0.1,"epv":1.0,"lon":4.856632571519029,"time":"2015-09-24T10:54:42.146Z","epd":0.1,"epx":1.0,"speed":10.7633294947584,"alt":0.0,"epy":1.0,"track":346.5886982580135,"class":"TPV","lat":52.17695377662086,"mode":3}
{"ept":0.001,"eps":0.1,"epv":1.0,"lon":4.856595941066233,"time":"2015-09-24T10:54:43.146Z","epd":0.1,"epx":1.0,"speed":10.7633294947584,"alt":0.0,"epy":1.0,"track":346.5886982580135,"class":"TPV","lat":52.177047933929934,"mode":3}
{"ept":0.001,"eps":0.1,"epv":1.0,"lon":4.856559310613437,"time":"2015-09-24T10:54:44.146Z","epd":0.1,"epx":1.0,"speed":10.7633294947584,"alt":0.0,"epy":1.0,"track":346.5886982580135,"class":"TPV","lat":52.177142091239006,"mode":3}
{"ept":0.001,"eps":0.1,"epv":1.0,"lon":4.856522680160642,"time":"2015-09-24T10:54:45.146Z","epd":0.1,"epx":1.0,"speed":10.7633294947584,"alt":0.0,"epy":1.0,"track":346.5886982580135,"class":"TPV","lat":52.17723624854808,"mode":3}
{"ept":0.001,"eps":0.1,"epv":1.0,"lon":4.856486049707846,"time":"2015-09-24T10:54:46.146Z","epd":0.1,"epx":1.0,"speed":10.7633294947584,"alt":0.0,"epy":1.0,"track":346.5886982580135,"class":"TPV","lat":52.17733040585715,"mode":3}
{"ept":0.001,"eps":0.1,"epv":1.0,"lon":4.856449419255051,"time":"2015-09-24T10:54:47.146Z","epd":0.1,"epx":1.0,"speed":10.7633294947584,"alt":0.0,"epy":1.0,"track":346.5886982580135,"class":"TPV","lat":52.17742456316622,"mode":3}
{"ept":0.001,"eps":0.1,"epv":1.0,"lon":4.856412788802255,"time":"2015-09-24T10:54:48.146Z","epd":0.1,"epx":1.0,"speed":10.7633294947584,"alt":0.0,"epy":1.0,"track":346.5886982580135,"class":"TPV","lat":52.17751872047529,"mode":3}
{"ept":0.001,"eps":0.1,"epv":1.0,"lon":4.856376158349459,"time":"2015-09-24T10:54:49.146Z","epd":0.1,"epx":1.0,"speed":10.7633294947584,"alt":0.0,"epy":1.0,"track":346.5886982580135,"class":"TPV","lat":52.17761287778436,"mode":3}
{"ept":0.001,"eps":0.1,"epv":1.0,"lon":4.8563395278966635,"time":"2015-09-24T10:54:50.146Z","epd":0.1,"epx":1.0,"speed":10.7633294947584,"alt":0.0,"epy":1.0,"track":346.5886982580135,"class":"TPV","lat":52.177707035093434,"mode":3}
{"ept":0.001,"eps":0.1,"epv":1.0,"lon":4.856302897443868,"time":"2015-09-24T10:54:51.146Z","epd":0.1,"epx":1.0,"speed":10.7633294947584,"alt":0.0,"epy":1.0,"track":346.5886982580135,"class":"TPV","lat":52.177801192402505,"mode":3}
{"ept":0.001,"eps":0.1,"epv":1.0,"lon":4.8562662669910726,"time":"2015-09-24T10:54:52.146Z","epd":0.1,"epx":1.0,"speed":10.7633294947584,"alt":0.0,"epy":1.0,"track":346.5886982580135,"class":"TPV","lat":52.17789534971158,"mode":3}
{"ept":0.001,"eps":0.1,"epv":1.0,"lon":4.856229636538277,"time":"2015-09-24T10:54:53.146Z","epd":0.1,"epx":1.0,"speed":10.7633294947584,"alt":0.0,"epy":1.0,"track":346.5886982580135,"class":"TPV","lat":52.17798950702065,"mode":3}
{"ept":0.001,"eps":0.1,"epv":1.0,"lon":4.856193006085481,"time":"2015-09-24T10:54:54.146Z","epd":0.1,"epx":1.0,"speed":10.7633294947584,"alt":0.0,"epy":1.0,"track":346.5886982580135,"class":"TPV","lat":52.17808366432972,"mode":3}
{"ept":0.001,"eps":0.1,"epv":1.0,"lon":4.856156375632685,"time":"2015-09-24T10:54:55.146Z","epd":0.1,"epx":1.0,"speed":10.7633294947584,"alt":0.0,"epy":1.0,"track":346.5886982580135,"class":"TPV","lat":52.17817782163879,"mode":3}
{"ept":0.001,"eps":0.1,"epv":1.0,"lon":4.85611974517989,"time":"2015-09-24T10:54:56.146Z","epd":0.1,"epx":1.0,"speed":10.7633294947584,"alt":0.0,"epy":1.0,"track":346.5886982580135,"class":"TPV","lat":52.17827197894786,"mode":3}
{"ept":0.001,"eps":0.1,"epv":1.0,"lon":4.856083114727094,"time":"2015-09-24T10:54:57.146Z","epd":0.1,"epx":1.0,"speed":10.7633294947584,"alt":0.0,"epy":1.0,"track":346.5886982580135,"class":"TPV","lat":52.17836613625693,"mode":3}
{"ept":0.001,"eps":0.1,"epv":1.0,"lon":4.856046484274299,"time":"2015-09-24T10:54:58.146Z","epd":0.1,"epx":1.0,"speed":10.7633294947584,"alt":0.0,"epy":1.0,"track":346.5886982580135,"class":"TPV","lat":52.178460293566005,"mode":3}
{"ept":0.001,"eps":0.1,"epv":1.0,"lon":4.856009853821503,"time":"2015-09-24T10:54:59.146Z","epd":0.1,"epx":1.0,"speed":10.7633294947584,"alt":0.0,"epy":1.0,"track":346.5886982580135,"class":"TPV","lat":52.178554450875076,"mode":3}
{"ept":0.001,"eps":0.1,"epv":1.0,"lon":4.855973223368707,"time":"2015-09-24T10:55:00.146Z","epd":0.1,"epx":1.0,"speed":10.7633294947584,"alt":0.0,"epy":1.0,"track":346.5886982580135,"class":"TPV","lat":52.17864860818415,"mode":3}
{"ept":0.001,"eps":0.1,"epv":1.0,"lon":4.855936592915912,"time":"2015-09-24T10:55:01.146Z","epd":0.1,"epx":1.0,"speed":10.7633294947584,"alt":0.0,"epy":1.0,"track":346.5886982580135,"class":"TPV","lat":52.17874276549322,"mode":3}
{"ept":0.001,"eps":0.1,"epv":1.0,"lon":4.855899962463116,"time":"2015-09-24T10:55:02.146Z","epd":0.1,"epx":1.0,"speed":10.7633294947584,"alt":0.0,"epy":1.0,"track":346.5886982580135,"class":"TPV","lat":52.17883692280229,"mode":3}
{"ept":0.001,"eps":0.1,"epv":1.0,"lon":4.85586333201032,"time":"2015-09-24T10:55:03.146Z","epd":0.1,"epx":1.0,"speed":10.7633294947584,"alt":0.0,"epy":1.0,"track":346.5886982580135,"class":"TPV","lat":52.17893108011136,"mode":3}
{"ept":0.001,"eps":0.1,"epv":1.0,"lon":4.8558267015575245,"time":"2015-09-24T10:55:04.146Z","epd":0.1,"epx":1.0,"speed":10.7633294947584,"alt":0.0,"epy":1.0,"track":346.5886982580135,"class":"TPV","lat":52.17902523742043,"mode":3}
{"ept":0.001,"eps":0.1,"epv":1.0,"lon":4.855790071104729,"time":"2015-09-24T10:55:05.146Z","epd":0.1,"epx":1.0,"speed":10.7633294947584,"alt":0.0,"epy":1.0,"track":346.5886982580135,"class":"TPV","lat":52.179119394729504,"mode":3}
{"ept":0.001,"eps":0.1,"epv":1.0,"lon":4.855753440651934,"time":"2015-09-24T10:55:06.146Z","epd":0.1,"epx":1.0,"speed":10.7633294947584,"alt":0.0,"epy":1.0,"track":346.5886982580135,"class":"TPV","lat":52.179213552038576,"mode":3}
{"ept":0.001,"eps":0.1,"epv":1.0,"lon":4.855716810199138,"time":"2015-09-24T10:55:07.146Z","epd":0.1,"epx":1.0,"speed":10.7633294947584,"alt":0.0,"epy":1.0,"track":346.5886982580135,"class":"TPV","lat":52.17930770934765,"mode":3}
{"ept":0.001,"eps":0.1,"epv":1.0,"lon":4.855680179746342,"time":"2015-09-24T10:55:08.146Z","epd":0.1,"epx":1.0,"speed":10.7633294947584,"alt":0.0,"epy":1.0,"track":346.5886982580135,"class":"TPV","lat":52.17940186665672,"mode":3}
{"ept":0.001,"eps":0.1,"epv":1.0,"lon":4.855643549293546,"time":"2015-09-24T10:55:09.146Z","epd":0.1,"epx":1.0,"speed":10.7633294947584,"alt":0.0,"epy":1.0,"track":346.5886982580135,"class":"TPV","lat":52.17949602396579,"mode":3}
{"ept":0.001,"eps":0.1,"epv":1.0,"lon":4.855606918840751,"time":"2015-09-24T10:55:10.146Z","epd":0.1,"epx":1.0,"speed":10.7633294947584,"alt":0.0,"epy":1.0,"track":346.5886982580135,"class":"TPV","lat":52.17959018127486,"mode":3}
{"ept":0.001,"eps":0.1,"epv":1.0,"lon":4.8555702883879555,"time":"2015-09-24T10:55:11.146Z","epd":0.1,"epx":1.0,"speed":10.7633294947584,"alt":0.0,"epy":1.0,"track":346.5886982580135,"class":"TPV","lat":52.17968433858393,"mode":3}
{"ept":0.001,"eps":0.1,"epv":1.0,"lon":4.85553365793516,"time":"2015-09-24T10:55:12.146Z","epd":0.1,"epx":1.0,"speed":10.7633294947584,"alt":0.0,"epy":1.0,"track":346.5886982580135,"class":"TPV","lat":52.179778495893004,"mode":3}
{"ept":0.001,"eps":0.1,"epv":1.0,"lon":4.855497027482364,"time":"2015-09-24T10:55:13.146Z","epd":0.1,"epx":1.0,"speed":10.7633294947584,"alt":0.0,"epy":1.0,"track":346.5886982580135,"class":"TPV","lat":52.179872653202075,"mode":3}
{"ept":0.001,"eps":0.1,"epv":1.0,"lon":4.855460397029568,"time":"2015-09-24T10:55:14.146Z","epd":0.1,"epx":1.0,"speed":10.7633294947584,"alt":0.0,"epy":1.0,"track":346.5886982580135,"class":"TPV","lat":52.17996681051115,"mode":3}
{"ept":0.001,"eps":0.1,"epv":1.0,"lon":4.855423766576773,"time":"2015-09-24T10:55:15.146Z","epd":0.1,"epx":1.0,"speed":10.7633294947584,"alt":0.0,"epy":1.0,"track":346.5886982580135,"class":"TPV","lat":52.18006096782022,"mode":3}
{"ept":0.001,"eps":0.1,"epv":1.0,"lon":4.855387136123977,"time":"2015-09-24T10:55:16.146Z","epd":0.1,"epx":1.0,"speed":10.7633294947584,"alt":0.0,"epy":1.0,"track":346.5886982580135,"class":"TPV","lat":52.18015512512929,"mode":3}
{"ept":0.001,"eps":0.1,"epv":1.0,"lon":4.855350505671182,"time":"2015-09-24T10:55:17.146Z","epd":0.1,"epx":1.0,"speed":10.7633294947584,"alt":0.0,"epy":1.0,"track":346.5886982580135,"class":"TPV","lat":52.18024928243836,"mode":3}
{"ept":0.001,"eps":0.1,"epv":1.0,"lon":4.8553138752183855,"time":"2015-09-24T10:55:18.146Z","epd":0.1,"epx":1.0,"speed":10.7633294947584,"alt":0.0,"epy":1.0,"track":346.5886982580135,"class":"TPV","lat":52.18034343974744,"mode":3}
{"ept":0.001,"eps":0.1,"epv":1.0,"lon":4.85527724476559,"time":"2015-09-24T10:55:19.146Z","epd":0.1,"epx":1.0,"speed":10.7633294947584,"alt":0.0,"epy":1.0,"track":346.5886982580135,"class":"TPV","lat":52.18043759705651,"mode":3}
{"ept":0.001,"eps":0.1,"epv":1.0,"lon":4.855240614312795,"time":"2015-09-24T10:55:20.146Z","epd":0.1,"epx":1.0,"speed":10.7633294947584,"alt":0.0,"epy":1.0,"track":346.5886982580135,"class":"TPV","lat":52.18053175436558,"mode":3}
{"ept":0.001,"eps":0.1,"epv":1.0,"lon":4.855203983859999,"time":"2015-09-24T10:55:21.146Z","epd":0.1,"epx":1.0,"speed":10.7633294947584,"alt":0.0,"epy":1.0,"track":346.5886982580135,"class":"TPV","lat":52.18062591167465,"mode":3}
{"ept":0.001,"eps":0.1,"epv":1.0,"lon":4.855167353407204,"time":"2015-09-24T10:55:22.146Z","epd":0.1,"epx":1.0,"speed":10.7633294947584,"alt":0.0,"epy":1.0,"track":346.5886982580135,"class":"TPV","lat":52.180720068983725,"mode":3}
{"ept":0.001,"eps":0.1,"epv":1.0,"lon":4.855130722954407,"time":"2015-09-24T10:55:23.146Z","epd":0.1,"epx":1.0,"speed":10.7633294947584,"alt":0.0,"epy":1.0,"track":346.5886982580135,"class":"TPV","lat":52.180814226292796,"mode":3}
{"ept":0.001,"eps":0.1,"epv":1.0,"lon":4.855094092501612,"time":"2015-09-24T10:55:24.146Z","epd":0.1,"epx":1.0,"speed":10.7633294947584,"alt":0.0,"epy":1.0,"track":346.5886982580135,"class":"TPV","lat":52.18090838360187,"mode":3}
{"ept":0.001,"eps":0.1,"epv":1.0,"lon":4.8550574620488165,"time":"2015-09-24T10:55:25.146Z","epd":0.1,"epx":1.0,"speed":10.7633294947584,"alt":0.0,"epy":1.0,"track":346.5886982580135,"class":"TPV","lat":52.18100254091094,"mode":3}
{"ept":0.001,"eps":0.1,"epv":1.0,"lon":4.855020831596021,"time":"2015-09-24T10:55:26.146Z","epd":0.1,"epx":1.0,"speed":10.7633294947584,"alt":0.0,"epy":1.0,"track":346.5886982580135,"class":"TPV","lat":52.18109669822001,"mode":3}
{"ept":0.001,"eps":0.1,"epv":1.0,"lon":4.854984201143226,"time":"2015-09-24T10:55:27.146Z","epd":0.1,"epx":1.0,"speed":10.7633294947584,"alt":0.0,"epy":1.0,"track":346.5886982580135,"class":"TPV","lat":52.18119085552908,"mode":3}
{"ept":0.001,"eps":0.1,"epv":1.0,"lon":4.854947570690429,"time":"2015-09-24T10:55:28.146Z","epd":0.1,"epx":1.0,"speed":10.7633294947584,"alt":0.0,"epy":1.0,"track":346.5886982580135,"class":"TPV","lat":52.18128501283815,"mode":3}
{"ept":0.001,"eps":0.1,"epv":1.0,"lon":4.854910940237634,"time":"2015-09-24T10:55:29.146Z","epd":0.1,"epx":1.0,"speed":10.7633294947584,"alt":0.0,"epy":1.0,"track":346.5886982580135,"class":"TPV","lat":52.181379170147224,"mode":3}
{"ept":0.001,"eps":0.1,"epv":1.0,"lon":4.854874309784838,"time":"2015-09-24T10:55:30.146Z","epd":0.1,"epx":1.0,"speed":10.7633294947584,"alt":0.0,"epy":1.0,"track":346.5886982580135,"class":"TPV","lat":52.181473327456295,"mode":3}
{"ept":0.001,"eps":0.1,"epv":1.0,"lon":4.854837679332043,"time":"2015-09-24T10:55:31.146Z","epd":0.1,"epx":1.0,"speed":10.7633294947584,"alt":0.0,"epy":1.0,"track":346.5886982580135,"class":"TPV","lat":52.18156748476537,"mode":3}
{"ept":0.001,"eps":0.1,"epv":1.0,"lon":4.8548010488792475,"time":"2015-09-24T10:55:32.146Z","epd":0.1,"epx":1.0,"speed":10.7633294947584,"alt":0.0,"epy":1.0,"track":346.5886982580135,"class":"TPV","lat":52.18166164207444,"mode":3}
{"ept":0.001,"eps":0.1,"epv":1.0,"lon":4.854764418426451,"time":"2015-09-24T10:55:33.146Z","epd":0.1,"epx":1.0,"speed":10.7633294947584,"alt":0.0,"epy":1.0,"track":346.5886982580135,"class":"TPV","lat":52.18175579938351,"mode":3}
{"ept":0.001,"eps":0.1,"epv":1.0,"lon":4.854727787973656,"time":"2015-09-24T10:55:34.146Z","epd":0.1,"epx":1.0,"speed":10.7633294947584,"alt":0.0,"epy":1.0,"track":346.5886982580135,"class":"TPV","lat":52.18184995669258,"mode":3}
{"ept":0.001,"eps":0.1,"epv":1.0,"lon":4.85469115752086,"time":"2015-09-24T10:55:35.146Z","epd":0.1,"epx":1.0,"speed":10.7633294947584,"alt":0.0,"epy":1.0,"track":346.5886982580135,"class":"TPV","lat":52.18194411400165,"mode":3}
{"ept":0.001,"eps":0.1,"epv":1.0,"lon":4.854654527068065,"time":"2015-09-24T10:55:36.146Z","epd":0.1,"epx":1.0,"speed":10.7633294947584,"alt":0.0,"epy":1.0,"track":346.5886982580135,"class":"TPV","lat":52.182038271310724,"mode":3}
{"ept":0.001,"eps":0.1,"epv":1.0,"lon":4.854617896615268,"time":"2015-09-24T10:55:37.146Z","epd":0.1,"epx":1.0,"speed":10.7633294947584,"alt":0.0,"epy":1.0,"track":346.5886982580135,"class":"TPV","lat":52.182132428619795,"mode":3}
{"ept":0.001,"eps":0.1,"epv":1.0,"lon":4.854581266162473,"time":"2015-09-24T10:55:38.146Z","epd":0.1,"epx":1.0,"speed":10.7633294947584,"alt":0.0,"epy":1.0,"track":346.5886982580135,"class":"TPV","lat":52.182226585928866,"mode":3}
{"ept":0.001,"eps":0.1,"epv":1.0,"lon":4.8545446357096775,"time":"2015-09-24T10:55:39.146Z","epd":0.1,"epx":1.0,"speed":10.7633294947584,"alt":0.0,"epy":1.0,"track":346.5886982580135,"class":"TPV","lat":52.18232074323794,"mode":3}
{"ept":0.001,"eps":0.1,"epv":1.0,"lon":4.854508005256882,"time":"2015-09-24T10:55:40.146Z","epd":0.1,"epx":1.0,"speed":10.7633294947584,"alt":0.0,"epy":1.0,"track":346.5886982580135,"class":"TPV","lat":52.18241490054701,"mode":3}
{"ept":0.001,"eps":0.1,"epv":1.0,"lon":4.854471374804087,"time":"2015-09-24T10:55:41.146Z","epd":0.1,"epx":1.0,"speed":10.7633294947584,"alt":0.0,"epy":1.0,"track":346.5886982580135,"class":"TPV","lat":52.18250905785608,"mode":3}
{"ept":0.001,"eps":0.1,"epv":1.0,"lon":4.85443474435129,"time":"2015-09-24T10:55:42.146Z","epd":0.1,"epx":1.0,"speed":10.7633294947584,"alt":0.0,"epy":1.0,"track":346.5886982580135,"class":"TPV","lat":52.18260321516515,"mode":3}
{"ept":0.001,"eps":0.1,"epv":1.0,"lon":4.854398113898495,"time":"2015-09-24T10:55:43.146Z","epd":0.1,"epx":1.0,"speed":10.7633294947584,"alt":0.0,"epy":1.0,"track":346.5886982580135,"class":"TPV","lat":52.18269737247422,"mode":3}
{"ept":0.001,"eps":0.1,"epv":1.0,"lon":4.854361483445699,"time":"2015-09-24T10:55:44.146Z","epd":0.1,"epx":1.0,"speed":10.7633294947584,"alt":0.0,"epy":1.0,"track":346.5886982580135,"class":"TPV","lat":52.182791529783294,"mode":3}
{"ept":0.001,"eps":0.1,"epv":1.0,"lon":4.854324852992904,"time":"2015-09-24T10:55:45.146Z","epd":0.1,"epx":1.0,"speed":10.7633294947584,"alt":0.0,"epy":1.0,"track":346.5886982580135,"class":"TPV","lat":52.182885687092366,"mode":3}
{"ept":0.001,"eps":0.1,"epv":1.0,"lon":4.8542882225401085,"time":"2015-09-24T10:55:46.146Z","epd":0.1,"epx":1.0,"speed":10.7633294947584,"alt":0.0,"epy":1.0,"track":346.5886982580135,"class":"TPV","lat":52.18297984440144,"mode":3}
{"ept":0.001,"eps":0.1,"epv":1.0,"lon":4.854251592087312,"time":"2015-09-24T10:55:47.146Z","epd":0.1,"epx":1.0,"speed":10.7633294947584,"alt":0.0,"epy":1.0,"track":346.5886982580135,"class":"TPV","lat":52.18307400171051,"mode":3}
{"ept":0.001,"eps":0.1,"epv":1.0,"lon":4.854214961634517,"time":"2015-09-24T10:55:48.146Z","epd":0.1,"epx":1.0,"speed":10.7633294947584,"alt":0.0,"epy":1.0,"track":346.5886982580135,"class":"TPV","lat":52.18316815901958,"mode":3}
{"ept":0.001,"eps":0.1,"epv":1.0,"lon":4.854178331181721,"time":"2015-09-24T10:55:49.146Z","epd":0.1,"epx":1.0,"speed":10.7633294947584,"alt":0.0,"epy":1.0,"track":346.5886982580135,"class":"TPV","lat":52.18326231632865,"mode":3}
{"ept":0.001,"eps":0.1,"epv":1.0,"lon":4.854141700728926,"time":"2015-09-24T10:55:50.146Z","epd":0.1,"epx":1.0,"speed":10.7633294947584,"alt":0.0,"epy":1.0,"track":346.5886982580135,"class":"TPV","lat":52.18335647363772,"mode":3}
{"ept":0.001,"eps":0.1,"epv":1.0,"lon":4.85410507027613,"time":"2015-09-24T10:55:51.146Z","epd":0.1,"epx":1.0,"speed":10.7633294947584,"alt":0.0,"epy":1.0,"track":346.5886982580135,"class":"TPV","lat":52.183450630946794,"mode":3}
{"ept":0.001,"eps":0.1,"epv":1.0,"lon":4.854068439823334,"time":"2015-09-24T10:55:52.146Z","epd":0.1,"epx":1.0,"speed":10.7633294947584,"alt":0.0,"epy":1.0,"track":346.5886982580135,"class":"TPV","lat":52.183544788255865,"mode":3}
{"ept":0.001,"eps":0.1,"epv":1.0,"lon":4.854031809370539,"time":"2015-09-24T10:55:53.146Z","epd":0.1,"epx":1.0,"speed":10.7633294947584,"alt":0.0,"epy":1.0,"track":346.5886982580135,"class":"TPV","lat":52.18363894556494,"mode":3}
{"ept":0.001,"eps":0.1,"epv":1.0,"lon":4.853995178917743,"time":"2015-09-24T10:55:54.146Z","epd":0.1,"epx":1.0,"speed":10.7633294947584,"alt":0.0,"epy":1.0,"track":346.5886982580135,"class":"TPV","lat":52.18373310287401,"mode":3}
{"ept":0.001,"eps":0.1,"epv":1.0,"lon":4.853958548464948,"time":"2015-09-24T10:55:55.146Z","epd":0.1,"epx":1.0,"speed":10.7633294947584,"alt":0.0,"epy":1.0,"track":346.5886982580135,"class":"TPV","lat":52.18382726018308,"mode":3}
{"ept":0.001,"eps":0.1,"epv":1.0,"lon":4.853921918012152,"time":"2015-09-24T10:55:56.146Z","epd":0.1,"epx":1.0,"speed":10.7633294947584,"alt":0.0,"epy":1.0,"track":346.5886982580135,"class":"TPV","lat":52.18392141749215,"mode":3}
{"ept":0.001,"eps":0.1,"epv":1.0,"lon":4.853885287559356,"time":"2015-09-24T10:55:57.146Z","epd":0.1,"epx":1.0,"speed":10.7633294947584,"alt":0.0,"epy":1.0,"track":346.5886982580135,"class":"TPV","lat":52.18401557480122,"mode":3}
{"ept":0.001,"eps":0.1,"epv":1.0,"lon":4.85384865710656,"time":"2015-09-24T10:55:58.146Z","epd":0.1,"epx":1.0,"speed":10.7633294947584,"alt":0.0,"epy":1.0,"track":346.5886982580135,"class":"TPV","lat":52.184109732110294,"mode":3}
{"ept":0.001,"eps":0.1,"epv":1.0,"lon":4.853812026653765,"time":"2015-09-24T10:55:59.146Z","epd":0.1,"epx":1.0,"speed":10.7633294947584,"alt":0.0,"epy":1.0,"track":346.5886982580135,"class":"TPV","lat":52.184203889419365,"mode":3}
{"ept":0.001,"eps":0.1,"epv":1.0,"lon":4.8537753962009695,"time":"2015-09-24T10:56:00.146Z","epd":0.1,"epx":1.0,"speed":10.7633294947584,"alt":0.0,"epy":1.0,"track":346.5886982580135,"class":"TPV","lat":52.184298046728436,"mode":3}
{"ept":0.001,"eps":0.1,"epv":1.0,"lon":4.853738765748173,"time":"2015-09-24T10:56:01.146Z","epd":0.1,"epx":1.0,"speed":10.7633294947584,"alt":0.0,"epy":1.0,"track":346.5886982580135,"class":"TPV","lat":52.18439220403751,"mode":3}
{"ept":0.001,"eps":0.1,"epv":1.0,"lon":4.853702135295378,"time":"2015-09-24T10:56:02.146Z","epd":0.1,"epx":1.0,"speed":10.7633294947584,"alt":0.0,"epy":1.0,"track":346.5886982580135,"class":"TPV","lat":52.184486361346586,"mode":3}
{"ept":0.001,"eps":0.1,"epv":1.0,"lon":4.853665504842582,"time":"2015-09-24T10:56:03.146Z","epd":0.1,"epx":1.0,"speed":10.7633294947584,"alt":0.0,"epy":1.0,"track":346.5886982580135,"class":"TPV","lat":52.18458051865566,"mode":3}
{"ept":0.001,"eps":0.1,"epv":1.0,"lon":4.853628874389787,"time":"2015-09-24T10:56:04.146Z","epd":0.1,"epx":1.0,"speed":10.7633294947584,"alt":0.0,"epy":1.0,"track":346.5886982580135,"class":"TPV","lat":52.18467467596473,"mode":3}
{"ept":0.001,"eps":0.1,"epv":1.0,"lon":4.853592243936991,"time":"2015-09-24T10:56:05.146Z","epd":0.1,"epx":1.0,"speed":10.7633294947584,"alt":0.0,"epy":1.0,"track":346.5886982580135,"class":"TPV","lat":52.1847688332738,"mode":3}
{"ept":0.001,"eps":0.1,"epv":1.0,"lon":4.853555613484195,"time":"2015-09-24T10:56:06.146Z","epd":0.1,"epx":1.0,"speed":10.7633294947584,"alt":0.0,"epy":1.0,"track":346.5886982580135,"class":"TPV","lat":52.18486299058287,"mode":3}
{"ept":0.001,"eps":0.1,"epv":1.0,"lon":4.8535189830314,"time":"2015-09-24T10:56:07.146Z","epd":0.1,"epx":1.0,"speed":10.7633294947584,"alt":0.0,"epy":1.0,"track":346.5886982580135,"class":"TPV","lat":52.18495714789194,"mode":3}
{"ept":0.001,"eps":0.1,"epv":1.0,"lon":4.853482352578604,"time":"2015-09-24T10:56:08.146Z","epd":0.1,"epx":1.0,"speed":10.7633294947584,"alt":0.0,"epy":1.0,"track":346.5886982580135,"class":"TPV","lat":52.185051305201014,"mode":3}
{"ept":0.001,"eps":0.1,"epv":1.0,"lon":4.853445722125809,"time":"2015-09-24T10:56:09.146Z","epd":0.1,"epx":1.0,"speed":10.7633294947584,"alt":0.0,"epy":1.0,"track":346.5886982580135,"class":"TPV","lat":52.185145462510086,"mode":3}
{"ept":0.001,"eps":0.1,"epv":1.0,"lon":4.853409091673013,"time":"2015-09-24T10:56:10.146Z","epd":0.1,"epx":1.0,"speed":10.7633294947584,"alt":0.0,"epy":1.0,"track":346.5886982580135,"class":"TPV","lat":52.18523961981916,"mode":3}
{"ept":0.001,"eps":0.1,"epv":1.0,"lon":4.853372461220217,"time":"2015-09-24T10:56:11.146Z","epd":0.1,"epx":1.0,"speed":10.7633294947584,"alt":0.0,"epy":1.0,"track":346.5886982580135,"class":"TPV","lat":52.18533377712823,"mode":3}
{"ept":0.001,"eps":0.1,"epv":1.0,"lon":4.8533358307674215,"time":"2015-09-24T10:56:12.146Z","epd":0.1,"epx":1.0,"speed":10.7633294947584,"alt":0.0,"epy":1.0,"track":346.5886982580135,"class":"TPV","lat":52.1854279344373,"mode":3}
{"ept":0.001,"eps":0.1,"epv":1.0,"lon":4.853299200314626,"time":"2015-09-24T10:56:13.146Z","epd":0.1,"epx":1.0,"speed":10.7633294947584,"alt":0.0,"epy":1.0,"track":346.5886982580135,"class":"TPV","lat":52.18552209174637,"mode":3}
{"ept":0.001,"eps":0.1,"epv":1.0,"lon":4.853262569861831,"time":"2015-09-24T10:56:14.146Z","epd":0.1,"epx":1.0,"speed":10.7633294947584,"alt":0.0,"epy":1.0,"track":346.5886982580135,"class":"TPV","lat":52.18561624905544,"mode":3}
{"ept":0.001,"eps":0.1,"epv":1.0,"lon":4.853225939409035,"time":"2015-09-24T10:56:15.146Z","epd":0.1,"epx":1.0,"speed":10.7633294947584,"alt":0.0,"epy":1.0,"track":346.5886982580135,"class":"TPV","lat":52.185710406364514,"mode":3}
{"ept":0.001,"eps":0.1,"epv":1.0,"lon":4.853189308956239,"time":"2015-09-24T10:56:16.146Z","epd":0.1,"epx":1.0,"speed":10.7633294947584,"alt":0.0,"epy":1.0,"track":346.5886982580135,"class":"TPV","lat":52.185804563673585,"mode":3}
{"ept":0.001,"eps":0.1,"epv":1.0,"lon":4.853152678503443,"time":"2015-09-24T10:56:17.146Z","epd":0.1,"epx":1.0,"speed":10.7633294947584,"alt":0.0,"epy":1.0,"track":346.5886982580135,"class":"TPV","lat":52.18589872098266,"mode":3}
{"ept":0.001,"eps":0.1,"epv":1.0,"lon":4.853116048050648,"time":"2015-09-24T10:56:18.146Z","epd":0.1,"epx":1.0,"speed":10.7633294947584,"alt":0.0,"epy":1.0,"track":346.5886982580135,"class":"TPV","lat":52.18599287829173,"mode":3}
{"ept":0.001,"eps":0.1,"epv":1.0,"lon":4.853079417597852,"time":"2015-09-24T10:56:19.146Z","epd":0.1,"epx":1.0,"speed":10.7633294947584,"alt":0.0,"epy":1.0,"track":346.5886982580135,"class":"TPV","lat":52.1860870356008,"mode":3}
{"ept":0.001,"eps":0.1,"epv":1.0,"lon":4.853042787145057,"time":"2015-09-24T10:56:20.146Z","epd":0.1,"epx":1.0,"speed":10.7633294947584,"alt":0.0,"epy":1.0,"track":346.5886982580135,"class":"TPV","lat":52.18618119290987,"mode":3}
{"ept":0.001,"eps":0.1,"epv":1.0,"lon":4.853006156692261,"time":"2015-09-24T10:56:21.146Z","epd":0.1,"epx":1.0,"speed":10.7633294947584,"alt":0.0,"epy":1.0,"track":346.5886982580135,"class":"TPV","lat":52.18627535021894,"mode":3}
{"ept":0.001,"eps":0.1,"epv":1.0,"lon":4.852969526239465,"time":"2015-09-24T10:56:22.146Z","epd":0.1,"epx":1.0,"speed":10.7633294947584,"alt":0.0,"epy":1.0,"track":346.5886982580135,"class":"TPV","lat":52.18636950752801,"mode":3}
{"ept":0.001,"eps":0.1,"epv":1.0,"lon":4.85293289578667,"time":"2015-09-24T10:56:23.146Z","epd":0.1,"epx":1.0,"speed":10.7633294947584,"alt":0.0,"epy":1.0,"track":346.5886982580135,"class":"TPV","lat":52.186463664837085,"mode":3}
{"ept":0.001,"eps":0.1,"epv":1.0,"lon":4.852896265333874,"time":"2015-09-24T10:56:24.146Z","epd":0.1,"epx":1.0,"speed":10.7633294947584,"alt":0.0,"epy":1.0,"track":346.5886982580135,"class":"TPV","lat":52.186557822146156,"mode":3}
{"ept":0.001,"eps":0.1,"epv":1.0,"lon":4.852859634881079,"time":"2015-09-24T10:56:25.146Z","epd":0.1,"epx":1.0,"speed":10.7633294947584,"alt":0.0,"epy":1.0,"track":346.5886982580135,"class":"TPV","lat":52.18665197945523,"mode":3}
{"ept":0.001,"eps":0.1,"epv":1.0,"lon":4.8528230044282825,"time":"2015-09-24T10:56:26.146Z","epd":0.1,"epx":1.0,"speed":10.7633294947584,"alt":0.0,"epy":1.0,"track":346.5886982580135,"class":"TPV","lat":52.1867461367643,"mode":3}
{"ept":0.001,"eps":0.1,"epv":1.0,"lon":4.852786373975487,"time":"2015-09-24T10:56:27.146Z","epd":0.1,"epx":1.0,"speed":10.7633294947584,"alt":0.0,"epy":1.0,"track":346.5886982580135,"class":"TPV","lat":52.18684029407337,"mode":3}
{"ept":0.001,"eps":0.1,"epv":1.0,"lon":4.852749743522692,"time":"2015-09-24T10:56:28.146Z","epd":0.1,"epx":1.0,"speed":10.7633294947584,"alt":0.0,"epy":1.0,"track":346.5886982580135,"class":"TPV","lat":52.18693445138244,"mode":3}
{"ept":0.001,"eps":0.1,"epv":1.0,"lon":4.852713113069896,"time":"2015-09-24T10:56:29.146Z","epd":0.1,"epx":1.0,"speed":10.7633294947584,"alt":0.0,"epy":1.0,"track":346.5886982580135,"class":"TPV","lat":52.18702860869151,"mode":3}
{"ept":0.001,"eps":0.1,"epv":1.0,"lon":4.852676482617101,"time":"2015-09-24T10:56:30.146Z","epd":0.1,"epx":1.0,"speed":10.7633294947584,"alt":0.0,"epy":1.0,"track":346.5886982580135,"class":"TPV","lat":52.187122766000584,"mode":3}
{"ept":0.001,"eps":0.1,"epv":1.0,"lon":4.852639852164304,"time":"2015-09-24T10:56:31.146Z","epd":0.1,"epx":1.0,"speed":10.7633294947584,"alt":0.0,"epy":1.0,"track":346.5886982580135,"class":"TPV","lat":52.187216923309656,"mode":3}
{"ept":0.001,"eps":0.1,"epv":1.0,"lon":4.852603221711509,"time":"2015-09-24T10:56:32.146Z","epd":0.1,"epx":1.0,"speed":10.7633294947584,"alt":0.0,"epy":1.0,"track":346.5886982580135,"class":"TPV","lat":52.18731108061873,"mode":3}
{"ept":0.001,"eps":0.1,"epv":1.0,"lon":4.8525665912587135,"time":"2015-09-24T10:56:33.146Z","epd":0.1,"epx":1.0,"speed":10.7633294947584,"alt":0.0,"epy":1.0,"track":346.5886982580135,"class":"TPV","lat":52.1874052379278,"mode":3}
{"ept":0.001,"eps":0.1,"epv":1.0,"lon":4.852529960805918,"time":"2015-09-24T10:56:34.146Z","epd":0.1,"epx":1.0,"speed":10.7633294947584,"alt":0.0,"epy":1.0,"track":346.5886982580135,"class":"TPV","lat":52.18749939523687,"mode":3}
{"ept":0.001,"eps":0.1,"epv":1.0,"lon":4.852493330353122,"time":"2015-09-24T10:56:35.146Z","epd":0.1,"epx":1.0,"speed":10.7633294947584,"alt":0.0,"epy":1.0,"track":346.5886982580135,"class":"TPV","lat":52.18759355254594,"mode":3}
{"ept":0.001,"eps":0.1,"epv":1.0,"lon":4.852456699900326,"time":"2015-09-24T10:56:36.146Z","epd":0.1,"epx":1.0,"speed":10.7633294947584,"alt":0.0,"epy":1.0,"track":346.5886982580135,"class":"TPV","lat":52.18768770985501,"mode":3}
{"ept":0.001,"eps":0.1,"epv":1.0,"lon":4.852420069447531,"time":"2015-09-24T10:56:37.146Z","epd":0.1,"epx":1.0,"speed":10.7633294947584,"alt":0.0,"epy":1.0,"track":346.5886982580135,"class":"TPV","lat":52.187781867164084,"mode":3}
{"ept":0.001,"eps":0.1,"epv":1.0,"lon":4.852383438994735,"time":"2015-09-24T10:56:38.145Z","epd":0.1,"epx":1.0,"speed":10.7633294947584,"alt":0.0,"epy":1.0,"track":346.5886982580135,"class":"TPV","lat":52.187876024473155,"mode":3}
{"ept":0.001,"eps":0.1,"epv":1.0,"lon":4.85234680854194,"time":"2015-09-24T10:56:39.146Z","epd":0.1,"epx":1.0,"speed":10.7633294947584,"alt":0.0,"epy":1.0,"track":346.5886982580135,"class":"TPV","lat":52.18797018178223,"mode":3}
{"ept":0.001,"eps":0.1,"epv":1.0,"lon":4.8523101780891436,"time":"2015-09-24T10:56:40.146Z","epd":0.1,"epx":1.0,"speed":10.7633294947584,"alt":0.0,"epy":1.0,"track":346.5886982580135,"class":"TPV","lat":52.1880643390913,"mode":3}
{"ept":0.001,"eps":0.1,"epv":1.0,"lon":4.852273547636348,"time":"2015-09-24T10:56:41.146Z","epd":0.1,"epx":1.0,"speed":10.7633294947584,"alt":0.0,"epy":1.0,"track":346.5886982580135,"class":"TPV","lat":52.18815849640037,"mode":3}
{"ept":0.001,"eps":0.1,"epv":1.0,"lon":4.852236917183553,"time":"2015-09-24T10:56:42.146Z","epd":0.1,"epx":1.0,"speed":10.7633294947584,"alt":0.0,"epy":1.0,"track":346.5886982580135,"class":"TPV","lat":52.18825265370944,"mode":3}
{"ept":0.001,"eps":0.1,"epv":1.0,"lon":4.852200286730757,"time":"2015-09-24T10:56:43.146Z","epd":0.1,"epx":1.0,"speed":10.7633294947584,"alt":0.0,"epy":1.0,"track":346.5886982580135,"class":"TPV","lat":52.18834681101851,"mode":3}
{"ept":0.001,"eps":0.1,"epv":1.0,"lon":4.852163656277962,"time":"2015-09-24T10:56:44.146Z","epd":0.1,"epx":1.0,"speed":10.7633294947584,"alt":0.0,"epy":1.0,"track":346.5886982580135,"class":"TPV","lat":52.18844096832758,"mode":3}
{"ept":0.001,"eps":0.1,"epv":1.0,"lon":4.852127025825165,"time":"2015-09-24T10:56:45.146Z","epd":0.1,"epx":1.0,"speed":10.7633294947584,"alt":0.0,"epy":1.0,"track":346.5886982580135,"class":"TPV","lat":52.188535125636655,"mode":3}
{"ept":0.001,"eps":0.1,"epv":1.0,"lon":4.85209039537237,"time":"2015-09-24T10:56:46.146Z","epd":0.1,"epx":1.0,"speed":10.7633294947584,"alt":0.0,"epy":1.0,"track":346.5886982580135,"class":"TPV","lat":52.18862928294573,"mode":3}
{"ept":0.001,"eps":0.1,"epv":1.0,"lon":4.8520537649195745,"time":"2015-09-24T10:56:47.146Z","epd":0.1,"epx":1.0,"speed":10.7633294947584,"alt":0.0,"epy":1.0,"track":346.5886982580135,"class":"TPV","lat":52.188723440254805,"mode":3}
{"ept":0.001,"eps":0.1,"epv":1.0,"lon":4.852017134466779,"time":"2015-09-24T10:56:48.146Z","epd":0.1,"epx":1.0,"speed":10.7633294947584,"alt":0.0,"epy":1.0,"track":346.5886982580135,"class":"TPV","lat":52.188817597563876,"mode":3}
{"ept":0.001,"eps":0.1,"epv":1.0,"lon":4.851980504013984,"time":"2015-09-24T10:56:49.146Z","epd":0.1,"epx":1.0,"speed":10.7633294947584,"alt":0.0,"epy":1.0,"track":346.5886982580135,"class":"TPV","lat":52.18891175487295,"mode":3}
{"ept":0.001,"eps":0.1,"epv":1.0,"lon":4.851943873561187,"time":"2015-09-24T10:56:50.146Z","epd":0.1,"epx":1.0,"speed":10.7633294947584,"alt":0.0,"epy":1.0,"track":346.5886982580135,"class":"TPV","lat":52.18900591218202,"mode":3}
{"ept":0.001,"eps":0.1,"epv":1.0,"lon":4.851907243108392,"time":"2015-09-24T10:56:51.146Z","epd":0.1,"epx":1.0,"speed":10.7633294947584,"alt":0.0,"epy":1.0,"track":346.5886982580135,"class":"TPV","lat":52.18910006949109,"mode":3}
{"ept":0.001,"eps":0.1,"epv":1.0,"lon":4.851870612655596,"time":"2015-09-24T10:56:52.146Z","epd":0.1,"epx":1.0,"speed":10.7633294947584,"alt":0.0,"epy":1.0,"track":346.5886982580135,"class":"TPV","lat":52.18919422680016,"mode":3}
{"ept":0.001,"eps":0.1,"epv":1.0,"lon":4.851833982202801,"time":"2015-09-24T10:56:53.146Z","epd":0.1,"epx":1.0,"speed":10.7633294947584,"alt":0.0,"epy":1.0,"track":346.5886982580135,"class":"TPV","lat":52.18928838410923,"mode":3}
{"ept":0.001,"eps":0.1,"epv":1.0,"lon":4.8517973517500055,"time":"2015-09-24T10:56:54.146Z","epd":0.1,"epx":1.0,"speed":10.7633294947584,"alt":0.0,"epy":1.0,"track":346.5886982580135,"class":"TPV","lat":52.189382541418304,"mode":3}
{"ept":0.001,"eps":0.1,"epv":1.0,"lon":4.851760721297209,"time":"2015-09-24T10:56:55.146Z","epd":0.1,"epx":1.0,"speed":10.7633294947584,"alt":0.0,"epy":1.0,"track":346.5886982580135,"class":"TPV","lat":52.189476698727375,"mode":3}
{"ept":0.001,"eps":0.1,"epv":1.0,"lon":4.851691373887538,"time":"2015-09-24T10:56:56.146Z","epd":0.1,"epx":1.0,"speed":9.59540234037963,"alt":0.0,"epy":1.0,"track":282.5861242315359,"class":"TPV","lat":52.18954639352709,"mode":3}
{"ept":0.001,"eps":0.1,"epv":1.0,"lon":4.851553963402945,"time":"2015-09-24T10:56:57.146Z","epd":0.1,"epx":1.0,"speed":9.59540234037963,"alt":0.0,"epy":1.0,"track":282.5861242315359,"class":"TPV","lat":52.18956519748102,"mode":3}
{"ept":0.001,"eps":0.1,"epv":1.0,"lon":4.851416552918352,"time":"2015-09-24T10:56:58.146Z","epd":0.1,"epx":1.0,"speed":9.59540234037963,"alt":0.0,"epy":1.0,"track":282.5861242315359,"class":"TPV","lat":52.18958400143496,"mode":3}
{"ept":0.001,"eps":0.1,"epv":1.0,"lon":4.85127914243376,"time":"2015-09-24T10:56:59.146Z","epd":0.1,"epx":1.0,"speed":9.59540234037963,"alt":0.0,"epy":1.0,"track":282.5861242315359,"class":"TPV","lat":52.189602805388894,"mode":3}
{"ept":0.001,"eps":0.1,"epv":1.0,"lon":4.851141731949167,"time":"2015-09-24T10:57:00.146Z","epd":0.1,"epx":1.0,"speed":9.59540234037963,"alt":0.0,"epy":1.0,"track":282.5861242315359,"class":"TPV","lat":52.18962160934283,"mode":3}
{"ept":0.001,"eps":0.1,"epv":1.0,"lon":4.851004321464575,"time":"2015-09-24T10:57:01.146Z","epd":0.1,"epx":1.0,"speed":9.59540234037963,"alt":0.0,"epy":1.0,"track":282.5861242315359,"class":"TPV","lat":52.18964041329676,"mode":3}
{"ept":0.001,"eps":0.1,"epv":1.0,"lon":4.850866910979982,"time":"2015-09-24T10:57:02.146Z","epd":0.1,"epx":1.0,"speed":9.59540234037963,"alt":0.0,"epy":1.0,"track":282.5861242315359,"class":"TPV","lat":52.18965921725069,"mode":3}
{"ept":0.001,"eps":0.1,"epv":1.0,"lon":4.850729500495389,"time":"2015-09-24T10:57:03.146Z","epd":0.1,"epx":1.0,"speed":9.59540234037963,"alt":0.0,"epy":1.0,"track":282.5861242315359,"class":"TPV","lat":52.18967802120463,"mode":3}
{"ept":0.001,"eps":0.1,"epv":1.0,"lon":4.850592090010797,"time":"2015-09-24T10:57:04.146Z","epd":0.1,"epx":1.0,"speed":9.59540234037963,"alt":0.0,"epy":1.0,"track":282.5861242315359,"class":"TPV","lat":52.18969682515856,"mode":3}
{"ept":0.001,"eps":0.1,"epv":1.0,"lon":4.850454679526204,"time":"2015-09-24T10:57:05.146Z","epd":0.1,"epx":1.0,"speed":9.59540234037963,"alt":0.0,"epy":1.0,"track":282.5861242315359,"class":"TPV","lat":52.18971562911249,"mode":3}
{"ept":0.001,"eps":0.1,"epv":1.0,"lon":4.850317269041612,"time":"2015-09-24T10:57:06.146Z","epd":0.1,"epx":1.0,"speed":9.59540234037963,"alt":0.0,"epy":1.0,"track":282.5861242315359,"class":"TPV","lat":52.18973443306643,"mode":3}
{"ept":0.001,"eps":0.1,"epv":1.0,"lon":4.850179858557019,"time":"2015-09-24T10:57:07.146Z","epd":0.1,"epx":1.0,"speed":9.59540234037963,"alt":0.0,"epy":1.0,"track":282.5861242315359,"class":"TPV","lat":52.18975323702036,"mode":3}
{"ept":0.001,"eps":0.1,"epv":1.0,"lon":4.8500424480724265,"time":"2015-09-24T10:57:08.146Z","epd":0.1,"epx":1.0,"speed":9.59540234037963,"alt":0.0,"epy":1.0,"track":282.5861242315359,"class":"TPV","lat":52.1897720409743,"mode":3}
{"ept":0.001,"eps":0.1,"epv":1.0,"lon":4.849905037587834,"time":"2015-09-24T10:57:09.146Z","epd":0.1,"epx":1.0,"speed":9.59540234037963,"alt":0.0,"epy":1.0,"track":282.5861242315359,"class":"TPV","lat":52.18979084492823,"mode":3}
{"ept":0.001,"eps":0.1,"epv":1.0,"lon":4.849767627103241,"time":"2015-09-24T10:57:10.146Z","epd":0.1,"epx":1.0,"speed":9.59540234037963,"alt":0.0,"epy":1.0,"track":282.5861242315359,"class":"TPV","lat":52.18980964888216,"mode":3}
{"ept":0.001,"eps":0.1,"epv":1.0,"lon":4.849630216618649,"time":"2015-09-24T10:57:11.146Z","epd":0.1,"epx":1.0,"speed":9.59540234037963,"alt":0.0,"epy":1.0,"track":282.5861242315359,"class":"TPV","lat":52.189828452836096,"mode":3}
{"ept":0.001,"eps":0.1,"epv":1.0,"lon":4.849492806134056,"time":"2015-09-24T10:57:12.146Z","epd":0.1,"epx":1.0,"speed":9.59540234037963,"alt":0.0,"epy":1.0,"track":282.5861242315359,"class":"TPV","lat":52.18984725679003,"mode":3}
{"ept":0.001,"eps":0.1,"epv":1.0,"lon":4.8493553956494635,"time":"2015-09-24T10:57:13.146Z","epd":0.1,"epx":1.0,"speed":9.59540234037963,"alt":0.0,"epy":1.0,"track":282.5861242315359,"class":"TPV","lat":52.18986606074397,"mode":3}
{"ept":0.001,"eps":0.1,"epv":1.0,"lon":4.849217985164871,"time":"2015-09-24T10:57:14.146Z","epd":0.1,"epx":1.0,"speed":9.59540234037963,"alt":0.0,"epy":1.0,"track":282.5861242315359,"class":"TPV","lat":52.189884864697895,"mode":3}
{"ept":0.001,"eps":0.1,"epv":1.0,"lon":4.849080574680278,"time":"2015-09-24T10:57:15.146Z","epd":0.1,"epx":1.0,"speed":9.59540234037963,"alt":0.0,"epy":1.0,"track":282.5861242315359,"class":"TPV","lat":52.18990366865183,"mode":3}
{"ept":0.001,"eps":0.1,"epv":1.0,"lon":4.848943164195686,"time":"2015-09-24T10:57:16.146Z","epd":0.1,"epx":1.0,"speed":9.59540234037963,"alt":0.0,"epy":1.0,"track":282.5861242315359,"class":"TPV","lat":52.189922472605765,"mode":3}
{"ept":0.001,"eps":0.1,"epv":1.0,"lon":4.848805753711093,"time":"2015-09-24T10:57:17.146Z","epd":0.1,"epx":1.0,"speed":9.59540234037963,"alt":0.0,"epy":1.0,"track":282.5861242315359,"class":"TPV","lat":52.1899412765597,"mode":3}
{"ept":0.001,"eps":0.1,"epv":1.0,"lon":4.8486683432265005,"time":"2015-09-24T10:57:18.146Z","epd":0.1,"epx":1.0,"speed":9.59540234037963,"alt":0.0,"epy":1.0,"track":282.5861242315359,"class":"TPV","lat":52.189960080513636,"mode":3}
{"ept":0.001,"eps":0.1,"epv":1.0,"lon":4.848530932741908,"time":"2015-09-24T10:57:19.146Z","epd":0.1,"epx":1.0,"speed":9.59540234037963,"alt":0.0,"epy":1.0,"track":282.5861242315359,"class":"TPV","lat":52.189978884467564,"mode":3}
{"ept":0.001,"eps":0.1,"epv":1.0,"lon":4.848393522257315,"time":"2015-09-24T10:57:20.146Z","epd":0.1,"epx":1.0,"speed":9.59540234037963,"alt":0.0,"epy":1.0,"track":282.5861242315359,"class":"TPV","lat":52.1899976884215,"mode":3}
{"ept":0.001,"eps":0.1,"epv":1.0,"lon":4.848256111772723,"time":"2015-09-24T10:57:21.146Z","epd":0.1,"epx":1.0,"speed":9.59540234037963,"alt":0.0,"epy":1.0,"track":282.5861242315359,"class":"TPV","lat":52.190016492375435,"mode":3}
{"ept":0.001,"eps":0.1,"epv":1.0,"lon":4.84811870128813,"time":"2015-09-24T10:57:22.146Z","epd":0.1,"epx":1.0,"speed":9.59540234037963,"alt":0.0,"epy":1.0,"track":282.5861242315359,"class":"TPV","lat":52.19003529632937,"mode":3}
{"ept":0.001,"eps":0.1,"epv":1.0,"lon":4.847981290803538,"time":"2015-09-24T10:57:23.146Z","epd":0.1,"epx":1.0,"speed":9.59540234037963,"alt":0.0,"epy":1.0,"track":282.5861242315359,"class":"TPV","lat":52.1900541002833,"mode":3}
{"ept":0.001,"eps":0.1,"epv":1.0,"lon":4.847843880318945,"time":"2015-09-24T10:57:24.146Z","epd":0.1,"epx":1.0,"speed":9.59540234037963,"alt":0.0,"epy":1.0,"track":282.5861242315359,"class":"TPV","lat":52.19007290423723,"mode":3}
{"ept":0.001,"eps":0.1,"epv":1.0,"lon":4.847706469834352,"time":"2015-09-24T10:57:25.146Z","epd":0.1,"epx":1.0,"speed":9.59540234037963,"alt":0.0,"epy":1.0,"track":282.5861242315359,"class":"TPV","lat":52.19009170819117,"mode":3}
{"ept":0.001,"eps":0.1,"epv":1.0,"lon":4.84756905934976,"time":"2015-09-24T10:57:26.146Z","epd":0.1,"epx":1.0,"speed":9.59540234037963,"alt":0.0,"epy":1.0,"track":282.5861242315359,"class":"TPV","lat":52.190110512145104,"mode":3}
{"ept":0.001,"eps":0.1,"epv":1.0,"lon":4.847431648865167,"time":"2015-09-24T10:57:27.146Z","epd":0.1,"epx":1.0,"speed":9.59540234037963,"alt":0.0,"epy":1.0,"track":282.5861242315359,"class":"TPV","lat":52.19012931609904,"mode":3}
{"ept":0.001,"eps":0.1,"epv":1.0,"lon":4.847294238380575,"time":"2015-09-24T10:57:28.146Z","epd":0.1,"epx":1.0,"speed":9.59540234037963,"alt":0.0,"epy":1.0,"track":282.5861242315359,"class":"TPV","lat":52.19014812005297,"mode":3}
{"ept":0.001,"eps":0.1,"epv":1.0,"lon":4.847156827895982,"time":"2015-09-24T10:57:29.146Z","epd":0.1,"epx":1.0,"speed":9.59540234037963,"alt":0.0,"epy":1.0,"track":282.5861242315359,"class":"TPV","lat":52.1901669240069,"mode":3}
{"ept":0.001,"eps":0.1,"epv":1.0,"lon":4.847019417411389,"time":"2015-09-24T10:57:30.146Z","epd":0.1,"epx":1.0,"speed":9.59540234037963,"alt":0.0,"epy":1.0,"track":282.5861242315359,"class":"TPV","lat":52.19018572796084,"mode":3}
{"ept":0.001,"eps":0.1,"epv":1.0,"lon":4.846882006926797,"time":"2015-09-24T10:57:31.146Z","epd":0.1,"epx":1.0,"speed":9.59540234037963,"alt":0.0,"epy":1.0,"track":282.5861242315359,"class":"TPV","lat":52.19020453191477,"mode":3}
{"ept":0.001,"eps":0.1,"epv":1.0,"lon":4.846744596442204,"time":"2015-09-24T10:57:32.146Z","epd":0.1,"epx":1.0,"speed":9.59540234037963,"alt":0.0,"epy":1.0,"track":282.5861242315359,"class":"TPV","lat":52.1902233358687,"mode":3}
{"ept":0.001,"eps":0.1,"epv":1.0,"lon":4.846607185957612,"time":"2015-09-24T10:57:33.146Z","epd":0.1,"epx":1.0,"speed":9.59540234037963,"alt":0.0,"epy":1.0,"track":282.5861242315359,"class":"TPV","lat":52.19024213982264,"mode":3}
{"ept":0.001,"eps":0.1,"epv":1.0,"lon":4.846469775473019,"time":"2015-09-24T10:57:34.146Z","epd":0.1,"epx":1.0,"speed":9.59540234037963,"alt":0.0,"epy":1.0,"track":282.5861242315359,"class":"TPV","lat":52.19026094377657,"mode":3}
{"ept":0.001,"eps":0.1,"epv":1.0,"lon":4.8463323649884265,"time":"2015-09-24T10:57:35.146Z","epd":0.1,"epx":1.0,"speed":9.59540234037963,"alt":0.0,"epy":1.0,"track":282.5861242315359,"class":"TPV","lat":52.19027974773051,"mode":3}
{"ept":0.001,"eps":0.1,"epv":1.0,"lon":4.846194954503834,"time":"2015-09-24T10:57:36.146Z","epd":0.1,"epx":1.0,"speed":9.59540234037963,"alt":0.0,"epy":1.0,"track":282.5861242315359,"class":"TPV","lat":52.19029855168444,"mode":3}
{"ept":0.001,"eps":0.1,"epv":1.0,"lon":4.846057544019241,"time":"2015-09-24T10:57:37.146Z","epd":0.1,"epx":1.0,"speed":9.59540234037963,"alt":0.0,"epy":1.0,"track":282.5861242315359,"class":"TPV","lat":52.19031735563837,"mode":3}
{"ept":0.001,"eps":0.1,"epv":1.0,"lon":4.845920133534649,"time":"2015-09-24T10:57:38.146Z","epd":0.1,"epx":1.0,"speed":9.59540234037963,"alt":0.0,"epy":1.0,"track":282.5861242315359,"class":"TPV","lat":52.190336159592306,"mode":3}
{"ept":0.001,"eps":0.1,"epv":1.0,"lon":4.845782723050056,"time":"2015-09-24T10:57:39.146Z","epd":0.1,"epx":1.0,"speed":9.59540234037963,"alt":0.0,"epy":1.0,"track":282.5861242315359,"class":"TPV","lat":52.19035496354624,"mode":3}
{"ept":0.001,"eps":0.1,"epv":1.0,"lon":4.8456453125654635,"time":"2015-09-24T10:57:40.146Z","epd":0.1,"epx":1.0,"speed":9.59540234037963,"alt":0.0,"epy":1.0,"track":282.5861242315359,"class":"TPV","lat":52.190373767500176,"mode":3}
{"ept":0.001,"eps":0.1,"epv":1.0,"lon":4.845507902080871,"time":"2015-09-24T10:57:41.146Z","epd":0.1,"epx":1.0,"speed":9.59540234037963,"alt":0.0,"epy":1.0,"track":282.5861242315359,"class":"TPV","lat":52.190392571454105,"mode":3}
{"ept":0.001,"eps":0.1,"epv":1.0,"lon":4.845370491596278,"time":"2015-09-24T10:57:42.146Z","epd":0.1,"epx":1.0,"speed":9.59540234037963,"alt":0.0,"epy":1.0,"track":282.5861242315359,"class":"TPV","lat":52.19041137540804,"mode":3}
{"ept":0.001,"eps":0.1,"epv":1.0,"lon":4.845233081111686,"time":"2015-09-24T10:57:43.146Z","epd":0.1,"epx":1.0,"speed":9.59540234037963,"alt":0.0,"epy":1.0,"track":282.5861242315359,"class":"TPV","lat":52.190430179361975,"mode":3}
{"ept":0.001,"eps":0.1,"epv":1.0,"lon":4.845095670627093,"time":"2015-09-24T10:57:44.146Z","epd":0.1,"epx":1.0,"speed":9.59540234037963,"alt":0.0,"epy":1.0,"track":282.5861242315359,"class":"TPV","lat":52.19044898331591,"mode":3}
{"ept":0.001,"eps":0.1,"epv":1.0,"lon":4.8449582601425005,"time":"2015-09-24T10:57:45.146Z","epd":0.1,"epx":1.0,"speed":9.59540234037963,"alt":0.0,"epy":1.0,"track":282.5861242315359,"class":"TPV","lat":52.190467787269846,"mode":3}
{"ept":0.001,"eps":0.1,"epv":1.0,"lon":4.844820849657908,"time":"2015-09-24T10:57:46.146Z","epd":0.1,"epx":1.0,"speed":9.59540234037963,"alt":0.0,"epy":1.0,"track":282.5861242315359,"class":"TPV","lat":52.190486591223774,"mode":3}
{"ept":0.001,"eps":0.1,"epv":1.0,"lon":4.844683439173315,"time":"2015-09-24T10:57:47.146Z","epd":0.1,"epx":1.0,"speed":9.59540234037963,"alt":0.0,"epy":1.0,"track":282.5861242315359,"class":"TPV","lat":52.19050539517771,"mode":3}
{"ept":0.001,"eps":0.1,"epv":1.0,"lon":4.844546028688723,"time":"2015-09-24T10:57:48.146Z","epd":0.1,"epx":1.0,"speed":9.59540234037963,"alt":0.0,"epy":1.0,"track":282.5861242315359,"class":"TPV","lat":52.190524199131644,"mode":3}
{"ept":0.001,"eps":0.1,"epv":1.0,"lon":4.84440861820413,"time":"2015-09-24T10:57:49.146Z","epd":0.1,"epx":1.0,"speed":9.59540234037963,"alt":0.0,"epy":1.0,"track":282.5861242315359,"class":"TPV","lat":52.19054300308558,"mode":3}
{"ept":0.001,"eps":0.1,"epv":1.0,"lon":4.844271207719538,"time":"2015-09-24T10:57:50.146Z","epd":0.1,"epx":1.0,"speed":9.59540234037963,"alt":0.0,"epy":1.0,"track":282.5861242315359,"class":"TPV","lat":52.19056180703951,"mode":3}
{"ept":0.001,"eps":0.1,"epv":1.0,"lon":4.844133797234945,"time":"2015-09-24T10:57:51.146Z","epd":0.1,"epx":1.0,"speed":9.59540234037963,"alt":0.0,"epy":1.0,"track":282.5861242315359,"class":"TPV","lat":52.19058061099344,"mode":3}
{"ept":0.001,"eps":0.1,"epv":1.0,"lon":4.843996386750352,"time":"2015-09-24T10:57:52.146Z","epd":0.1,"epx":1.0,"speed":9.59540234037963,"alt":0.0,"epy":1.0,"track":282.5861242315359,"class":"TPV","lat":52.19059941494738,"mode":3}
{"ept":0.001,"eps":0.1,"epv":1.0,"lon":4.84385897626576,"time":"2015-09-24T10:57:53.146Z","epd":0.1,"epx":1.0,"speed":9.59540234037963,"alt":0.0,"epy":1.0,"track":282.5861242315359,"class":"TPV","lat":52.190618218901314,"mode":3}
{"ept":0.001,"eps":0.1,"epv":1.0,"lon":4.843721565781167,"time":"2015-09-24T10:57:54.146Z","epd":0.1,"epx":1.0,"speed":9.59540234037963,"alt":0.0,"epy":1.0,"track":282.5861242315359,"class":"TPV","lat":52.19063702285525,"mode":3}
{"ept":0.001,"eps":0.1,"epv":1.0,"lon":4.843584155296575,"time":"2015-09-24T10:57:55.146Z","epd":0.1,"epx":1.0,"speed":9.59540234037963,"alt":0.0,"epy":1.0,"track":282.5861242315359,"class":"TPV","lat":52.19065582680918,"mode":3}
{"ept":0.001,"eps":0.1,"epv":1.0,"lon":4.843446744811982,"time":"2015-09-24T10:57:56.146Z","epd":0.1,"epx":1.0,"speed":9.59540234037963,"alt":0.0,"epy":1.0,"track":282.5861242315359,"class":"TPV","lat":52.19067463076311,"mode":3}
{"ept":0.001,"eps":0.1,"epv":1.0,"lon":4.843309334327389,"time":"2015-09-24T10:57:57.146Z","epd":0.1,"epx":1.0,"speed":9.59540234037963,"alt":0.0,"epy":1.0,"track":282.5861242315359,"class":"TPV","lat":52.19069343471705,"mode":3}
{"ept":0.001,"eps":0.1,"epv":1.0,"lon":4.843171923842797,"time":"2015-09-24T10:57:58.146Z","epd":0.1,"epx":1.0,"speed":9.59540234037963,"alt":0.0,"epy":1.0,"track":282.5861242315359,"class":"TPV","lat":52.19071223867098,"mode":3}
{"ept":0.001,"eps":0.1,"epv":1.0,"lon":4.843034513358205,"time":"2015-09-24T10:57:59.146Z","epd":0.1,"epx":1.0,"speed":9.59540234037963,"alt":0.0,"epy":1.0,"track":282.5861242315359,"class":"TPV","lat":52.19073104262491,"mode":3}
{"ept":0.001,"eps":0.1,"epv":1.0,"lon":4.8428971028736125,"time":"2015-09-24T10:58:00.146Z","epd":0.1,"epx":1.0,"speed":9.59540234037963,"alt":0.0,"epy":1.0,"track":282.5861242315359,"class":"TPV","lat":52.190749846578846,"mode":3}
{"ept":0.001,"eps":0.1,"epv":1.0,"lon":4.84275969238902,"time":"2015-09-24T10:58:01.146Z","epd":0.1,"epx":1.0,"speed":9.59540234037963,"alt":0.0,"epy":1.0,"track":282.5861242315359,"class":"TPV","lat":52.19076865053278,"mode":3}
{"ept":0.001,"eps":0.1,"epv":1.0,"lon":4.842622281904427,"time":"2015-09-24T10:58:02.146Z","epd":0.1,"epx":1.0,"speed":9.59540234037963,"alt":0.0,"epy":1.0,"track":282.5861242315359,"class":"TPV","lat":52.19078745448672,"mode":3}
{"ept":0.001,"eps":0.1,"epv":1.0,"lon":4.842484871419835,"time":"2015-09-24T10:58:03.146Z","epd":0.1,"epx":1.0,"speed":9.59540234037963,"alt":0.0,"epy":1.0,"track":282.5861242315359,"class":"TPV","lat":52.19080625844065,"mode":3}
{"ept":0.001,"eps":0.1,"epv":1.0,"lon":4.842347460935242,"time":"2015-09-24T10:58:04.146Z","epd":0.1,"epx":1.0,"speed":9.59540234037963,"alt":0.0,"epy":1.0,"track":282.5861242315359,"class":"TPV","lat":52.19082506239458,"mode":3}
{"ept":0.001,"eps":0.1,"epv":1.0,"lon":4.84221005045065,"time":"2015-09-24T10:58:05.146Z","epd":0.1,"epx":1.0,"speed":9.59540234037963,"alt":0.0,"epy":1.0,"track":282.5861242315359,"class":"TPV","lat":52.190843866348516,"mode":3}
{"ept":0.001,"eps":0.1,"epv":1.0,"lon":4.842072639966057,"time":"2015-09-24T10:58:06.146Z","epd":0.1,"epx":1.0,"speed":9.59540234037963,"alt":0.0,"epy":1.0,"track":282.5861242315359,"class":"TPV","lat":52.19086267030245,"mode":3}
{"ept":0.001,"eps":0.1,"epv":1.0,"lon":4.841935229481464,"time":"2015-09-24T10:58:07.146Z","epd":0.1,"epx":1.0,"speed":9.59540234037963,"alt":0.0,"epy":1.0,"track":282.5861242315359,"class":"TPV","lat":52.190881474256386,"mode":3}
{"ept":0.001,"eps":0.1,"epv":1.0,"lon":4.841797818996872,"time":"2015-09-24T10:58:08.145Z","epd":0.1,"epx":1.0,"speed":9.59540234037963,"alt":0.0,"epy":1.0,"track":282.5861242315359,"class":"TPV","lat":52.190900278210314,"mode":3}
{"ept":0.001,"eps":0.1,"epv":1.0,"lon":4.841660408512279,"time":"2015-09-24T10:58:09.146Z","epd":0.1,"epx":1.0,"speed":9.59540234037963,"alt":0.0,"epy":1.0,"track":282.5861242315359,"class":"TPV","lat":52.19091908216425,"mode":3}
{"ept":0.001,"eps":0.1,"epv":1.0,"lon":4.841522998027687,"time":"2015-09-24T10:58:10.146Z","epd":0.1,"epx":1.0,"speed":9.59540234037963,"alt":0.0,"epy":1.0,"track":282.5861242315359,"class":"TPV","lat":52.190937886118185,"mode":3}
{"ept":0.001,"eps":0.1,"epv":1.0,"lon":4.841385587543094,"time":"2015-09-24T10:58:11.146Z","epd":0.1,"epx":1.0,"speed":9.59540234037963,"alt":0.0,"epy":1.0,"track":282.5861242315359,"class":"TPV","lat":52.19095669007212,"mode":3}
{"ept":0.001,"eps":0.1,"epv":1.0,"lon":4.841248177058501,"time":"2015-09-24T10:58:12.146Z","epd":0.1,"epx":1.0,"speed":9.59540234037963,"alt":0.0,"epy":1.0,"track":282.5861242315359,"class":"TPV","lat":52.190975494026056,"mode":3}
{"ept":0.001,"eps":0.1,"epv":1.0,"lon":4.841110766573909,"time":"2015-09-24T10:58:13.146Z","epd":0.1,"epx":1.0,"speed":9.59540234037963,"alt":0.0,"epy":1.0,"track":282.5861242315359,"class":"TPV","lat":52.190994297979984,"mode":3}
{"ept":0.001,"eps":0.1,"epv":1.0,"lon":4.840973356089316,"time":"2015-09-24T10:58:14.146Z","epd":0.1,"epx":1.0,"speed":9.59540234037963,"alt":0.0,"epy":1.0,"track":282.5861242315359,"class":"TPV","lat":52.19101310193392,"mode":3}
{"ept":0.001,"eps":0.1,"epv":1.0,"lon":4.840835945604724,"time":"2015-09-24T10:58:15.146Z","epd":0.1,"epx":1.0,"speed":9.59540234037963,"alt":0.0,"epy":1.0,"track":282.5861242315359,"class":"TPV","lat":52.191031905887854,"mode":3}
{"ept":0.001,"eps":0.1,"epv":1.0,"lon":4.840698535120131,"time":"2015-09-24T10:58:16.146Z","epd":0.1,"epx":1.0,"speed":9.59540234037963,"alt":0.0,"epy":1.0,"track":282.5861242315359,"class":"TPV","lat":52.19105070984179,"mode":3}
{"ept":0.001,"eps":0.1,"epv":1.0,"lon":4.8405611246355384,"time":"2015-09-24T10:58:17.146Z","epd":0.1,"epx":1.0,"speed":9.59540234037963,"alt":0.0,"epy":1.0,"track":282.5861242315359,"class":"TPV","lat":52.19106951379572,"mode":3}
{"ept":0.001,"eps":0.1,"epv":1.0,"lon":4.840423714150946,"time":"2015-09-24T10:58:18.146Z","epd":0.1,"epx":1.0,"speed":9.59540234037963,"alt":0.0,"epy":1.0,"track":282.5861242315359,"class":"TPV","lat":52.19108831774965,"mode":3}
{"ept":0.001,"eps":0.1,"epv":1.0,"lon":4.840286303666353,"time":"2015-09-24T10:58:19.146Z","epd":0.1,"epx":1.0,"speed":9.59540234037963,"alt":0.0,"epy":1.0,"track":282.5861242315359,"class":"TPV","lat":52.19110712170359,"mode":3}
