{"class":"VERSION","release":"3.6","rev":"3.6","proto_major":3,"proto_minor":7}
{"class":"DEVICES","devices":[{"class":"DEVICE","path":"gpsd://192.168.50.240:61000","activated":"2015-09-24T10:53:35.735Z","driver":"JSON slave driver"}]}
{"class":"WATCH","enable":true,"json":true,"nmea":false,"raw":0,"scaled":false,"timing":false}
{"ept":0.001,"eps":0.1,"epv":1.0,"lon":4.818241574238184,"time":"2015-09-24T10:54:02.146Z","epd":0.1,"epx":1.0,"speed":10.547950044936691,"alt":0.0,"epy":1.0,"track":344.48129106367935,"class":"TPV","lat":52.16104178030794,"mode":3}
{"ept":0.001,"eps":0.1,"epv":1.0,"lon":4.818200164896409,"time":"2015-09-24T10:54:03.146Z","epd":0.1,"epx":1.0,"speed":10.547950044936691,"alt":0.0,"epy":1.0,"track":344.48129106367935,"class":"TPV","lat":52.16113318200415,"mode":3}
{"ept":0.001,"eps":0.1,"epv":1.0,"lon":4.8181587555546335,"time":"2015-09-24T10:54:04.146Z","epd":0.1,"epx":1.0,"speed":10.547950044936691,"alt":0.0,"epy":1.0,"track":344.48129106367935,"class":"TPV","lat":52.16122458370035,"mode":3}
{"ept":0.001,"eps":0.1,"epv":1.0,"lon":4.818117346212858,"time":"2015-09-24T10:54:05.146Z","epd":0.1,"epx":1.0,"speed":10.547950044936691,"alt":0.0,"epy":1.0,"track":344.48129106367935,"class":"TPV","lat":52.16131598539656,"mode":3}
{"ept":0.001,"eps":0.1,"epv":1.0,"lon":4.818075936871083,"time":"2015-09-24T10:54:06.146Z","epd":0.1,"epx":1.0,"speed":10.547950044936691,"alt":0.0,"epy":1.0,"track":344.48129106367935,"class":"TPV","lat":52.161407387092765,"mode":3}
{"ept":0.001,"eps":0.1,"epv":1.0,"lon":4.818034527529308,"time":"2015-09-24T10:54:07.146Z","epd":0.1,"epx":1.0,"speed":10.547950044936691,"alt":0.0,"epy":1.0,"track":344.48129106367935,"class":"TPV","lat":52.161498788788975,"mode":3}
{"ept":0.001,"eps":0.1,"epv":1.0,"lon":4.817993118187533,"time":"2015-09-24T10:54:08.146Z","epd":0.1,"epx":1.0,"speed":10.547950044936691,"alt":0.0,"epy":1.0,"track":344.48129106367935,"class":"TPV","lat":52.16159019048518,"mode":3}
{"ept":0.001,"eps":0.1,"epv":1.0,"lon":4.817951708845758,"time":"2015-09-24T10:54:09.146Z","epd":0.1,"epx":1.0,"speed":10.547950044936691,"alt":0.0,"epy":1.0,"track":344.48129106367935,"class":"TPV","lat":52.16168159218139,"mode":3}
{"ept":0.001,"eps":0.1,"epv":1.0,"lon":4.817910299503983,"time":"2015-09-24T10:54:10.146Z","epd":0.1,"epx":1.0,"speed":10.547950044936691,"alt":0.0,"epy":1.0,"track":344.48129106367935,"class":"TPV","lat":52.16177299387759,"mode":3}
{"ept":0.001,"eps":0.1,"epv":1.0,"lon":4.817868890162208,"time":"2015-09-24T10:54:11.146Z","epd":0.1,"epx":1.0,"speed":10.547950044936691,"alt":0.0,"epy":1.0,"track":344.48129106367935,"class":"TPV","lat":52.1618643955738,"mode":3}
{"ept":0.001,"eps":0.1,"epv":1.0,"lon":4.817827480820433,"time":"2015-09-24T10:54:12.146Z","epd":0.1,"epx":1.0,"speed":10.547950044936691,"alt":0.0,"epy":1.0,"track":344.48129106367935,"class":"TPV","lat":52.161955797270004,"mode":3}
{"ept":0.001,"eps":0.1,"epv":1.0,"lon":4.817786071478658,"time":"2015-09-24T10:54:13.146Z","epd":0.1,"epx":1.0,"speed":10.547950044936691,"alt":0.0,"epy":1.0,"track":344.48129106367935,"class":"TPV","lat":52.162047198966214,"mode":3}
{"ept":0.001,"eps":0.1,"epv":1.0,"lon":4.8177446621368825,"time":"2015-09-24T10:54:14.146Z","epd":0.1,"epx":1.0,"speed":10.547950044936691,"alt":0.0,"epy":1.0,"track":344.48129106367935,"class":"TPV","lat":52.162138600662416,"mode":3}
{"ept":0.001,"eps":0.1,"epv":1.0,"lon":4.817703252795107,"time":"2015-09-24T10:54:15.146Z","epd":0.1,"epx":1.0,"speed":10.547950044936691,"alt":0.0,"epy":1.0,"track":344.48129106367935,"class":"TPV","lat":52.162230002358626,"mode":3}
{"ept":0.001,"eps":0.1,"epv":1.0,"lon":4.817661843453332,"time":"2015-09-24T10:54:16.146Z","epd":0.1,"epx":1.0,"speed":10.547950044936691,"alt":0.0,"epy":1.0,"track":344.48129106367935,"class":"TPV","lat":52.162321404054836,"mode":3}
{"ept":0.001,"eps":0.1,"epv":1.0,"lon":4.817620434111557,"time":"2015-09-24T10:54:17.146Z","epd":0.1,"epx":1.0,"speed":10.547950044936691,"alt":0.0,"epy":1.0,"track":344.48129106367935,"class":"TPV","lat":52.16241280575104,"mode":3}
{"ept":0.001,"eps":0.1,"epv":1.0,"lon":4.817579024769781,"time":"2015-09-24T10:54:18.146Z","epd":0.1,"epx":1.0,"speed":10.547950044936691,"alt":0.0,"epy":1.0,"track":344.48129106367935,"class":"TPV","lat":52.16250420744725,"mode":3}
{"ept":0.001,"eps":0.1,"epv":1.0,"lon":4.817537615428006,"time":"2015-09-24T10:54:19.146Z","epd":0.1,"epx":1.0,"speed":10.547950044936691,"alt":0.0,"epy":1.0,"track":344.48129106367935,"class":"TPV","lat":52.16259560914345,"mode":3}
{"ept":0.001,"eps":0.1,"epv":1.0,"lon":4.817496206086231,"time":"2015-09-24T10:54:20.146Z","epd":0.1,"epx":1.0,"speed":10.547950044936691,"alt":0.0,"epy":1.0,"track":344.48129106367935,"class":"TPV","lat":52.16268701083966,"mode":3}
{"ept":0.001,"eps":0.1,"epv":1.0,"lon":4.817454796744456,"time":"2015-09-24T10:54:21.146Z","epd":0.1,"epx":1.0,"speed":10.547950044936691,"alt":0.0,"epy":1.0,"track":344.48129106367935,"class":"TPV","lat":52.162778412535864,"mode":3}
{"ept":0.001,"eps":0.1,"epv":1.0,"lon":4.817413387402681,"time":"2015-09-24T10:54:22.146Z","epd":0.1,"epx":1.0,"speed":10.547950044936691,"alt":0.0,"epy":1.0,"track":344.48129106367935,"class":"TPV","lat":52.162869814232074,"mode":3}
{"ept":0.001,"eps":0.1,"epv":1.0,"lon":4.817371978060906,"time":"2015-09-24T10:54:23.146Z","epd":0.1,"epx":1.0,"speed":10.547950044936691,"alt":0.0,"epy":1.0,"track":344.48129106367935,"class":"TPV","lat":52.16296121592828,"mode":3}
{"ept":0.001,"eps":0.1,"epv":1.0,"lon":4.817330568719131,"time":"2015-09-24T10:54:24.146Z","epd":0.1,"epx":1.0,"speed":10.547950044936691,"alt":0.0,"epy":1.0,"track":344.48129106367935,"class":"TPV","lat":52.16305261762449,"mode":3}
{"ept":0.001,"eps":0.1,"epv":1.0,"lon":4.8172891593773555,"time":"2015-09-24T10:54:25.146Z","epd":0.1,"epx":1.0,"speed":10.547950044936691,"alt":0.0,"epy":1.0,"track":344.48129106367935,"class":"TPV","lat":52.16314401932069,"mode":3}
{"ept":0.001,"eps":0.1,"epv":1.0,"lon":4.81724775003558,"time":"2015-09-24T10:54:26.146Z","epd":0.1,"epx":1.0,"speed":10.547950044936691,"alt":0.0,"epy":1.0,"track":344.48129106367935,"class":"TPV","lat":52.1632354210169,"mode":3}
{"ept":0.001,"eps":0.1,"epv":1.0,"lon":4.817206340693805,"time":"2015-09-24T10:54:27.146Z","epd":0.1,"epx":1.0,"speed":10.547950044936691,"alt":0.0,"epy":1.0,"track":344.48129106367935,"class":"TPV","lat":52.1633268227131,"mode":3}
{"ept":0.001,"eps":0.1,"epv":1.0,"lon":4.81716493135203,"time":"2015-09-24T10:54:28.146Z","epd":0.1,"epx":1.0,"speed":10.547950044936691,"alt":0.0,"epy":1.0,"track":344.48129106367935,"class":"TPV","lat":52.16341822440931,"mode":3}
{"ept":0.001,"eps":0.1,"epv":1.0,"lon":4.817123522010255,"time":"2015-09-24T10:54:29.146Z","epd":0.1,"epx":1.0,"speed":10.547950044936691,"alt":0.0,"epy":1.0,"track":344.48129106367935,"class":"TPV","lat":52.163509626105515,"mode":3}
{"ept":0.001,"eps":0.1,"epv":1.0,"lon":4.81708211266848,"time":"2015-09-24T10:54:30.146Z","epd":0.1,"epx":1.0,"speed":10.547950044936691,"alt":0.0,"epy":1.0,"track":344.48129106367935,"class":"TPV","lat":52.163601027801725,"mode":3}
{"ept":0.001,"eps":0.1,"epv":1.0,"lon":4.817040703326705,"time":"2015-09-24T10:54:31.146Z","epd":0.1,"epx":1.0,"speed":10.547950044936691,"alt":0.0,"epy":1.0,"track":344.48129106367935,"class":"TPV","lat":52.16369242949793,"mode":3}
{"ept":0.001,"eps":0.1,"epv":1.0,"lon":4.81699929398493,"time":"2015-09-24T10:54:32.146Z","epd":0.1,"epx":1.0,"speed":10.547950044936691,"alt":0.0,"epy":1.0,"track":344.48129106367935,"class":"TPV","lat":52.16378383119414,"mode":3}
{"ept":0.001,"eps":0.1,"epv":1.0,"lon":4.816957884643155,"time":"2015-09-24T10:54:33.146Z","epd":0.1,"epx":1.0,"speed":10.547950044936691,"alt":0.0,"epy":1.0,"track":344.48129106367935,"class":"TPV","lat":52.16387523289035,"mode":3}
{"ept":0.001,"eps":0.1,"epv":1.0,"lon":4.81691647530138,"time":"2015-09-24T10:54:34.146Z","epd":0.1,"epx":1.0,"speed":10.547950044936691,"alt":0.0,"epy":1.0,"track":344.48129106367935,"class":"TPV","lat":52.16396663458655,"mode":3}
{"ept":0.001,"eps":0.1,"epv":1.0,"lon":4.8168750659596045,"time":"2015-09-24T10:54:35.146Z","epd":0.1,"epx":1.0,"speed":10.547950044936691,"alt":0.0,"epy":1.0,"track":344.48129106367935,"class":"TPV","lat":52.16405803628276,"mode":3}
{"ept":0.001,"eps":0.1,"epv":1.0,"lon":4.816833656617829,"time":"2015-09-24T10:54:36.146Z","epd":0.1,"epx":1.0,"speed":10.547950044936691,"alt":0.0,"epy":1.0,"track":344.48129106367935,"class":"TPV","lat":52.16414943797896,"mode":3}
{"ept":0.001,"eps":0.1,"epv":1.0,"lon":4.816792247276054,"time":"2015-09-24T10:54:37.146Z","epd":0.1,"epx":1.0,"speed":10.547950044936691,"alt":0.0,"epy":1.0,"track":344.48129106367935,"class":"TPV","lat":52.16424083967517,"mode":3}
{"ept":0.001,"eps":0.1,"epv":1.0,"lon":4.816750837934279,"time":"2015-09-24T10:54:38.146Z","epd":0.1,"epx":1.0,"speed":10.547950044936691,"alt":0.0,"epy":1.0,"track":344.48129106367935,"class":"TPV","lat":52.164332241371376,"mode":3}
{"ept":0.001,"eps":0.1,"epv":1.0,"lon":4.816709428592504,"time":"2015-09-24T10:54:39.146Z","epd":0.1,"epx":1.0,"speed":10.547950044936691,"alt":0.0,"epy":1.0,"track":344.48129106367935,"class":"TPV","lat":52.164423643067586,"mode":3}
{"ept":0.001,"eps":0.1,"epv":1.0,"lon":4.816668019250729,"time":"2015-09-24T10:54:40.146Z","epd":0.1,"epx":1.0,"speed":10.547950044936691,"alt":0.0,"epy":1.0,"track":344.48129106367935,"class":"TPV","lat":52.16451504476379,"mode":3}
{"ept":0.001,"eps":0.1,"epv":1.0,"lon":4.816626609908954,"time":"2015-09-24T10:54:41.146Z","epd":0.1,"epx":1.0,"speed":10.547950044936691,"alt":0.0,"epy":1.0,"track":344.48129106367935,"class":"TPV","lat":52.16460644646,"mode":3}
{"ept":0.001,"eps":0.1,"epv":1.0,"lon":4.816585200567179,"time":"2015-09-24T10:54:42.146Z","epd":0.1,"epx":1.0,"speed":10.547950044936691,"alt":0.0,"epy":1.0,"track":344.48129106367935,"class":"TPV","lat":52.1646978481562,"mode":3}
{"ept":0.001,"eps":0.1,"epv":1.0,"lon":4.816543791225404,"time":"2015-09-24T10:54:43.146Z","epd":0.1,"epx":1.0,"speed":10.547950044936691,"alt":0.0,"epy":1.0,"track":344.48129106367935,"class":"TPV","lat":52.16478924985241,"mode":3}
{"ept":0.001,"eps":0.1,"epv":1.0,"lon":4.816502381883629,"time":"2015-09-24T10:54:44.146Z","epd":0.1,"epx":1.0,"speed":10.547950044936691,"alt":0.0,"epy":1.0,"track":344.48129106367935,"class":"TPV","lat":52.164880651548614,"mode":3}
{"ept":0.001,"eps":0.1,"epv":1.0,"lon":4.8164609725418535,"time":"2015-09-24T10:54:45.146Z","epd":0.1,"epx":1.0,"speed":10.547950044936691,"alt":0.0,"epy":1.0,"track":344.48129106367935,"class":"TPV","lat":52.164972053244824,"mode":3}
{"ept":0.001,"eps":0.1,"epv":1.0,"lon":4.816419563200078,"time":"2015-09-24T10:54:46.146Z","epd":0.1,"epx":1.0,"speed":10.547950044936691,"alt":0.0,"epy":1.0,"track":344.48129106367935,"class":"TPV","lat":52.16506345494103,"mode":3}
{"ept":0.001,"eps":0.1,"epv":1.0,"lon":4.816378153858303,"time":"2015-09-24T10:54:47.146Z","epd":0.1,"epx":1.0,"speed":10.547950044936691,"alt":0.0,"epy":1.0,"track":344.48129106367935,"class":"TPV","lat":52.16515485663724,"mode":3}
{"ept":0.001,"eps":0.1,"epv":1.0,"lon":4.816336744516528,"time":"2015-09-24T10:54:48.146Z","epd":0.1,"epx":1.0,"speed":10.547950044936691,"alt":0.0,"epy":1.0,"track":344.48129106367935,"class":"TPV","lat":52.16524625833345,"mode":3}
{"ept":0.001,"eps":0.1,"epv":1.0,"lon":4.816295335174753,"time":"2015-09-24T10:54:49.146Z","epd":0.1,"epx":1.0,"speed":10.547950044936691,"alt":0.0,"epy":1.0,"track":344.48129106367935,"class":"TPV","lat":52.16533766002965,"mode":3}
{"ept":0.001,"eps":0.1,"epv":1.0,"lon":4.816253925832978,"time":"2015-09-24T10:54:50.146Z","epd":0.1,"epx":1.0,"speed":10.547950044936691,"alt":0.0,"epy":1.0,"track":344.48129106367935,"class":"TPV","lat":52.16542906172586,"mode":3}
{"ept":0.001,"eps":0.1,"epv":1.0,"lon":4.816212516491203,"time":"2015-09-24T10:54:51.146Z","epd":0.1,"epx":1.0,"speed":10.547950044936691,"alt":0.0,"epy":1.0,"track":344.48129106367935,"class":"TPV","lat":52.16552046342206,"mode":3}
{"ept":0.001,"eps":0.1,"epv":1.0,"lon":4.816171107149428,"time":"2015-09-24T10:54:52.146Z","epd":0.1,"epx":1.0,"speed":10.547950044936691,"alt":0.0,"epy":1.0,"track":344.48129106367935,"class":"TPV","lat":52.16561186511827,"mode":3}
{"ept":0.001,"eps":0.1,"epv":1.0,"lon":4.816129697807653,"time":"2015-09-24T10:54:53.146Z","epd":0.1,"epx":1.0,"speed":10.547950044936691,"alt":0.0,"epy":1.0,"track":344.48129106367935,"class":"TPV","lat":52.165703266814475,"mode":3}
{"ept":0.001,"eps":0.1,"epv":1.0,"lon":4.8160882884658776,"time":"2015-09-24T10:54:54.146Z","epd":0.1,"epx":1.0,"speed":10.547950044936691,"alt":0.0,"epy":1.0,"track":344.48129106367935,"class":"TPV","lat":52.165794668510685,"mode":3}
{"ept":0.001,"eps":0.1,"epv":1.0,"lon":4.8160468791241025,"time":"2015-09-24T10:54:55.146Z","epd":0.1,"epx":1.0,"speed":10.547950044936691,"alt":0.0,"epy":1.0,"track":344.48129106367935,"class":"TPV","lat":52.16588607020689,"mode":3}
{"ept":0.001,"eps":0.1,"epv":1.0,"lon":4.8160054697823265,"time":"2015-09-24T10:54:56.146Z","epd":0.1,"epx":1.0,"speed":10.547950044936691,"alt":0.0,"epy":1.0,"track":344.48129106367935,"class":"TPV","lat":52.1659774719031,"mode":3}
{"ept":0.001,"eps":0.1,"epv":1.0,"lon":4.815964060440551,"time":"2015-09-24T10:54:57.146Z","epd":0.1,"epx":1.0,"speed":10.547950044936691,"alt":0.0,"epy":1.0,"track":344.48129106367935,"class":"TPV","lat":52.1660688735993,"mode":3}
{"ept":0.001,"eps":0.1,"epv":1.0,"lon":4.815922651098776,"time":"2015-09-24T10:54:58.146Z","epd":0.1,"epx":1.0,"speed":10.547950044936691,"alt":0.0,"epy":1.0,"track":344.48129106367935,"class":"TPV","lat":52.16616027529551,"mode":3}
{"ept":0.001,"eps":0.1,"epv":1.0,"lon":4.815881241757001,"time":"2015-09-24T10:54:59.146Z","epd":0.1,"epx":1.0,"speed":10.547950044936691,"alt":0.0,"epy":1.0,"track":344.48129106367935,"class":"TPV","lat":52.16625167699171,"mode":3}
{"ept":0.001,"eps":0.1,"epv":1.0,"lon":4.815839832415226,"time":"2015-09-24T10:55:00.146Z","epd":0.1,"epx":1.0,"speed":10.547950044936691,"alt":0.0,"epy":1.0,"track":344.48129106367935,"class":"TPV","lat":52.16634307868792,"mode":3}
{"ept":0.001,"eps":0.1,"epv":1.0,"lon":4.815798423073451,"time":"2015-09-24T10:55:01.146Z","epd":0.1,"epx":1.0,"speed":10.547950044936691,"alt":0.0,"epy":1.0,"track":344.48129106367935,"class":"TPV","lat":52.166434480384126,"mode":3}
{"ept":0.001,"eps":0.1,"epv":1.0,"lon":4.815757013731676,"time":"2015-09-24T10:55:02.146Z","epd":0.1,"epx":1.0,"speed":10.547950044936691,"alt":0.0,"epy":1.0,"track":344.48129106367935,"class":"TPV","lat":52.166525882080336,"mode":3}
{"ept":0.001,"eps":0.1,"epv":1.0,"lon":4.815715604389901,"time":"2015-09-24T10:55:03.146Z","epd":0.1,"epx":1.0,"speed":10.547950044936691,"alt":0.0,"epy":1.0,"track":344.48129106367935,"class":"TPV","lat":52.16661728377654,"mode":3}
{"ept":0.001,"eps":0.1,"epv":1.0,"lon":4.815674195048126,"time":"2015-09-24T10:55:04.146Z","epd":0.1,"epx":1.0,"speed":10.547950044936691,"alt":0.0,"epy":1.0,"track":344.48129106367935,"class":"TPV","lat":52.16670868547275,"mode":3}
{"ept":0.001,"eps":0.1,"epv":1.0,"lon":4.815632785706351,"time":"2015-09-24T10:55:05.146Z","epd":0.1,"epx":1.0,"speed":10.547950044936691,"alt":0.0,"epy":1.0,"track":344.48129106367935,"class":"TPV","lat":52.16680008716896,"mode":3}
{"ept":0.001,"eps":0.1,"epv":1.0,"lon":4.8155913763645755,"time":"2015-09-24T10:55:06.146Z","epd":0.1,"epx":1.0,"speed":10.547950044936691,"alt":0.0,"epy":1.0,"track":344.48129106367935,"class":"TPV","lat":52.16689148886516,"mode":3}
{"ept":0.001,"eps":0.1,"epv":1.0,"lon":4.8155499670228,"time":"2015-09-24T10:55:07.146Z","epd":0.1,"epx":1.0,"speed":10.547950044936691,"alt":0.0,"epy":1.0,"track":344.48129106367935,"class":"TPV","lat":52.16698289056137,"mode":3}
{"ept":0.001,"eps":0.1,"epv":1.0,"lon":4.815508557681025,"time":"2015-09-24T10:55:08.146Z","epd":0.1,"epx":1.0,"speed":10.547950044936691,"alt":0.0,"epy":1.0,"track":344.48129106367935,"class":"TPV","lat":52.167074292257574,"mode":3}
{"ept":0.001,"eps":0.1,"epv":1.0,"lon":4.81546714833925,"time":"2015-09-24T10:55:09.146Z","epd":0.1,"epx":1.0,"speed":10.547950044936691,"alt":0.0,"epy":1.0,"track":344.48129106367935,"class":"TPV","lat":52.167165693953784,"mode":3}
{"ept":0.001,"eps":0.1,"epv":1.0,"lon":4.815425738997475,"time":"2015-09-24T10:55:10.146Z","epd":0.1,"epx":1.0,"speed":10.547950044936691,"alt":0.0,"epy":1.0,"track":344.48129106367935,"class":"TPV","lat":52.16725709564999,"mode":3}
{"ept":0.001,"eps":0.1,"epv":1.0,"lon":4.8153843296557,"time":"2015-09-24T10:55:11.146Z","epd":0.1,"epx":1.0,"speed":10.547950044936691,"alt":0.0,"epy":1.0,"track":344.48129106367935,"class":"TPV","lat":52.1673484973462,"mode":3}
{"ept":0.001,"eps":0.1,"epv":1.0,"lon":4.815342920313925,"time":"2015-09-24T10:55:12.146Z","epd":0.1,"epx":1.0,"speed":10.547950044936691,"alt":0.0,"epy":1.0,"track":344.48129106367935,"class":"TPV","lat":52.1674398990424,"mode":3}
{"ept":0.001,"eps":0.1,"epv":1.0,"lon":4.81530151097215,"time":"2015-09-24T10:55:13.146Z","epd":0.1,"epx":1.0,"speed":10.547950044936691,"alt":0.0,"epy":1.0,"track":344.48129106367935,"class":"TPV","lat":52.16753130073861,"mode":3}
{"ept":0.001,"eps":0.1,"epv":1.0,"lon":4.815260101630375,"time":"2015-09-24T10:55:14.146Z","epd":0.1,"epx":1.0,"speed":10.547950044936691,"alt":0.0,"epy":1.0,"track":344.48129106367935,"class":"TPV","lat":52.16762270243481,"mode":3}
{"ept":0.001,"eps":0.1,"epv":1.0,"lon":4.8152186922885996,"time":"2015-09-24T10:55:15.146Z","epd":0.1,"epx":1.0,"speed":10.547950044936691,"alt":0.0,"epy":1.0,"track":344.48129106367935,"class":"TPV","lat":52.16771410413102,"mode":3}
{"ept":0.001,"eps":0.1,"epv":1.0,"lon":4.8151772829468245,"time":"2015-09-24T10:55:16.146Z","epd":0.1,"epx":1.0,"speed":10.547950044936691,"alt":0.0,"epy":1.0,"track":344.48129106367935,"class":"TPV","lat":52.167805505827225,"mode":3}
{"ept":0.001,"eps":0.1,"epv":1.0,"lon":4.815135873605049,"time":"2015-09-24T10:55:17.146Z","epd":0.1,"epx":1.0,"speed":10.547950044936691,"alt":0.0,"epy":1.0,"track":344.48129106367935,"class":"TPV","lat":52.167896907523435,"mode":3}
{"ept":0.001,"eps":0.1,"epv":1.0,"lon":4.815094464263274,"time":"2015-09-24T10:55:18.146Z","epd":0.1,"epx":1.0,"speed":10.547950044936691,"alt":0.0,"epy":1.0,"track":344.48129106367935,"class":"TPV","lat":52.16798830921964,"mode":3}
{"ept":0.001,"eps":0.1,"epv":1.0,"lon":4.815053054921499,"time":"2015-09-24T10:55:19.146Z","epd":0.1,"epx":1.0,"speed":10.547950044936691,"alt":0.0,"epy":1.0,"track":344.48129106367935,"class":"TPV","lat":52.16807971091585,"mode":3}
{"ept":0.001,"eps":0.1,"epv":1.0,"lon":4.815011645579724,"time":"2015-09-24T10:55:20.146Z","epd":0.1,"epx":1.0,"speed":10.547950044936691,"alt":0.0,"epy":1.0,"track":344.48129106367935,"class":"TPV","lat":52.16817111261206,"mode":3}
{"ept":0.001,"eps":0.1,"epv":1.0,"lon":4.814970236237949,"time":"2015-09-24T10:55:21.146Z","epd":0.1,"epx":1.0,"speed":10.547950044936691,"alt":0.0,"epy":1.0,"track":344.48129106367935,"class":"TPV","lat":52.16826251430826,"mode":3}
{"ept":0.001,"eps":0.1,"epv":1.0,"lon":4.814928826896174,"time":"2015-09-24T10:55:22.146Z","epd":0.1,"epx":1.0,"speed":10.547950044936691,"alt":0.0,"epy":1.0,"track":344.48129106367935,"class":"TPV","lat":52.16835391600447,"mode":3}
{"ept":0.001,"eps":0.1,"epv":1.0,"lon":4.814887417554399,"time":"2015-09-24T10:55:23.146Z","epd":0.1,"epx":1.0,"speed":10.547950044936691,"alt":0.0,"epy":1.0,"track":344.48129106367935,"class":"TPV","lat":52.16844531770067,"mode":3}
{"ept":0.001,"eps":0.1,"epv":1.0,"lon":4.814846008212624,"time":"2015-09-24T10:55:24.146Z","epd":0.1,"epx":1.0,"speed":10.547950044936691,"alt":0.0,"epy":1.0,"track":344.48129106367935,"class":"TPV","lat":52.16853671939688,"mode":3}
{"ept":0.001,"eps":0.1,"epv":1.0,"lon":4.8148045988708486,"time":"2015-09-24T10:55:25.146Z","epd":0.1,"epx":1.0,"speed":10.547950044936691,"alt":0.0,"epy":1.0,"track":344.48129106367935,"class":"TPV","lat":52.168628121093086,"mode":3}
{"ept":0.001,"eps":0.1,"epv":1.0,"lon":4.8147631895290735,"time":"2015-09-24T10:55:26.146Z","epd":0.1,"epx":1.0,"speed":10.547950044936691,"alt":0.0,"epy":1.0,"track":344.48129106367935,"class":"TPV","lat":52.168719522789296,"mode":3}
{"ept":0.001,"eps":0.1,"epv":1.0,"lon":4.814721780187298,"time":"2015-09-24T10:55:27.146Z","epd":0.1,"epx":1.0,"speed":10.547950044936691,"alt":0.0,"epy":1.0,"track":344.48129106367935,"class":"TPV","lat":52.1688109244855,"mode":3}
{"ept":0.001,"eps":0.1,"epv":1.0,"lon":4.814680370845523,"time":"2015-09-24T10:55:28.146Z","epd":0.1,"epx":1.0,"speed":10.547950044936691,"alt":0.0,"epy":1.0,"track":344.48129106367935,"class":"TPV","lat":52.16890232618171,"mode":3}
{"ept":0.001,"eps":0.1,"epv":1.0,"lon":4.814638961503748,"time":"2015-09-24T10:55:29.146Z","epd":0.1,"epx":1.0,"speed":10.547950044936691,"alt":0.0,"epy":1.0,"track":344.48129106367935,"class":"TPV","lat":52.16899372787791,"mode":3}
{"ept":0.001,"eps":0.1,"epv":1.0,"lon":4.814597552161973,"time":"2015-09-24T10:55:30.146Z","epd":0.1,"epx":1.0,"speed":10.547950044936691,"alt":0.0,"epy":1.0,"track":344.48129106367935,"class":"TPV","lat":52.16908512957412,"mode":3}
{"ept":0.001,"eps":0.1,"epv":1.0,"lon":4.814556142820198,"time":"2015-09-24T10:55:31.146Z","epd":0.1,"epx":1.0,"speed":10.547950044936691,"alt":0.0,"epy":1.0,"track":344.48129106367935,"class":"TPV","lat":52.169176531270324,"mode":3}
{"ept":0.001,"eps":0.1,"epv":1.0,"lon":4.814514733478423,"time":"2015-09-24T10:55:32.146Z","epd":0.1,"epx":1.0,"speed":10.547950044936691,"alt":0.0,"epy":1.0,"track":344.48129106367935,"class":"TPV","lat":52.169267932966534,"mode":3}
{"ept":0.001,"eps":0.1,"epv":1.0,"lon":4.814473324136648,"time":"2015-09-24T10:55:33.146Z","epd":0.1,"epx":1.0,"speed":10.547950044936691,"alt":0.0,"epy":1.0,"track":344.48129106367935,"class":"TPV","lat":52.16935933466274,"mode":3}
{"ept":0.001,"eps":0.1,"epv":1.0,"lon":4.814431914794872,"time":"2015-09-24T10:55:34.146Z","epd":0.1,"epx":1.0,"speed":10.547950044936691,"alt":0.0,"epy":1.0,"track":344.48129106367935,"class":"TPV","lat":52.16945073635895,"mode":3}
{"ept":0.001,"eps":0.1,"epv":1.0,"lon":4.814390505453097,"time":"2015-09-24T10:55:35.146Z","epd":0.1,"epx":1.0,"speed":10.547950044936691,"alt":0.0,"epy":1.0,"track":344.48129106367935,"class":"TPV","lat":52.16954213805515,"mode":3}
{"ept":0.001,"eps":0.1,"epv":1.0,"lon":4.814349096111322,"time":"2015-09-24T10:55:36.146Z","epd":0.1,"epx":1.0,"speed":10.547950044936691,"alt":0.0,"epy":1.0,"track":344.48129106367935,"class":"TPV","lat":52.16963353975136,"mode":3}
{"ept":0.001,"eps":0.1,"epv":1.0,"lon":4.8143076867695465,"time":"2015-09-24T10:55:37.146Z","epd":0.1,"epx":1.0,"speed":10.547950044936691,"alt":0.0,"epy":1.0,"track":344.48129106367935,"class":"TPV","lat":52.16972494144757,"mode":3}
{"ept":0.001,"eps":0.1,"epv":1.0,"lon":4.814266277427771,"time":"2015-09-24T10:55:38.146Z","epd":0.1,"epx":1.0,"speed":10.547950044936691,"alt":0.0,"epy":1.0,"track":344.48129106367935,"class":"TPV","lat":52.16981634314377,"mode":3}
{"ept":0.001,"eps":0.1,"epv":1.0,"lon":4.814224868085996,"time":"2015-09-24T10:55:39.146Z","epd":0.1,"epx":1.0,"speed":10.547950044936691,"alt":0.0,"epy":1.0,"track":344.48129106367935,"class":"TPV","lat":52.16990774483998,"mode":3}
{"ept":0.001,"eps":0.1,"epv":1.0,"lon":4.814183458744221,"time":"2015-09-24T10:55:40.146Z","epd":0.1,"epx":1.0,"speed":10.547950044936691,"alt":0.0,"epy":1.0,"track":344.48129106367935,"class":"TPV","lat":52.169999146536185,"mode":3}
{"ept":0.001,"eps":0.1,"epv":1.0,"lon":4.814142049402446,"time":"2015-09-24T10:55:41.146Z","epd":0.1,"epx":1.0,"speed":10.547950044936691,"alt":0.0,"epy":1.0,"track":344.48129106367935,"class":"TPV","lat":52.170090548232395,"mode":3}
{"ept":0.001,"eps":0.1,"epv":1.0,"lon":4.814100640060671,"time":"2015-09-24T10:55:42.146Z","epd":0.1,"epx":1.0,"speed":10.547950044936691,"alt":0.0,"epy":1.0,"track":344.48129106367935,"class":"TPV","lat":52.1701819499286,"mode":3}
{"ept":0.001,"eps":0.1,"epv":1.0,"lon":4.814059230718896,"time":"2015-09-24T10:55:43.146Z","epd":0.1,"epx":1.0,"speed":10.547950044936691,"alt":0.0,"epy":1.0,"track":344.48129106367935,"class":"TPV","lat":52.17027335162481,"mode":3}
{"ept":0.001,"eps":0.1,"epv":1.0,"lon":4.814017821377121,"time":"2015-09-24T10:55:44.146Z","epd":0.1,"epx":1.0,"speed":10.547950044936691,"alt":0.0,"epy":1.0,"track":344.48129106367935,"class":"TPV","lat":52.17036475332101,"mode":3}
{"ept":0.001,"eps":0.1,"epv":1.0,"lon":4.813976412035346,"time":"2015-09-24T10:55:45.146Z","epd":0.1,"epx":1.0,"speed":10.547950044936691,"alt":0.0,"epy":1.0,"track":344.48129106367935,"class":"TPV","lat":52.17045615501722,"mode":3}
{"ept":0.001,"eps":0.1,"epv":1.0,"lon":4.8139350026935706,"time":"2015-09-24T10:55:46.146Z","epd":0.1,"epx":1.0,"speed":10.547950044936691,"alt":0.0,"epy":1.0,"track":344.48129106367935,"class":"TPV","lat":52.17054755671342,"mode":3}
{"ept":0.001,"eps":0.1,"epv":1.0,"lon":4.8138935933517955,"time":"2015-09-24T10:55:47.146Z","epd":0.1,"epx":1.0,"speed":10.547950044936691,"alt":0.0,"epy":1.0,"track":344.48129106367935,"class":"TPV","lat":52.17063895840963,"mode":3}
{"ept":0.001,"eps":0.1,"epv":1.0,"lon":4.81385218401002,"time":"2015-09-24T10:55:48.146Z","epd":0.1,"epx":1.0,"speed":10.547950044936691,"alt":0.0,"epy":1.0,"track":344.48129106367935,"class":"TPV","lat":52.170730360105836,"mode":3}
{"ept":0.001,"eps":0.1,"epv":1.0,"lon":4.813810774668245,"time":"2015-09-24T10:55:49.146Z","epd":0.1,"epx":1.0,"speed":10.547950044936691,"alt":0.0,"epy":1.0,"track":344.48129106367935,"class":"TPV","lat":52.170821761802046,"mode":3}
{"ept":0.001,"eps":0.1,"epv":1.0,"lon":4.81376936532647,"time":"2015-09-24T10:55:50.146Z","epd":0.1,"epx":1.0,"speed":10.547950044936691,"alt":0.0,"epy":1.0,"track":344.48129106367935,"class":"TPV","lat":52.17091316349825,"mode":3}
{"ept":0.001,"eps":0.1,"epv":1.0,"lon":4.813727955984695,"time":"2015-09-24T10:55:51.146Z","epd":0.1,"epx":1.0,"speed":10.547950044936691,"alt":0.0,"epy":1.0,"track":344.48129106367935,"class":"TPV","lat":52.17100456519446,"mode":3}
{"ept":0.001,"eps":0.1,"epv":1.0,"lon":4.81368654664292,"time":"2015-09-24T10:55:52.146Z","epd":0.1,"epx":1.0,"speed":10.547950044936691,"alt":0.0,"epy":1.0,"track":344.48129106367935,"class":"TPV","lat":52.17109596689067,"mode":3}
{"ept":0.001,"eps":0.1,"epv":1.0,"lon":4.813645137301145,"time":"2015-09-24T10:55:53.146Z","epd":0.1,"epx":1.0,"speed":10.547950044936691,"alt":0.0,"epy":1.0,"track":344.48129106367935,"class":"TPV","lat":52.17118736858687,"mode":3}
{"ept":0.001,"eps":0.1,"epv":1.0,"lon":4.81360372795937,"time":"2015-09-24T10:55:54.146Z","epd":0.1,"epx":1.0,"speed":10.547950044936691,"alt":0.0,"epy":1.0,"track":344.48129106367935,"class":"TPV","lat":52.17127877028308,"mode":3}
{"ept":0.001,"eps":0.1,"epv":1.0,"lon":4.813562318617595,"time":"2015-09-24T10:55:55.146Z","epd":0.1,"epx":1.0,"speed":10.547950044936691,"alt":0.0,"epy":1.0,"track":344.48129106367935,"class":"TPV","lat":52.171370171979284,"mode":3}
{"ept":0.001,"eps":0.1,"epv":1.0,"lon":4.8135209092758195,"time":"2015-09-24T10:55:56.146Z","epd":0.1,"epx":1.0,"speed":10.547950044936691,"alt":0.0,"epy":1.0,"track":344.48129106367935,"class":"TPV","lat":52.171461573675494,"mode":3}
{"ept":0.001,"eps":0.1,"epv":1.0,"lon":4.8134794999340444,"time":"2015-09-24T10:55:57.146Z","epd":0.1,"epx":1.0,"speed":10.547950044936691,"alt":0.0,"epy":1.0,"track":344.48129106367935,"class":"TPV","lat":52.1715529753717,"mode":3}
{"ept":0.001,"eps":0.1,"epv":1.0,"lon":4.813438090592269,"time":"2015-09-24T10:55:58.146Z","epd":0.1,"epx":1.0,"speed":10.547950044936691,"alt":0.0,"epy":1.0,"track":344.48129106367935,"class":"TPV","lat":52.171644377067906,"mode":3}
{"ept":0.001,"eps":0.1,"epv":1.0,"lon":4.813396681250494,"time":"2015-09-24T10:55:59.146Z","epd":0.1,"epx":1.0,"speed":10.547950044936691,"alt":0.0,"epy":1.0,"track":344.48129106367935,"class":"TPV","lat":52.17173577876411,"mode":3}
{"ept":0.001,"eps":0.1,"epv":1.0,"lon":4.813355271908719,"time":"2015-09-24T10:56:00.146Z","epd":0.1,"epx":1.0,"speed":10.547950044936691,"alt":0.0,"epy":1.0,"track":344.48129106367935,"class":"TPV","lat":52.17182718046032,"mode":3}
{"ept":0.001,"eps":0.1,"epv":1.0,"lon":4.813313862566944,"time":"2015-09-24T10:56:01.146Z","epd":0.1,"epx":1.0,"speed":10.547950044936691,"alt":0.0,"epy":1.0,"track":344.48129106367935,"class":"TPV","lat":52.17191858215652,"mode":3}
{"ept":0.001,"eps":0.1,"epv":1.0,"lon":4.813272453225169,"time":"2015-09-24T10:56:02.146Z","epd":0.1,"epx":1.0,"speed":10.547950044936691,"alt":0.0,"epy":1.0,"track":344.48129106367935,"class":"TPV","lat":52.17200998385273,"mode":3}
{"ept":0.001,"eps":0.1,"epv":1.0,"lon":4.813231043883394,"time":"2015-09-24T10:56:03.146Z","epd":0.1,"epx":1.0,"speed":10.547950044936691,"alt":0.0,"epy":1.0,"track":344.48129106367935,"class":"TPV","lat":52.172101385548935,"mode":3}
{"ept":0.001,"eps":0.1,"epv":1.0,"lon":4.813189634541619,"time":"2015-09-24T10:56:04.146Z","epd":0.1,"epx":1.0,"speed":10.547950044936691,"alt":0.0,"epy":1.0,"track":344.48129106367935,"class":"TPV","lat":52.172192787245145,"mode":3}
{"ept":0.001,"eps":0.1,"epv":1.0,"lon":4.813148225199844,"time":"2015-09-24T10:56:05.146Z","epd":0.1,"epx":1.0,"speed":10.547950044936691,"alt":0.0,"epy":1.0,"track":344.48129106367935,"class":"TPV","lat":52.17228418894135,"mode":3}
{"ept":0.001,"eps":0.1,"epv":1.0,"lon":4.8131068158580685,"time":"2015-09-24T10:56:06.146Z","epd":0.1,"epx":1.0,"speed":10.547950044936691,"alt":0.0,"epy":1.0,"track":344.48129106367935,"class":"TPV","lat":52.17237559063756,"mode":3}
{"ept":0.001,"eps":0.1,"epv":1.0,"lon":4.813065406516293,"time":"2015-09-24T10:56:07.146Z","epd":0.1,"epx":1.0,"speed":10.547950044936691,"alt":0.0,"epy":1.0,"track":344.48129106367935,"class":"TPV","lat":52.17246699233376,"mode":3}
{"ept":0.001,"eps":0.1,"epv":1.0,"lon":4.813023997174518,"time":"2015-09-24T10:56:08.146Z","epd":0.1,"epx":1.0,"speed":10.547950044936691,"alt":0.0,"epy":1.0,"track":344.48129106367935,"class":"TPV","lat":52.17255839402997,"mode":3}
{"ept":0.001,"eps":0.1,"epv":1.0,"lon":4.812982587832743,"time":"2015-09-24T10:56:09.146Z","epd":0.1,"epx":1.0,"speed":10.547950044936691,"alt":0.0,"epy":1.0,"track":344.48129106367935,"class":"TPV","lat":52.17264979572618,"mode":3}
{"ept":0.001,"eps":0.1,"epv":1.0,"lon":4.812941178490968,"time":"2015-09-24T10:56:10.146Z","epd":0.1,"epx":1.0,"speed":10.547950044936691,"alt":0.0,"epy":1.0,"track":344.48129106367935,"class":"TPV","lat":52.17274119742238,"mode":3}
{"ept":0.001,"eps":0.1,"epv":1.0,"lon":4.812899769149193,"time":"2015-09-24T10:56:11.146Z","epd":0.1,"epx":1.0,"speed":10.547950044936691,"alt":0.0,"epy":1.0,"track":344.48129106367935,"class":"TPV","lat":52.17283259911859,"mode":3}
{"ept":0.001,"eps":0.1,"epv":1.0,"lon":4.812858359807417,"time":"2015-09-24T10:56:12.146Z","epd":0.1,"epx":1.0,"speed":10.547950044936691,"alt":0.0,"epy":1.0,"track":344.48129106367935,"class":"TPV","lat":52.172924000814795,"mode":3}
{"ept":0.001,"eps":0.1,"epv":1.0,"lon":4.812816950465642,"time":"2015-09-24T10:56:13.146Z","epd":0.1,"epx":1.0,"speed":10.547950044936691,"alt":0.0,"epy":1.0,"track":344.48129106367935,"class":"TPV","lat":52.173015402511005,"mode":3}
{"ept":0.001,"eps":0.1,"epv":1.0,"lon":4.812775541123867,"time":"2015-09-24T10:56:14.146Z","epd":0.1,"epx":1.0,"speed":10.547950044936691,"alt":0.0,"epy":1.0,"track":344.48129106367935,"class":"TPV","lat":52.17310680420721,"mode":3}
{"ept":0.001,"eps":0.1,"epv":1.0,"lon":4.812734131782092,"time":"2015-09-24T10:56:15.146Z","epd":0.1,"epx":1.0,"speed":10.547950044936691,"alt":0.0,"epy":1.0,"track":344.48129106367935,"class":"TPV","lat":52.17319820590342,"mode":3}
{"ept":0.001,"eps":0.1,"epv":1.0,"lon":4.812692722440317,"time":"2015-09-24T10:56:16.146Z","epd":0.1,"epx":1.0,"speed":10.547950044936691,"alt":0.0,"epy":1.0,"track":344.48129106367935,"class":"TPV","lat":52.17328960759962,"mode":3}
{"ept":0.001,"eps":0.1,"epv":1.0,"lon":4.8126513130985416,"time":"2015-09-24T10:56:17.146Z","epd":0.1,"epx":1.0,"speed":10.547950044936691,"alt":0.0,"epy":1.0,"track":344.48129106367935,"class":"TPV","lat":52.17338100929583,"mode":3}
{"ept":0.001,"eps":0.1,"epv":1.0,"lon":4.8126099037567664,"time":"2015-09-24T10:56:18.146Z","epd":0.1,"epx":1.0,"speed":10.547950044936691,"alt":0.0,"epy":1.0,"track":344.48129106367935,"class":"TPV","lat":52.173472410992034,"mode":3}
{"ept":0.001,"eps":0.1,"epv":1.0,"lon":4.812568494414991,"time":"2015-09-24T10:56:19.146Z","epd":0.1,"epx":1.0,"speed":10.547950044936691,"alt":0.0,"epy":1.0,"track":344.48129106367935,"class":"TPV","lat":52.17356381268824,"mode":3}
{"ept":0.001,"eps":0.1,"epv":1.0,"lon":4.812527085073216,"time":"2015-09-24T10:56:20.146Z","epd":0.1,"epx":1.0,"speed":10.547950044936691,"alt":0.0,"epy":1.0,"track":344.48129106367935,"class":"TPV","lat":52.173655214384446,"mode":3}
{"ept":0.001,"eps":0.1,"epv":1.0,"lon":4.812485675731441,"time":"2015-09-24T10:56:21.146Z","epd":0.1,"epx":1.0,"speed":10.547950044936691,"alt":0.0,"epy":1.0,"track":344.48129106367935,"class":"TPV","lat":52.173746616080656,"mode":3}
{"ept":0.001,"eps":0.1,"epv":1.0,"lon":4.812444266389666,"time":"2015-09-24T10:56:22.146Z","epd":0.1,"epx":1.0,"speed":10.547950044936691,"alt":0.0,"epy":1.0,"track":344.48129106367935,"class":"TPV","lat":52.17383801777686,"mode":3}
{"ept":0.001,"eps":0.1,"epv":1.0,"lon":4.812402857047891,"time":"2015-09-24T10:56:23.146Z","epd":0.1,"epx":1.0,"speed":10.547950044936691,"alt":0.0,"epy":1.0,"track":344.48129106367935,"class":"TPV","lat":52.17392941947307,"mode":3}
{"ept":0.001,"eps":0.1,"epv":1.0,"lon":4.812361447706116,"time":"2015-09-24T10:56:24.146Z","epd":0.1,"epx":1.0,"speed":10.547950044936691,"alt":0.0,"epy":1.0,"track":344.48129106367935,"class":"TPV","lat":52.17402082116928,"mode":3}
{"ept":0.001,"eps":0.1,"epv":1.0,"lon":4.812320038364341,"time":"2015-09-24T10:56:25.146Z","epd":0.1,"epx":1.0,"speed":10.547950044936691,"alt":0.0,"epy":1.0,"track":344.48129106367935,"class":"TPV","lat":52.17411222286548,"mode":3}
{"ept":0.001,"eps":0.1,"epv":1.0,"lon":4.812278629022566,"time":"2015-09-24T10:56:26.146Z","epd":0.1,"epx":1.0,"speed":10.547950044936691,"alt":0.0,"epy":1.0,"track":344.48129106367935,"class":"TPV","lat":52.17420362456169,"mode":3}
{"ept":0.001,"eps":0.1,"epv":1.0,"lon":4.8122372196807905,"time":"2015-09-24T10:56:27.146Z","epd":0.1,"epx":1.0,"speed":10.547950044936691,"alt":0.0,"epy":1.0,"track":344.48129106367935,"class":"TPV","lat":52.174295026257894,"mode":3}
{"ept":0.001,"eps":0.1,"epv":1.0,"lon":4.8121958103390154,"time":"2015-09-24T10:56:28.146Z","epd":0.1,"epx":1.0,"speed":10.547950044936691,"alt":0.0,"epy":1.0,"track":344.48129106367935,"class":"TPV","lat":52.174386427954104,"mode":3}
{"ept":0.001,"eps":0.1,"epv":1.0,"lon":4.81215440099724,"time":"2015-09-24T10:56:29.146Z","epd":0.1,"epx":1.0,"speed":10.547950044936691,"alt":0.0,"epy":1.0,"track":344.48129106367935,"class":"TPV","lat":52.17447782965031,"mode":3}
{"ept":0.001,"eps":0.1,"epv":1.0,"lon":4.812112991655465,"time":"2015-09-24T10:56:30.146Z","epd":0.1,"epx":1.0,"speed":10.547950044936691,"alt":0.0,"epy":1.0,"track":344.48129106367935,"class":"TPV","lat":52.17456923134652,"mode":3}
{"ept":0.001,"eps":0.1,"epv":1.0,"lon":4.81207158231369,"time":"2015-09-24T10:56:31.146Z","epd":0.1,"epx":1.0,"speed":10.547950044936691,"alt":0.0,"epy":1.0,"track":344.48129106367935,"class":"TPV","lat":52.17466063304272,"mode":3}
{"ept":0.001,"eps":0.1,"epv":1.0,"lon":4.812030172971915,"time":"2015-09-24T10:56:32.146Z","epd":0.1,"epx":1.0,"speed":10.547950044936691,"alt":0.0,"epy":1.0,"track":344.48129106367935,"class":"TPV","lat":52.17475203473893,"mode":3}
{"ept":0.001,"eps":0.1,"epv":1.0,"lon":4.81198876363014,"time":"2015-09-24T10:56:33.146Z","epd":0.1,"epx":1.0,"speed":10.547950044936691,"alt":0.0,"epy":1.0,"track":344.48129106367935,"class":"TPV","lat":52.17484343643513,"mode":3}
{"ept":0.001,"eps":0.1,"epv":1.0,"lon":4.811947354288365,"time":"2015-09-24T10:56:34.146Z","epd":0.1,"epx":1.0,"speed":10.547950044936691,"alt":0.0,"epy":1.0,"track":344.48129106367935,"class":"TPV","lat":52.17493483813134,"mode":3}
{"ept":0.001,"eps":0.1,"epv":1.0,"lon":4.81190594494659,"time":"2015-09-24T10:56:35.146Z","epd":0.1,"epx":1.0,"speed":10.547950044936691,"alt":0.0,"epy":1.0,"track":344.48129106367935,"class":"TPV","lat":52.175026239827545,"mode":3}
{"ept":0.001,"eps":0.1,"epv":1.0,"lon":4.811864535604815,"time":"2015-09-24T10:56:36.146Z","epd":0.1,"epx":1.0,"speed":10.547950044936691,"alt":0.0,"epy":1.0,"track":344.48129106367935,"class":"TPV","lat":52.175117641523755,"mode":3}
{"ept":0.001,"eps":0.1,"epv":1.0,"lon":4.8118231262630395,"time":"2015-09-24T10:56:37.146Z","epd":0.1,"epx":1.0,"speed":10.547950044936691,"alt":0.0,"epy":1.0,"track":344.48129106367935,"class":"TPV","lat":52.17520904321996,"mode":3}
{"ept":0.001,"eps":0.1,"epv":1.0,"lon":4.811781716921264,"time":"2015-09-24T10:56:38.146Z","epd":0.1,"epx":1.0,"speed":10.547950044936691,"alt":0.0,"epy":1.0,"track":344.48129106367935,"class":"TPV","lat":52.17530044491617,"mode":3}
{"ept":0.001,"eps":0.1,"epv":1.0,"lon":4.811740307579489,"time":"2015-09-24T10:56:39.146Z","epd":0.1,"epx":1.0,"speed":10.547950044936691,"alt":0.0,"epy":1.0,"track":344.48129106367935,"class":"TPV","lat":52.17539184661237,"mode":3}
{"ept":0.001,"eps":0.1,"epv":1.0,"lon":4.811698898237714,"time":"2015-09-24T10:56:40.146Z","epd":0.1,"epx":1.0,"speed":10.547950044936691,"alt":0.0,"epy":1.0,"track":344.48129106367935,"class":"TPV","lat":52.17548324830858,"mode":3}
{"ept":0.001,"eps":0.1,"epv":1.0,"lon":4.811657488895939,"time":"2015-09-24T10:56:41.146Z","epd":0.1,"epx":1.0,"speed":10.547950044936691,"alt":0.0,"epy":1.0,"track":344.48129106367935,"class":"TPV","lat":52.17557465000479,"mode":3}
{"ept":0.001,"eps":0.1,"epv":1.0,"lon":4.811616079554164,"time":"2015-09-24T10:56:42.146Z","epd":0.1,"epx":1.0,"speed":10.547950044936691,"alt":0.0,"epy":1.0,"track":344.48129106367935,"class":"TPV","lat":52.17566605170099,"mode":3}
{"ept":0.001,"eps":0.1,"epv":1.0,"lon":4.811574670212389,"time":"2015-09-24T10:56:43.146Z","epd":0.1,"epx":1.0,"speed":10.547950044936691,"alt":0.0,"epy":1.0,"track":344.48129106367935,"class":"TPV","lat":52.1757574533972,"mode":3}
{"ept":0.001,"eps":0.1,"epv":1.0,"lon":4.811533260870614,"time":"2015-09-24T10:56:44.146Z","epd":0.1,"epx":1.0,"speed":10.547950044936691,"alt":0.0,"epy":1.0,"track":344.48129106367935,"class":"TPV","lat":52.175848855093406,"mode":3}
{"ept":0.001,"eps":0.1,"epv":1.0,"lon":4.811491851528839,"time":"2015-09-24T10:56:45.146Z","epd":0.1,"epx":1.0,"speed":10.547950044936691,"alt":0.0,"epy":1.0,"track":344.48129106367935,"class":"TPV","lat":52.175940256789616,"mode":3}
{"ept":0.001,"eps":0.1,"epv":1.0,"lon":4.811450442187064,"time":"2015-09-24T10:56:46.146Z","epd":0.1,"epx":1.0,"speed":10.547950044936691,"alt":0.0,"epy":1.0,"track":344.48129106367935,"class":"TPV","lat":52.17603165848582,"mode":3}
{"ept":0.001,"eps":0.1,"epv":1.0,"lon":4.8114090328452885,"time":"2015-09-24T10:56:47.146Z","epd":0.1,"epx":1.0,"speed":10.547950044936691,"alt":0.0,"epy":1.0,"track":344.48129106367935,"class":"TPV","lat":52.17612306018203,"mode":3}
{"ept":0.001,"eps":0.1,"epv":1.0,"lon":4.811367623503513,"time":"2015-09-24T10:56:48.146Z","epd":0.1,"epx":1.0,"speed":10.547950044936691,"alt":0.0,"epy":1.0,"track":344.48129106367935,"class":"TPV","lat":52.17621446187823,"mode":3}
{"ept":0.001,"eps":0.1,"epv":1.0,"lon":4.811326214161738,"time":"2015-09-24T10:56:49.146Z","epd":0.1,"epx":1.0,"speed":10.547950044936691,"alt":0.0,"epy":1.0,"track":344.48129106367935,"class":"TPV","lat":52.17630586357444,"mode":3}
{"ept":0.001,"eps":0.1,"epv":1.0,"lon":4.811284804819962,"time":"2015-09-24T10:56:50.146Z","epd":0.1,"epx":1.0,"speed":10.547950044936691,"alt":0.0,"epy":1.0,"track":344.48129106367935,"class":"TPV","lat":52.176397265270644,"mode":3}
{"ept":0.001,"eps":0.1,"epv":1.0,"lon":4.811243395478187,"time":"2015-09-24T10:56:51.146Z","epd":0.1,"epx":1.0,"speed":10.547950044936691,"alt":0.0,"epy":1.0,"track":344.48129106367935,"class":"TPV","lat":52.176488666966854,"mode":3}
{"ept":0.001,"eps":0.1,"epv":1.0,"lon":4.811201986136412,"time":"2015-09-24T10:56:52.146Z","epd":0.1,"epx":1.0,"speed":10.547950044936691,"alt":0.0,"epy":1.0,"track":344.48129106367935,"class":"TPV","lat":52.17658006866306,"mode":3}
{"ept":0.001,"eps":0.1,"epv":1.0,"lon":4.811160576794637,"time":"2015-09-24T10:56:53.146Z","epd":0.1,"epx":1.0,"speed":10.547950044936691,"alt":0.0,"epy":1.0,"track":344.48129106367935,"class":"TPV","lat":52.17667147035927,"mode":3}
{"ept":0.001,"eps":0.1,"epv":1.0,"lon":4.811119167452862,"time":"2015-09-24T10:56:54.146Z","epd":0.1,"epx":1.0,"speed":10.547950044936691,"alt":0.0,"epy":1.0,"track":344.48129106367935,"class":"TPV","lat":52.17676287205547,"mode":3}
{"ept":0.001,"eps":0.1,"epv":1.0,"lon":4.811077758111087,"time":"2015-09-24T10:56:55.146Z","epd":0.1,"epx":1.0,"speed":10.547950044936691,"alt":0.0,"epy":1.0,"track":344.48129106367935,"class":"TPV","lat":52.17685427375168,"mode":3}
{"ept":0.001,"eps":0.1,"epv":1.0,"lon":4.811036348769312,"time":"2015-09-24T10:56:56.146Z","epd":0.1,"epx":1.0,"speed":10.547950044936691,"alt":0.0,"epy":1.0,"track":344.48129106367935,"class":"TPV","lat":52.17694567544788,"mode":3}
{"ept":0.001,"eps":0.1,"epv":1.0,"lon":4.810994939427537,"time":"2015-09-24T10:56:57.146Z","epd":0.1,"epx":1.0,"speed":10.547950044936691,"alt":0.0,"epy":1.0,"track":344.48129106367935,"class":"TPV","lat":52.17703707714409,"mode":3}
{"ept":0.001,"eps":0.1,"epv":1.0,"lon":4.8109535300857615,"time":"2015-09-24T10:56:58.146Z","epd":0.1,"epx":1.0,"speed":10.547950044936691,"alt":0.0,"epy":1.0,"track":344.48129106367935,"class":"TPV","lat":52.1771284788403,"mode":3}
{"ept":0.001,"eps":0.1,"epv":1.0,"lon":4.810912120743986,"time":"2015-09-24T10:56:59.146Z","epd":0.1,"epx":1.0,"speed":10.547950044936691,"alt":0.0,"epy":1.0,"track":344.48129106367935,"class":"TPV","lat":52.177219880536505,"mode":3}
{"ept":0.001,"eps":0.1,"epv":1.0,"lon":4.810870711402211,"time":"2015-09-24T10:57:00.146Z","epd":0.1,"epx":1.0,"speed":10.547950044936691,"alt":0.0,"epy":1.0,"track":344.48129106367935,"class":"TPV","lat":52.177311282232715,"mode":3}
{"ept":0.001,"eps":0.1,"epv":1.0,"lon":4.810829302060436,"time":"2015-09-24T10:57:01.146Z","epd":0.1,"epx":1.0,"speed":10.547950044936691,"alt":0.0,"epy":1.0,"track":344.48129106367935,"class":"TPV","lat":52.17740268392892,"mode":3}
{"ept":0.001,"eps":0.1,"epv":1.0,"lon":4.810787892718661,"time":"2015-09-24T10:57:02.146Z","epd":0.1,"epx":1.0,"speed":10.547950044936691,"alt":0.0,"epy":1.0,"track":344.48129106367935,"class":"TPV","lat":52.17749408562513,"mode":3}
{"ept":0.001,"eps":0.1,"epv":1.0,"lon":4.810746483376886,"time":"2015-09-24T10:57:03.146Z","epd":0.1,"epx":1.0,"speed":10.547950044936691,"alt":0.0,"epy":1.0,"track":344.48129106367935,"class":"TPV","lat":52.17758548732133,"mode":3}
{"ept":0.001,"eps":0.1,"epv":1.0,"lon":4.810705074035111,"time":"2015-09-24T10:57:04.146Z","epd":0.1,"epx":1.0,"speed":10.547950044936691,"alt":0.0,"epy":1.0,"track":344.48129106367935,"class":"TPV","lat":52.17767688901754,"mode":3}
{"ept":0.001,"eps":0.1,"epv":1.0,"lon":4.810663664693336,"time":"2015-09-24T10:57:05.146Z","epd":0.1,"epx":1.0,"speed":10.547950044936691,"alt":0.0,"epy":1.0,"track":344.48129106367935,"class":"TPV","lat":52.17776829071374,"mode":3}
{"ept":0.001,"eps":0.1,"epv":1.0,"lon":4.810622255351561,"time":"2015-09-24T10:57:06.146Z","epd":0.1,"epx":1.0,"speed":10.547950044936691,"alt":0.0,"epy":1.0,"track":344.48129106367935,"class":"TPV","lat":52.17785969240995,"mode":3}
{"ept":0.001,"eps":0.1,"epv":1.0,"lon":4.810580846009786,"time":"2015-09-24T10:57:07.146Z","epd":0.1,"epx":1.0,"speed":10.547950044936691,"alt":0.0,"epy":1.0,"track":344.48129106367935,"class":"TPV","lat":52.177951094106156,"mode":3}
{"ept":0.001,"eps":0.1,"epv":1.0,"lon":4.8105394366680105,"time":"2015-09-24T10:57:08.146Z","epd":0.1,"epx":1.0,"speed":10.547950044936691,"alt":0.0,"epy":1.0,"track":344.48129106367935,"class":"TPV","lat":52.178042495802366,"mode":3}
{"ept":0.001,"eps":0.1,"epv":1.0,"lon":4.810498027326235,"time":"2015-09-24T10:57:09.146Z","epd":0.1,"epx":1.0,"speed":10.547950044936691,"alt":0.0,"epy":1.0,"track":344.48129106367935,"class":"TPV","lat":52.17813389749857,"mode":3}
{"ept":0.001,"eps":0.1,"epv":1.0,"lon":4.81045661798446,"time":"2015-09-24T10:57:10.146Z","epd":0.1,"epx":1.0,"speed":10.547950044936691,"alt":0.0,"epy":1.0,"track":344.48129106367935,"class":"TPV","lat":52.17822529919478,"mode":3}
{"ept":0.001,"eps":0.1,"epv":1.0,"lon":4.810415208642685,"time":"2015-09-24T10:57:11.146Z","epd":0.1,"epx":1.0,"speed":10.547950044936691,"alt":0.0,"epy":1.0,"track":344.48129106367935,"class":"TPV","lat":52.17831670089098,"mode":3}
{"ept":0.001,"eps":0.1,"epv":1.0,"lon":4.81037379930091,"time":"2015-09-24T10:57:12.146Z","epd":0.1,"epx":1.0,"speed":10.547950044936691,"alt":0.0,"epy":1.0,"track":344.48129106367935,"class":"TPV","lat":52.17840810258719,"mode":3}
{"ept":0.001,"eps":0.1,"epv":1.0,"lon":4.810332389959135,"time":"2015-09-24T10:57:13.146Z","epd":0.1,"epx":1.0,"speed":10.547950044936691,"alt":0.0,"epy":1.0,"track":344.48129106367935,"class":"TPV","lat":52.1784995042834,"mode":3}
{"ept":0.001,"eps":0.1,"epv":1.0,"lon":4.81029098061736,"time":"2015-09-24T10:57:14.146Z","epd":0.1,"epx":1.0,"speed":10.547950044936691,"alt":0.0,"epy":1.0,"track":344.48129106367935,"class":"TPV","lat":52.178590905979604,"mode":3}
{"ept":0.001,"eps":0.1,"epv":1.0,"lon":4.810249571275585,"time":"2015-09-24T10:57:15.146Z","epd":0.1,"epx":1.0,"speed":10.547950044936691,"alt":0.0,"epy":1.0,"track":344.48129106367935,"class":"TPV","lat":52.178682307675814,"mode":3}
{"ept":0.001,"eps":0.1,"epv":1.0,"lon":4.81020816193381,"time":"2015-09-24T10:57:16.146Z","epd":0.1,"epx":1.0,"speed":10.547950044936691,"alt":0.0,"epy":1.0,"track":344.48129106367935,"class":"TPV","lat":52.17877370937202,"mode":3}
{"ept":0.001,"eps":0.1,"epv":1.0,"lon":4.810166752592035,"time":"2015-09-24T10:57:17.146Z","epd":0.1,"epx":1.0,"speed":10.547950044936691,"alt":0.0,"epy":1.0,"track":344.48129106367935,"class":"TPV","lat":52.17886511106823,"mode":3}
{"ept":0.001,"eps":0.1,"epv":1.0,"lon":4.8101253432502595,"time":"2015-09-24T10:57:18.146Z","epd":0.1,"epx":1.0,"speed":10.547950044936691,"alt":0.0,"epy":1.0,"track":344.48129106367935,"class":"TPV","lat":52.17895651276443,"mode":3}
{"ept":0.001,"eps":0.1,"epv":1.0,"lon":4.810083933908484,"time":"2015-09-24T10:57:19.146Z","epd":0.1,"epx":1.0,"speed":10.547950044936691,"alt":0.0,"epy":1.0,"track":344.48129106367935,"class":"TPV","lat":52.17904791446064,"mode":3}
{"ept":0.001,"eps":0.1,"epv":1.0,"lon":4.810042524566709,"time":"2015-09-24T10:57:20.146Z","epd":0.1,"epx":1.0,"speed":10.547950044936691,"alt":0.0,"epy":1.0,"track":344.48129106367935,"class":"TPV","lat":52.17913931615684,"mode":3}
{"ept":0.001,"eps":0.1,"epv":1.0,"lon":4.810001115224934,"time":"2015-09-24T10:57:21.146Z","epd":0.1,"epx":1.0,"speed":10.547950044936691,"alt":0.0,"epy":1.0,"track":344.48129106367935,"class":"TPV","lat":52.17923071785305,"mode":3}
{"ept":0.001,"eps":0.1,"epv":1.0,"lon":4.809959705883159,"time":"2015-09-24T10:57:22.146Z","epd":0.1,"epx":1.0,"speed":10.547950044936691,"alt":0.0,"epy":1.0,"track":344.48129106367935,"class":"TPV","lat":52.179322119549255,"mode":3}
{"ept":0.001,"eps":0.1,"epv":1.0,"lon":4.809918296541384,"time":"2015-09-24T10:57:23.146Z","epd":0.1,"epx":1.0,"speed":10.547950044936691,"alt":0.0,"epy":1.0,"track":344.48129106367935,"class":"TPV","lat":52.179413521245465,"mode":3}
{"ept":0.001,"eps":0.1,"epv":1.0,"lon":4.809876887199609,"time":"2015-09-24T10:57:24.146Z","epd":0.1,"epx":1.0,"speed":10.547950044936691,"alt":0.0,"epy":1.0,"track":344.48129106367935,"class":"TPV","lat":52.17950492294167,"mode":3}
{"ept":0.001,"eps":0.1,"epv":1.0,"lon":4.809835477857834,"time":"2015-09-24T10:57:25.146Z","epd":0.1,"epx":1.0,"speed":10.547950044936691,"alt":0.0,"epy":1.0,"track":344.48129106367935,"class":"TPV","lat":52.17959632463788,"mode":3}
{"ept":0.001,"eps":0.1,"epv":1.0,"lon":4.809794068516059,"time":"2015-09-24T10:57:26.146Z","epd":0.1,"epx":1.0,"speed":10.547950044936691,"alt":0.0,"epy":1.0,"track":344.48129106367935,"class":"TPV","lat":52.17968772633408,"mode":3}
{"ept":0.001,"eps":0.1,"epv":1.0,"lon":4.809752659174283,"time":"2015-09-24T10:57:27.146Z","epd":0.1,"epx":1.0,"speed":10.547950044936691,"alt":0.0,"epy":1.0,"track":344.48129106367935,"class":"TPV","lat":52.17977912803029,"mode":3}
{"ept":0.001,"eps":0.1,"epv":1.0,"lon":4.809711249832508,"time":"2015-09-24T10:57:28.146Z","epd":0.1,"epx":1.0,"speed":10.547950044936691,"alt":0.0,"epy":1.0,"track":344.48129106367935,"class":"TPV","lat":52.17987052972649,"mode":3}
{"ept":0.001,"eps":0.1,"epv":1.0,"lon":4.8096698404907325,"time":"2015-09-24T10:57:29.146Z","epd":0.1,"epx":1.0,"speed":10.547950044936691,"alt":0.0,"epy":1.0,"track":344.48129106367935,"class":"TPV","lat":52.1799619314227,"mode":3}
{"ept":0.001,"eps":0.1,"epv":1.0,"lon":4.809728621811585,"time":"2015-09-24T10:57:30.146Z","epd":0.1,"epx":1.0,"speed":9.524615516997349,"alt":0.0,"epy":1.0,"track":99.8561176751083,"class":"TPV","lat":52.1799940002723,"mode":3}
{"ept":0.001,"eps":0.1,"epv":1.0,"lon":4.809866314288529,"time":"2015-09-24T10:57:31.146Z","epd":0.1,"epx":1.0,"speed":9.524615516997349,"alt":0.0,"epy":1.0,"track":99.8561176751083,"class":"TPV","lat":52.179979337985515,"mode":3}
{"ept":0.001,"eps":0.1,"epv":1.0,"lon":4.810004006765473,"time":"2015-09-24T10:57:32.146Z","epd":0.1,"epx":1.0,"speed":9.524615516997349,"alt":0.0,"epy":1.0,"track":99.8561176751083,"class":"TPV","lat":52.17996467569873,"mode":3}
{"ept":0.001,"eps":0.1,"epv":1.0,"lon":4.8101416992424175,"time":"2015-09-24T10:57:33.146Z","epd":0.1,"epx":1.0,"speed":9.524615516997349,"alt":0.0,"epy":1.0,"track":99.8561176751083,"class":"TPV","lat":52.17995001341194,"mode":3}
{"ept":0.001,"eps":0.1,"epv":1.0,"lon":4.810279391719361,"time":"2015-09-24T10:57:34.146Z","epd":0.1,"epx":1.0,"speed":9.524615516997349,"alt":0.0,"epy":1.0,"track":99.8561176751083,"class":"TPV","lat":52.17993535112515,"mode":3}
{"ept":0.001,"eps":0.1,"epv":1.0,"lon":4.810417084196305,"time":"2015-09-24T10:57:35.146Z","epd":0.1,"epx":1.0,"speed":9.524615516997349,"alt":0.0,"epy":1.0,"track":99.8561176751083,"class":"TPV","lat":52.17992068883837,"mode":3}
{"ept":0.001,"eps":0.1,"epv":1.0,"lon":4.81055477667325,"time":"2015-09-24T10:57:36.146Z","epd":0.1,"epx":1.0,"speed":9.524615516997349,"alt":0.0,"epy":1.0,"track":99.8561176751083,"class":"TPV","lat":52.179906026551585,"mode":3}
{"ept":0.001,"eps":0.1,"epv":1.0,"lon":4.810692469150194,"time":"2015-09-24T10:57:37.146Z","epd":0.1,"epx":1.0,"speed":9.524615516997349,"alt":0.0,"epy":1.0,"track":99.8561176751083,"class":"TPV","lat":52.1798913642648,"mode":3}
{"ept":0.001,"eps":0.1,"epv":1.0,"lon":4.810830161627138,"time":"2015-09-24T10:57:38.146Z","epd":0.1,"epx":1.0,"speed":9.524615516997349,"alt":0.0,"epy":1.0,"track":99.8561176751083,"class":"TPV","lat":52.17987670197801,"mode":3}
{"ept":0.001,"eps":0.1,"epv":1.0,"lon":4.810967854104082,"time":"2015-09-24T10:57:39.146Z","epd":0.1,"epx":1.0,"speed":9.524615516997349,"alt":0.0,"epy":1.0,"track":99.8561176751083,"class":"TPV","lat":52.17986203969122,"mode":3}
{"ept":0.001,"eps":0.1,"epv":1.0,"lon":4.811105546581026,"time":"2015-09-24T10:57:40.146Z","epd":0.1,"epx":1.0,"speed":9.524615516997349,"alt":0.0,"epy":1.0,"track":99.8561176751083,"class":"TPV","lat":52.179847377404435,"mode":3}
{"ept":0.001,"eps":0.1,"epv":1.0,"lon":4.81124323905797,"time":"2015-09-24T10:57:41.146Z","epd":0.1,"epx":1.0,"speed":9.524615516997349,"alt":0.0,"epy":1.0,"track":99.8561176751083,"class":"TPV","lat":52.17983271511765,"mode":3}
{"ept":0.001,"eps":0.1,"epv":1.0,"lon":4.811380931534915,"time":"2015-09-24T10:57:42.146Z","epd":0.1,"epx":1.0,"speed":9.524615516997349,"alt":0.0,"epy":1.0,"track":99.8561176751083,"class":"TPV","lat":52.17981805283086,"mode":3}
{"ept":0.001,"eps":0.1,"epv":1.0,"lon":4.811518624011859,"time":"2015-09-24T10:57:43.146Z","epd":0.1,"epx":1.0,"speed":9.524615516997349,"alt":0.0,"epy":1.0,"track":99.8561176751083,"class":"TPV","lat":52.17980339054407,"mode":3}
{"ept":0.001,"eps":0.1,"epv":1.0,"lon":4.811656316488802,"time":"2015-09-24T10:57:44.146Z","epd":0.1,"epx":1.0,"speed":9.524615516997349,"alt":0.0,"epy":1.0,"track":99.8561176751083,"class":"TPV","lat":52.179788728257286,"mode":3}
{"ept":0.001,"eps":0.1,"epv":1.0,"lon":4.811794008965747,"time":"2015-09-24T10:57:45.146Z","epd":0.1,"epx":1.0,"speed":9.524615516997349,"alt":0.0,"epy":1.0,"track":99.8561176751083,"class":"TPV","lat":52.1797740659705,"mode":3}
{"ept":0.001,"eps":0.1,"epv":1.0,"lon":4.811931701442691,"time":"2015-09-24T10:57:46.146Z","epd":0.1,"epx":1.0,"speed":9.524615516997349,"alt":0.0,"epy":1.0,"track":99.8561176751083,"class":"TPV","lat":52.17975940368371,"mode":3}
{"ept":0.001,"eps":0.1,"epv":1.0,"lon":4.812069393919636,"time":"2015-09-24T10:57:47.146Z","epd":0.1,"epx":1.0,"speed":9.524615516997349,"alt":0.0,"epy":1.0,"track":99.8561176751083,"class":"TPV","lat":52.179744741396924,"mode":3}
{"ept":0.001,"eps":0.1,"epv":1.0,"lon":4.81220708639658,"time":"2015-09-24T10:57:48.146Z","epd":0.1,"epx":1.0,"speed":9.524615516997349,"alt":0.0,"epy":1.0,"track":99.8561176751083,"class":"TPV","lat":52.179730079110136,"mode":3}
{"ept":0.001,"eps":0.1,"epv":1.0,"lon":4.812344778873523,"time":"2015-09-24T10:57:49.146Z","epd":0.1,"epx":1.0,"speed":9.524615516997349,"alt":0.0,"epy":1.0,"track":99.8561176751083,"class":"TPV","lat":52.179715416823356,"mode":3}
{"ept":0.001,"eps":0.1,"epv":1.0,"lon":4.812482471350468,"time":"2015-09-24T10:57:50.146Z","epd":0.1,"epx":1.0,"speed":9.524615516997349,"alt":0.0,"epy":1.0,"track":99.8561176751083,"class":"TPV","lat":52.17970075453657,"mode":3}
{"ept":0.001,"eps":0.1,"epv":1.0,"lon":4.812620163827412,"time":"2015-09-24T10:57:51.146Z","epd":0.1,"epx":1.0,"speed":9.524615516997349,"alt":0.0,"epy":1.0,"track":99.8561176751083,"class":"TPV","lat":52.17968609224978,"mode":3}
{"ept":0.001,"eps":0.1,"epv":1.0,"lon":4.812757856304356,"time":"2015-09-24T10:57:52.146Z","epd":0.1,"epx":1.0,"speed":9.524615516997349,"alt":0.0,"epy":1.0,"track":99.8561176751083,"class":"TPV","lat":52.179671429962994,"mode":3}
{"ept":0.001,"eps":0.1,"epv":1.0,"lon":4.8128955487813005,"time":"2015-09-24T10:57:53.146Z","epd":0.1,"epx":1.0,"speed":9.524615516997349,"alt":0.0,"epy":1.0,"track":99.8561176751083,"class":"TPV","lat":52.17965676767621,"mode":3}
{"ept":0.001,"eps":0.1,"epv":1.0,"lon":4.813033241258244,"time":"2015-09-24T10:57:54.146Z","epd":0.1,"epx":1.0,"speed":9.524615516997349,"alt":0.0,"epy":1.0,"track":99.8561176751083,"class":"TPV","lat":52.17964210538942,"mode":3}
{"ept":0.001,"eps":0.1,"epv":1.0,"lon":4.813170933735188,"time":"2015-09-24T10:57:55.146Z","epd":0.1,"epx":1.0,"speed":9.524615516997349,"alt":0.0,"epy":1.0,"track":99.8561176751083,"class":"TPV","lat":52.17962744310263,"mode":3}
{"ept":0.001,"eps":0.1,"epv":1.0,"lon":4.813308626212133,"time":"2015-09-24T10:57:56.146Z","epd":0.1,"epx":1.0,"speed":9.524615516997349,"alt":0.0,"epy":1.0,"track":99.8561176751083,"class":"TPV","lat":52.179612780815845,"mode":3}
{"ept":0.001,"eps":0.1,"epv":1.0,"lon":4.813446318689077,"time":"2015-09-24T10:57:57.146Z","epd":0.1,"epx":1.0,"speed":9.524615516997349,"alt":0.0,"epy":1.0,"track":99.8561176751083,"class":"TPV","lat":52.17959811852906,"mode":3}
{"ept":0.001,"eps":0.1,"epv":1.0,"lon":4.813584011166021,"time":"2015-09-24T10:57:58.146Z","epd":0.1,"epx":1.0,"speed":9.524615516997349,"alt":0.0,"epy":1.0,"track":99.8561176751083,"class":"TPV","lat":52.17958345624227,"mode":3}
{"ept":0.001,"eps":0.1,"epv":1.0,"lon":4.813721703642965,"time":"2015-09-24T10:57:59.146Z","epd":0.1,"epx":1.0,"speed":9.524615516997349,"alt":0.0,"epy":1.0,"track":99.8561176751083,"class":"TPV","lat":52.17956879395548,"mode":3}
{"ept":0.001,"eps":0.1,"epv":1.0,"lon":4.813859396119909,"time":"2015-09-24T10:58:00.146Z","epd":0.1,"epx":1.0,"speed":9.524615516997349,"alt":0.0,"epy":1.0,"track":99.8561176751083,"class":"TPV","lat":52.179554131668695,"mode":3}
{"ept":0.001,"eps":0.1,"epv":1.0,"lon":4.813997088596853,"time":"2015-09-24T10:58:01.146Z","epd":0.1,"epx":1.0,"speed":9.524615516997349,"alt":0.0,"epy":1.0,"track":99.8561176751083,"class":"TPV","lat":52.17953946938191,"mode":3}
{"ept":0.001,"eps":0.1,"epv":1.0,"lon":4.814134781073798,"time":"2015-09-24T10:58:02.146Z","epd":0.1,"epx":1.0,"speed":9.524615516997349,"alt":0.0,"epy":1.0,"track":99.8561176751083,"class":"TPV","lat":52.17952480709512,"mode":3}
{"ept":0.001,"eps":0.1,"epv":1.0,"lon":4.814272473550742,"time":"2015-09-24T10:58:03.146Z","epd":0.1,"epx":1.0,"speed":9.524615516997349,"alt":0.0,"epy":1.0,"track":99.8561176751083,"class":"TPV","lat":52.17951014480834,"mode":3}
{"ept":0.001,"eps":0.1,"epv":1.0,"lon":4.8144101660276855,"time":"2015-09-24T10:58:04.146Z","epd":0.1,"epx":1.0,"speed":9.524615516997349,"alt":0.0,"epy":1.0,"track":99.8561176751083,"class":"TPV","lat":52.17949548252155,"mode":3}
{"ept":0.001,"eps":0.1,"epv":1.0,"lon":4.81454785850463,"time":"2015-09-24T10:58:05.146Z","epd":0.1,"epx":1.0,"speed":9.524615516997349,"alt":0.0,"epy":1.0,"track":99.8561176751083,"class":"TPV","lat":52.179480820234765,"mode":3}
{"ept":0.001,"eps":0.1,"epv":1.0,"lon":4.814685550981574,"time":"2015-09-24T10:58:06.147Z","epd":0.1,"epx":1.0,"speed":9.524615516997349,"alt":0.0,"epy":1.0,"track":99.8561176751083,"class":"TPV","lat":52.17946615794798,"mode":3}
{"ept":0.001,"eps":0.1,"epv":1.0,"lon":4.814823243458518,"time":"2015-09-24T10:58:07.146Z","epd":0.1,"epx":1.0,"speed":9.524615516997349,"alt":0.0,"epy":1.0,"track":99.8561176751083,"class":"TPV","lat":52.17945149566119,"mode":3}
{"ept":0.001,"eps":0.1,"epv":1.0,"lon":4.814960935935463,"time":"2015-09-24T10:58:08.146Z","epd":0.1,"epx":1.0,"speed":9.524615516997349,"alt":0.0,"epy":1.0,"track":99.8561176751083,"class":"TPV","lat":52.1794368333744,"mode":3}
{"ept":0.001,"eps":0.1,"epv":1.0,"lon":4.815098628412406,"time":"2015-09-24T10:58:09.146Z","epd":0.1,"epx":1.0,"speed":9.524615516997349,"alt":0.0,"epy":1.0,"track":99.8561176751083,"class":"TPV","lat":52.179422171087616,"mode":3}
{"ept":0.001,"eps":0.1,"epv":1.0,"lon":4.81523632088935,"time":"2015-09-24T10:58:10.146Z","epd":0.1,"epx":1.0,"speed":9.524615516997349,"alt":0.0,"epy":1.0,"track":99.8561176751083,"class":"TPV","lat":52.17940750880083,"mode":3}
{"ept":0.001,"eps":0.1,"epv":1.0,"lon":4.815374013366295,"time":"2015-09-24T10:58:11.146Z","epd":0.1,"epx":1.0,"speed":9.524615516997349,"alt":0.0,"epy":1.0,"track":99.8561176751083,"class":"TPV","lat":52.17939284651404,"mode":3}
{"ept":0.001,"eps":0.1,"epv":1.0,"lon":4.815511705843239,"time":"2015-09-24T10:58:12.146Z","epd":0.1,"epx":1.0,"speed":9.524615516997349,"alt":0.0,"epy":1.0,"track":99.8561176751083,"class":"TPV","lat":52.179378184227254,"mode":3}
{"ept":0.001,"eps":0.1,"epv":1.0,"lon":4.815649398320183,"time":"2015-09-24T10:58:13.146Z","epd":0.1,"epx":1.0,"speed":9.524615516997349,"alt":0.0,"epy":1.0,"track":99.8561176751083,"class":"TPV","lat":52.179363521940466,"mode":3}
{"ept":0.001,"eps":0.1,"epv":1.0,"lon":4.815787090797127,"time":"2015-09-24T10:58:14.146Z","epd":0.1,"epx":1.0,"speed":9.524615516997349,"alt":0.0,"epy":1.0,"track":99.8561176751083,"class":"TPV","lat":52.17934885965368,"mode":3}
{"ept":0.001,"eps":0.1,"epv":1.0,"lon":4.815924783274071,"time":"2015-09-24T10:58:15.146Z","epd":0.1,"epx":1.0,"speed":9.524615516997349,"alt":0.0,"epy":1.0,"track":99.8561176751083,"class":"TPV","lat":52.17933419736689,"mode":3}
{"ept":0.001,"eps":0.1,"epv":1.0,"lon":4.816062475751015,"time":"2015-09-24T10:58:16.146Z","epd":0.1,"epx":1.0,"speed":9.524615516997349,"alt":0.0,"epy":1.0,"track":99.8561176751083,"class":"TPV","lat":52.179319535080104,"mode":3}
