{"class":"VERSION","release":"3.6","rev":"3.6","proto_major":3,"proto_minor":7}
{"class":"DEVICES","devices":[{"class":"DEVICE","path":"gpsd://192.168.50.240:61000","activated":"2015-09-24T10:53:35.735Z","driver":"JSON slave driver"}]}
{"class":"WATCH","enable":true,"json":true,"nmea":false,"raw":0,"scaled":false,"timing":false}
{"ept":0.001,"eps":0.1,"epv":1.0,"lon":4.820562979725667,"time":"2015-09-24T10:54:02.146Z","epd":0.1,"epx":1.0,"speed":10.89488590878794,"alt":0.0,"epy":1.0,"track":73.6765902708025,"class":"TPV","lat":52.18252015969766,"mode":3}
{"ept":0.001,"eps":0.1,"epv":1.0,"lon":4.820716397015824,"time":"2015-09-24T10:54:03.146Z","epd":0.1,"epx":1.0,"speed":10.89488590878794,"alt":0.0,"epy":1.0,"track":73.6765902708025,"class":"TPV","lat":52.182547697860464,"mode":3}
{"ept":0.001,"eps":0.1,"epv":1.0,"lon":4.820869814305981,"time":"2015-09-24T10:54:04.147Z","epd":0.1,"epx":1.0,"speed":10.89488590878794,"alt":0.0,"epy":1.0,"track":73.6765902708025,"class":"TPV","lat":52.18257523602326,"mode":3}
{"ept":0.001,"eps":0.1,"epv":1.0,"lon":4.821023231596138,"time":"2015-09-24T10:54:05.147Z","epd":0.1,"epx":1.0,"speed":10.89488590878794,"alt":0.0,"epy":1.0,"track":73.6765902708025,"class":"TPV","lat":52.18260277418606,"mode":3}
{"ept":0.001,"eps":0.1,"epv":1.0,"lon":4.821176648886295,"time":"2015-09-24T10:54:06.147Z","epd":0.1,"epx":1.0,"speed":10.89488590878794,"alt":0.0,"epy":1.0,"track":73.6765902708025,"class":"TPV","lat":52.182630312348856,"mode":3}
{"ept":0.001,"eps":0.1,"epv":1.0,"lon":4.821330066176452,"time":"2015-09-24T10:54:07.147Z","epd":0.1,"epx":1.0,"speed":10.89488590878794,"alt":0.0,"epy":1.0,"track":73.6765902708025,"class":"TPV","lat":52.18265785051165,"mode":3}
{"ept":0.001,"eps":0.1,"epv":1.0,"lon":4.82148348346661,"time":"2015-09-24T10:54:08.147Z","epd":0.1,"epx":1.0,"speed":10.89488590878794,"alt":0.0,"epy":1.0,"track":73.6765902708025,"class":"TPV","lat":52.18268538867445,"mode":3}
{"ept":0.001,"eps":0.1,"epv":1.0,"lon":4.821636900756767,"time":"2015-09-24T10:54:09.147Z","epd":0.1,"epx":1.0,"speed":10.89488590878794,"alt":0.0,"epy":1.0,"track":73.6765902708025,"class":"TPV","lat":52.18271292683725,"mode":3}
{"ept":0.001,"eps":0.1,"epv":1.0,"lon":4.821790318046924,"time":"2015-09-24T10:54:10.146Z","epd":0.1,"epx":1.0,"speed":10.89488590878794,"alt":0.0,"epy":1.0,"track":73.6765902708025,"class":"TPV","lat":52.18274046500005,"mode":3}
{"ept":0.001,"eps":0.1,"epv":1.0,"lon":4.821943735337081,"time":"2015-09-24T10:54:11.146Z","epd":0.1,"epx":1.0,"speed":10.89488590878794,"alt":0.0,"epy":1.0,"track":73.6765902708025,"class":"TPV","lat":52.18276800316285,"mode":3}
{"ept":0.001,"eps":0.1,"epv":1.0,"lon":4.822097152627238,"time":"2015-09-24T10:54:12.146Z","epd":0.1,"epx":1.0,"speed":10.89488590878794,"alt":0.0,"epy":1.0,"track":73.6765902708025,"class":"TPV","lat":52.182795541325646,"mode":3}
{"ept":0.001,"eps":0.1,"epv":1.0,"lon":4.822250569917395,"time":"2015-09-24T10:54:13.146Z","epd":0.1,"epx":1.0,"speed":10.89488590878794,"alt":0.0,"epy":1.0,"track":73.6765902708025,"class":"TPV","lat":52.18282307948844,"mode":3}
{"ept":0.001,"eps":0.1,"epv":1.0,"lon":4.822403987207553,"time":"2015-09-24T10:54:14.146Z","epd":0.1,"epx":1.0,"speed":10.89488590878794,"alt":0.0,"epy":1.0,"track":73.6765902708025,"class":"TPV","lat":52.18285061765124,"mode":3}
{"ept":0.001,"eps":0.1,"epv":1.0,"lon":4.82255740449771,"time":"2015-09-24T10:54:15.146Z","epd":0.1,"epx":1.0,"speed":10.89488590878794,"alt":0.0,"epy":1.0,"track":73.6765902708025,"class":"TPV","lat":52.18287815581404,"mode":3}
{"ept":0.001,"eps":0.1,"epv":1.0,"lon":4.822710821787867,"time":"2015-09-24T10:54:16.146Z","epd":0.1,"epx":1.0,"speed":10.89488590878794,"alt":0.0,"epy":1.0,"track":73.6765902708025,"class":"TPV","lat":52.182905693976835,"mode":3}
{"ept":0.001,"eps":0.1,"epv":1.0,"lon":4.822864239078024,"time":"2015-09-24T10:54:17.146Z","epd":0.1,"epx":1.0,"speed":10.89488590878794,"alt":0.0,"epy":1.0,"track":73.6765902708025,"class":"TPV","lat":52.18293323213963,"mode":3}
{"ept":0.001,"eps":0.1,"epv":1.0,"lon":4.823017656368181,"time":"2015-09-24T10:54:18.146Z","epd":0.1,"epx":1.0,"speed":10.89488590878794,"alt":0.0,"epy":1.0,"track":73.6765902708025,"class":"TPV","lat":52.18296077030244,"mode":3}
{"ept":0.001,"eps":0.1,"epv":1.0,"lon":4.823171073658338,"time":"2015-09-24T10:54:19.146Z","epd":0.1,"epx":1.0,"speed":10.89488590878794,"alt":0.0,"epy":1.0,"track":73.6765902708025,"class":"TPV","lat":52.182988308465234,"mode":3}
{"ept":0.001,"eps":0.1,"epv":1.0,"lon":4.823324490948496,"time":"2015-09-24T10:54:20.146Z","epd":0.1,"epx":1.0,"speed":10.89488590878794,"alt":0.0,"epy":1.0,"track":73.6765902708025,"class":"TPV","lat":52.18301584662803,"mode":3}
{"ept":0.001,"eps":0.1,"epv":1.0,"lon":4.823477908238653,"time":"2015-09-24T10:54:21.146Z","epd":0.1,"epx":1.0,"speed":10.89488590878794,"alt":0.0,"epy":1.0,"track":73.6765902708025,"class":"TPV","lat":52.18304338479083,"mode":3}
{"ept":0.001,"eps":0.1,"epv":1.0,"lon":4.82363132552881,"time":"2015-09-24T10:54:22.146Z","epd":0.1,"epx":1.0,"speed":10.89488590878794,"alt":0.0,"epy":1.0,"track":73.6765902708025,"class":"TPV","lat":52.183070922953625,"mode":3}
{"ept":0.001,"eps":0.1,"epv":1.0,"lon":4.823784742818967,"time":"2015-09-24T10:54:23.146Z","epd":0.1,"epx":1.0,"speed":10.89488590878794,"alt":0.0,"epy":1.0,"track":73.6765902708025,"class":"TPV","lat":52.18309846111642,"mode":3}
{"ept":0.001,"eps":0.1,"epv":1.0,"lon":4.823938160109124,"time":"2015-09-24T10:54:24.146Z","epd":0.1,"epx":1.0,"speed":10.89488590878794,"alt":0.0,"epy":1.0,"track":73.6765902708025,"class":"TPV","lat":52.18312599927922,"mode":3}
{"ept":0.001,"eps":0.1,"epv":1.0,"lon":4.824091577399281,"time":"2015-09-24T10:54:25.146Z","epd":0.1,"epx":1.0,"speed":10.89488590878794,"alt":0.0,"epy":1.0,"track":73.6765902708025,"class":"TPV","lat":52.183153537442024,"mode":3}
{"ept":0.001,"eps":0.1,"epv":1.0,"lon":4.824244994689439,"time":"2015-09-24T10:54:26.146Z","epd":0.1,"epx":1.0,"speed":10.89488590878794,"alt":0.0,"epy":1.0,"track":73.6765902708025,"class":"TPV","lat":52.18318107560482,"mode":3}
{"ept":0.001,"eps":0.1,"epv":1.0,"lon":4.824398411979596,"time":"2015-09-24T10:54:27.146Z","epd":0.1,"epx":1.0,"speed":10.89488590878794,"alt":0.0,"epy":1.0,"track":73.6765902708025,"class":"TPV","lat":52.18320861376762,"mode":3}
{"ept":0.001,"eps":0.1,"epv":1.0,"lon":4.824551829269753,"time":"2015-09-24T10:54:28.146Z","epd":0.1,"epx":1.0,"speed":10.89488590878794,"alt":0.0,"epy":1.0,"track":73.6765902708025,"class":"TPV","lat":52.183236151930416,"mode":3}
{"ept":0.001,"eps":0.1,"epv":1.0,"lon":4.82470524655991,"time":"2015-09-24T10:54:29.146Z","epd":0.1,"epx":1.0,"speed":10.89488590878794,"alt":0.0,"epy":1.0,"track":73.6765902708025,"class":"TPV","lat":52.18326369009321,"mode":3}
{"ept":0.001,"eps":0.1,"epv":1.0,"lon":4.824858663850067,"time":"2015-09-24T10:54:30.146Z","epd":0.1,"epx":1.0,"speed":10.89488590878794,"alt":0.0,"epy":1.0,"track":73.6765902708025,"class":"TPV","lat":52.18329122825601,"mode":3}
{"ept":0.001,"eps":0.1,"epv":1.0,"lon":4.825012081140224,"time":"2015-09-24T10:54:31.146Z","epd":0.1,"epx":1.0,"speed":10.89488590878794,"alt":0.0,"epy":1.0,"track":73.6765902708025,"class":"TPV","lat":52.18331876641881,"mode":3}
{"ept":0.001,"eps":0.1,"epv":1.0,"lon":4.825165498430382,"time":"2015-09-24T10:54:32.146Z","epd":0.1,"epx":1.0,"speed":10.89488590878794,"alt":0.0,"epy":1.0,"track":73.6765902708025,"class":"TPV","lat":52.18334630458161,"mode":3}
{"ept":0.001,"eps":0.1,"epv":1.0,"lon":4.825318915720539,"time":"2015-09-24T10:54:33.146Z","epd":0.1,"epx":1.0,"speed":10.89488590878794,"alt":0.0,"epy":1.0,"track":73.6765902708025,"class":"TPV","lat":52.18337384274441,"mode":3}
{"ept":0.001,"eps":0.1,"epv":1.0,"lon":4.825472333010696,"time":"2015-09-24T10:54:34.146Z","epd":0.1,"epx":1.0,"speed":10.89488590878794,"alt":0.0,"epy":1.0,"track":73.6765902708025,"class":"TPV","lat":52.183401380907206,"mode":3}
{"ept":0.001,"eps":0.1,"epv":1.0,"lon":4.825625750300853,"time":"2015-09-24T10:54:35.146Z","epd":0.1,"epx":1.0,"speed":10.89488590878794,"alt":0.0,"epy":1.0,"track":73.6765902708025,"class":"TPV","lat":52.18342891907,"mode":3}
{"ept":0.001,"eps":0.1,"epv":1.0,"lon":4.82577916759101,"time":"2015-09-24T10:54:36.146Z","epd":0.1,"epx":1.0,"speed":10.89488590878794,"alt":0.0,"epy":1.0,"track":73.6765902708025,"class":"TPV","lat":52.1834564572328,"mode":3}
{"ept":0.001,"eps":0.1,"epv":1.0,"lon":4.825932584881167,"time":"2015-09-24T10:54:37.146Z","epd":0.1,"epx":1.0,"speed":10.89488590878794,"alt":0.0,"epy":1.0,"track":73.6765902708025,"class":"TPV","lat":52.1834839953956,"mode":3}
{"ept":0.001,"eps":0.1,"epv":1.0,"lon":4.8260860021713246,"time":"2015-09-24T10:54:38.146Z","epd":0.1,"epx":1.0,"speed":10.89488590878794,"alt":0.0,"epy":1.0,"track":73.6765902708025,"class":"TPV","lat":52.183511533558395,"mode":3}
{"ept":0.001,"eps":0.1,"epv":1.0,"lon":4.826239419461482,"time":"2015-09-24T10:54:39.146Z","epd":0.1,"epx":1.0,"speed":10.89488590878794,"alt":0.0,"epy":1.0,"track":73.6765902708025,"class":"TPV","lat":52.1835390717212,"mode":3}
{"ept":0.001,"eps":0.1,"epv":1.0,"lon":4.826392836751639,"time":"2015-09-24T10:54:40.146Z","epd":0.1,"epx":1.0,"speed":10.89488590878794,"alt":0.0,"epy":1.0,"track":73.6765902708025,"class":"TPV","lat":52.183566609884,"mode":3}
{"ept":0.001,"eps":0.1,"epv":1.0,"lon":4.826546254041796,"time":"2015-09-24T10:54:41.146Z","epd":0.1,"epx":1.0,"speed":10.89488590878794,"alt":0.0,"epy":1.0,"track":73.6765902708025,"class":"TPV","lat":52.183594148046794,"mode":3}
{"ept":0.001,"eps":0.1,"epv":1.0,"lon":4.826699671331953,"time":"2015-09-24T10:54:42.146Z","epd":0.1,"epx":1.0,"speed":10.89488590878794,"alt":0.0,"epy":1.0,"track":73.6765902708025,"class":"TPV","lat":52.18362168620959,"mode":3}
{"ept":0.001,"eps":0.1,"epv":1.0,"lon":4.82685308862211,"time":"2015-09-24T10:54:43.146Z","epd":0.1,"epx":1.0,"speed":10.89488590878794,"alt":0.0,"epy":1.0,"track":73.6765902708025,"class":"TPV","lat":52.18364922437239,"mode":3}
{"ept":0.001,"eps":0.1,"epv":1.0,"lon":4.8270065059122675,"time":"2015-09-24T10:54:44.146Z","epd":0.1,"epx":1.0,"speed":10.89488590878794,"alt":0.0,"epy":1.0,"track":73.6765902708025,"class":"TPV","lat":52.183676762535185,"mode":3}
{"ept":0.001,"eps":0.1,"epv":1.0,"lon":4.827159923202425,"time":"2015-09-24T10:54:45.146Z","epd":0.1,"epx":1.0,"speed":10.89488590878794,"alt":0.0,"epy":1.0,"track":73.6765902708025,"class":"TPV","lat":52.18370430069798,"mode":3}
{"ept":0.001,"eps":0.1,"epv":1.0,"lon":4.827313340492582,"time":"2015-09-24T10:54:46.147Z","epd":0.1,"epx":1.0,"speed":10.89488590878794,"alt":0.0,"epy":1.0,"track":73.6765902708025,"class":"TPV","lat":52.18373183886078,"mode":3}
{"ept":0.001,"eps":0.1,"epv":1.0,"lon":4.827466757782739,"time":"2015-09-24T10:54:47.146Z","epd":0.1,"epx":1.0,"speed":10.89488590878794,"alt":0.0,"epy":1.0,"track":73.6765902708025,"class":"TPV","lat":52.183759377023584,"mode":3}
{"ept":0.001,"eps":0.1,"epv":1.0,"lon":4.827620175072896,"time":"2015-09-24T10:54:48.146Z","epd":0.1,"epx":1.0,"speed":10.89488590878794,"alt":0.0,"epy":1.0,"track":73.6765902708025,"class":"TPV","lat":52.18378691518638,"mode":3}
{"ept":0.001,"eps":0.1,"epv":1.0,"lon":4.827773592363053,"time":"2015-09-24T10:54:49.146Z","epd":0.1,"epx":1.0,"speed":10.89488590878794,"alt":0.0,"epy":1.0,"track":73.6765902708025,"class":"TPV","lat":52.18381445334918,"mode":3}
{"ept":0.001,"eps":0.1,"epv":1.0,"lon":4.82792700965321,"time":"2015-09-24T10:54:50.146Z","epd":0.1,"epx":1.0,"speed":10.89488590878794,"alt":0.0,"epy":1.0,"track":73.6765902708025,"class":"TPV","lat":52.183841991511976,"mode":3}
{"ept":0.001,"eps":0.1,"epv":1.0,"lon":4.828080426943367,"time":"2015-09-24T10:54:51.146Z","epd":0.1,"epx":1.0,"speed":10.89488590878794,"alt":0.0,"epy":1.0,"track":73.6765902708025,"class":"TPV","lat":52.18386952967477,"mode":3}
{"ept":0.001,"eps":0.1,"epv":1.0,"lon":4.828233844233524,"time":"2015-09-24T10:54:52.146Z","epd":0.1,"epx":1.0,"speed":10.89488590878794,"alt":0.0,"epy":1.0,"track":73.6765902708025,"class":"TPV","lat":52.18389706783757,"mode":3}
{"ept":0.001,"eps":0.1,"epv":1.0,"lon":4.828387261523681,"time":"2015-09-24T10:54:53.146Z","epd":0.1,"epx":1.0,"speed":10.89488590878794,"alt":0.0,"epy":1.0,"track":73.6765902708025,"class":"TPV","lat":52.18392460600037,"mode":3}
{"ept":0.001,"eps":0.1,"epv":1.0,"lon":4.828540678813838,"time":"2015-09-24T10:54:54.146Z","epd":0.1,"epx":1.0,"speed":10.89488590878794,"alt":0.0,"epy":1.0,"track":73.6765902708025,"class":"TPV","lat":52.18395214416317,"mode":3}
{"ept":0.001,"eps":0.1,"epv":1.0,"lon":4.8286940961039955,"time":"2015-09-24T10:54:55.146Z","epd":0.1,"epx":1.0,"speed":10.89488590878794,"alt":0.0,"epy":1.0,"track":73.6765902708025,"class":"TPV","lat":52.18397968232597,"mode":3}
{"ept":0.001,"eps":0.1,"epv":1.0,"lon":4.828847513394153,"time":"2015-09-24T10:54:56.146Z","epd":0.1,"epx":1.0,"speed":10.89488590878794,"alt":0.0,"epy":1.0,"track":73.6765902708025,"class":"TPV","lat":52.184007220488766,"mode":3}
{"ept":0.001,"eps":0.1,"epv":1.0,"lon":4.82900093068431,"time":"2015-09-24T10:54:57.146Z","epd":0.1,"epx":1.0,"speed":10.89488590878794,"alt":0.0,"epy":1.0,"track":73.6765902708025,"class":"TPV","lat":52.18403475865156,"mode":3}
{"ept":0.001,"eps":0.1,"epv":1.0,"lon":4.829154347974467,"time":"2015-09-24T10:54:58.146Z","epd":0.1,"epx":1.0,"speed":10.89488590878794,"alt":0.0,"epy":1.0,"track":73.6765902708025,"class":"TPV","lat":52.18406229681436,"mode":3}
{"ept":0.001,"eps":0.1,"epv":1.0,"lon":4.829307765264624,"time":"2015-09-24T10:54:59.146Z","epd":0.1,"epx":1.0,"speed":10.89488590878794,"alt":0.0,"epy":1.0,"track":73.6765902708025,"class":"TPV","lat":52.18408983497716,"mode":3}
{"ept":0.001,"eps":0.1,"epv":1.0,"lon":4.829461182554781,"time":"2015-09-24T10:55:00.146Z","epd":0.1,"epx":1.0,"speed":10.89488590878794,"alt":0.0,"epy":1.0,"track":73.6765902708025,"class":"TPV","lat":52.184117373139955,"mode":3}
{"ept":0.001,"eps":0.1,"epv":1.0,"lon":4.8296145998449385,"time":"2015-09-24T10:55:01.146Z","epd":0.1,"epx":1.0,"speed":10.89488590878794,"alt":0.0,"epy":1.0,"track":73.6765902708025,"class":"TPV","lat":52.18414491130276,"mode":3}
{"ept":0.001,"eps":0.1,"epv":1.0,"lon":4.829768017135096,"time":"2015-09-24T10:55:02.146Z","epd":0.1,"epx":1.0,"speed":10.89488590878794,"alt":0.0,"epy":1.0,"track":73.6765902708025,"class":"TPV","lat":52.18417244946556,"mode":3}
{"ept":0.001,"eps":0.1,"epv":1.0,"lon":4.829921434425253,"time":"2015-09-24T10:55:03.146Z","epd":0.1,"epx":1.0,"speed":10.89488590878794,"alt":0.0,"epy":1.0,"track":73.6765902708025,"class":"TPV","lat":52.184199987628354,"mode":3}
{"ept":0.001,"eps":0.1,"epv":1.0,"lon":4.83007485171541,"time":"2015-09-24T10:55:04.146Z","epd":0.1,"epx":1.0,"speed":10.89488590878794,"alt":0.0,"epy":1.0,"track":73.6765902708025,"class":"TPV","lat":52.18422752579115,"mode":3}
{"ept":0.001,"eps":0.1,"epv":1.0,"lon":4.830228269005567,"time":"2015-09-24T10:55:05.146Z","epd":0.1,"epx":1.0,"speed":10.89488590878794,"alt":0.0,"epy":1.0,"track":73.6765902708025,"class":"TPV","lat":52.18425506395395,"mode":3}
{"ept":0.001,"eps":0.1,"epv":1.0,"lon":4.830381686295724,"time":"2015-09-24T10:55:06.146Z","epd":0.1,"epx":1.0,"speed":10.89488590878794,"alt":0.0,"epy":1.0,"track":73.6765902708025,"class":"TPV","lat":52.184282602116745,"mode":3}
{"ept":0.001,"eps":0.1,"epv":1.0,"lon":4.8305351035858815,"time":"2015-09-24T10:55:07.146Z","epd":0.1,"epx":1.0,"speed":10.89488590878794,"alt":0.0,"epy":1.0,"track":73.6765902708025,"class":"TPV","lat":52.18431014027954,"mode":3}
{"ept":0.001,"eps":0.1,"epv":1.0,"lon":4.830688520876039,"time":"2015-09-24T10:55:08.146Z","epd":0.1,"epx":1.0,"speed":10.89488590878794,"alt":0.0,"epy":1.0,"track":73.6765902708025,"class":"TPV","lat":52.18433767844234,"mode":3}
{"ept":0.001,"eps":0.1,"epv":1.0,"lon":4.830841938166196,"time":"2015-09-24T10:55:09.146Z","epd":0.1,"epx":1.0,"speed":10.89488590878794,"alt":0.0,"epy":1.0,"track":73.6765902708025,"class":"TPV","lat":52.184365216605144,"mode":3}
{"ept":0.001,"eps":0.1,"epv":1.0,"lon":4.830995355456353,"time":"2015-09-24T10:55:10.146Z","epd":0.1,"epx":1.0,"speed":10.89488590878794,"alt":0.0,"epy":1.0,"track":73.6765902708025,"class":"TPV","lat":52.18439275476794,"mode":3}
{"ept":0.001,"eps":0.1,"epv":1.0,"lon":4.83114877274651,"time":"2015-09-24T10:55:11.146Z","epd":0.1,"epx":1.0,"speed":10.89488590878794,"alt":0.0,"epy":1.0,"track":73.6765902708025,"class":"TPV","lat":52.18442029293074,"mode":3}
{"ept":0.001,"eps":0.1,"epv":1.0,"lon":4.831302190036667,"time":"2015-09-24T10:55:12.146Z","epd":0.1,"epx":1.0,"speed":10.89488590878794,"alt":0.0,"epy":1.0,"track":73.6765902708025,"class":"TPV","lat":52.184447831093536,"mode":3}
{"ept":0.001,"eps":0.1,"epv":1.0,"lon":4.831455607326824,"time":"2015-09-24T10:55:13.146Z","epd":0.1,"epx":1.0,"speed":10.89488590878794,"alt":0.0,"epy":1.0,"track":73.6765902708025,"class":"TPV","lat":52.18447536925633,"mode":3}
{"ept":0.001,"eps":0.1,"epv":1.0,"lon":4.831609024616982,"time":"2015-09-24T10:55:14.146Z","epd":0.1,"epx":1.0,"speed":10.89488590878794,"alt":0.0,"epy":1.0,"track":73.6765902708025,"class":"TPV","lat":52.18450290741913,"mode":3}
{"ept":0.001,"eps":0.1,"epv":1.0,"lon":4.831762441907139,"time":"2015-09-24T10:55:15.146Z","epd":0.1,"epx":1.0,"speed":10.89488590878794,"alt":0.0,"epy":1.0,"track":73.6765902708025,"class":"TPV","lat":52.18453044558193,"mode":3}
{"ept":0.001,"eps":0.1,"epv":1.0,"lon":4.831915859197296,"time":"2015-09-24T10:55:16.146Z","epd":0.1,"epx":1.0,"speed":10.89488590878794,"alt":0.0,"epy":1.0,"track":73.6765902708025,"class":"TPV","lat":52.18455798374473,"mode":3}
{"ept":0.001,"eps":0.1,"epv":1.0,"lon":4.832069276487453,"time":"2015-09-24T10:55:17.146Z","epd":0.1,"epx":1.0,"speed":10.89488590878794,"alt":0.0,"epy":1.0,"track":73.6765902708025,"class":"TPV","lat":52.18458552190753,"mode":3}
{"ept":0.001,"eps":0.1,"epv":1.0,"lon":4.83222269377761,"time":"2015-09-24T10:55:18.146Z","epd":0.1,"epx":1.0,"speed":10.89488590878794,"alt":0.0,"epy":1.0,"track":73.6765902708025,"class":"TPV","lat":52.184613060070326,"mode":3}
{"ept":0.001,"eps":0.1,"epv":1.0,"lon":4.832376111067767,"time":"2015-09-24T10:55:19.146Z","epd":0.1,"epx":1.0,"speed":10.89488590878794,"alt":0.0,"epy":1.0,"track":73.6765902708025,"class":"TPV","lat":52.18464059823312,"mode":3}
{"ept":0.001,"eps":0.1,"epv":1.0,"lon":4.832529528357925,"time":"2015-09-24T10:55:20.146Z","epd":0.1,"epx":1.0,"speed":10.89488590878794,"alt":0.0,"epy":1.0,"track":73.6765902708025,"class":"TPV","lat":52.18466813639592,"mode":3}
{"ept":0.001,"eps":0.1,"epv":1.0,"lon":4.832682945648082,"time":"2015-09-24T10:55:21.146Z","epd":0.1,"epx":1.0,"speed":10.89488590878794,"alt":0.0,"epy":1.0,"track":73.6765902708025,"class":"TPV","lat":52.18469567455872,"mode":3}
{"ept":0.001,"eps":0.1,"epv":1.0,"lon":4.832836362938239,"time":"2015-09-24T10:55:22.146Z","epd":0.1,"epx":1.0,"speed":10.89488590878794,"alt":0.0,"epy":1.0,"track":73.6765902708025,"class":"TPV","lat":52.184723212721515,"mode":3}
{"ept":0.001,"eps":0.1,"epv":1.0,"lon":4.832989780228396,"time":"2015-09-24T10:55:23.146Z","epd":0.1,"epx":1.0,"speed":10.89488590878794,"alt":0.0,"epy":1.0,"track":73.6765902708025,"class":"TPV","lat":52.18475075088432,"mode":3}
{"ept":0.001,"eps":0.1,"epv":1.0,"lon":4.833143197518553,"time":"2015-09-24T10:55:24.146Z","epd":0.1,"epx":1.0,"speed":10.89488590878794,"alt":0.0,"epy":1.0,"track":73.6765902708025,"class":"TPV","lat":52.18477828904712,"mode":3}
{"ept":0.001,"eps":0.1,"epv":1.0,"lon":4.83329661480871,"time":"2015-09-24T10:55:25.146Z","epd":0.1,"epx":1.0,"speed":10.89488590878794,"alt":0.0,"epy":1.0,"track":73.6765902708025,"class":"TPV","lat":52.184805827209914,"mode":3}
{"ept":0.001,"eps":0.1,"epv":1.0,"lon":4.833450032098868,"time":"2015-09-24T10:55:26.146Z","epd":0.1,"epx":1.0,"speed":10.89488590878794,"alt":0.0,"epy":1.0,"track":73.6765902708025,"class":"TPV","lat":52.18483336537271,"mode":3}
{"ept":0.001,"eps":0.1,"epv":1.0,"lon":4.833603449389025,"time":"2015-09-24T10:55:27.146Z","epd":0.1,"epx":1.0,"speed":10.89488590878794,"alt":0.0,"epy":1.0,"track":73.6765902708025,"class":"TPV","lat":52.18486090353551,"mode":3}
{"ept":0.001,"eps":0.1,"epv":1.0,"lon":4.833756866679182,"time":"2015-09-24T10:55:28.146Z","epd":0.1,"epx":1.0,"speed":10.89488590878794,"alt":0.0,"epy":1.0,"track":73.6765902708025,"class":"TPV","lat":52.184888441698305,"mode":3}
{"ept":0.001,"eps":0.1,"epv":1.0,"lon":4.833910283969339,"time":"2015-09-24T10:55:29.146Z","epd":0.1,"epx":1.0,"speed":10.89488590878794,"alt":0.0,"epy":1.0,"track":73.6765902708025,"class":"TPV","lat":52.1849159798611,"mode":3}
{"ept":0.001,"eps":0.1,"epv":1.0,"lon":4.834063701259496,"time":"2015-09-24T10:55:30.146Z","epd":0.1,"epx":1.0,"speed":10.89488590878794,"alt":0.0,"epy":1.0,"track":73.6765902708025,"class":"TPV","lat":52.1849435180239,"mode":3}
{"ept":0.001,"eps":0.1,"epv":1.0,"lon":4.834217118549653,"time":"2015-09-24T10:55:31.146Z","epd":0.1,"epx":1.0,"speed":10.89488590878794,"alt":0.0,"epy":1.0,"track":73.6765902708025,"class":"TPV","lat":52.184971056186704,"mode":3}
{"ept":0.001,"eps":0.1,"epv":1.0,"lon":4.834370535839811,"time":"2015-09-24T10:55:32.146Z","epd":0.1,"epx":1.0,"speed":10.89488590878794,"alt":0.0,"epy":1.0,"track":73.6765902708025,"class":"TPV","lat":52.1849985943495,"mode":3}
{"ept":0.001,"eps":0.1,"epv":1.0,"lon":4.834523953129968,"time":"2015-09-24T10:55:33.146Z","epd":0.1,"epx":1.0,"speed":10.89488590878794,"alt":0.0,"epy":1.0,"track":73.6765902708025,"class":"TPV","lat":52.1850261325123,"mode":3}
{"ept":0.001,"eps":0.1,"epv":1.0,"lon":4.834677370420125,"time":"2015-09-24T10:55:34.146Z","epd":0.1,"epx":1.0,"speed":10.89488590878794,"alt":0.0,"epy":1.0,"track":73.6765902708025,"class":"TPV","lat":52.185053670675096,"mode":3}
{"ept":0.001,"eps":0.1,"epv":1.0,"lon":4.834830787710282,"time":"2015-09-24T10:55:35.146Z","epd":0.1,"epx":1.0,"speed":10.89488590878794,"alt":0.0,"epy":1.0,"track":73.6765902708025,"class":"TPV","lat":52.18508120883789,"mode":3}
{"ept":0.001,"eps":0.1,"epv":1.0,"lon":4.834984205000439,"time":"2015-09-24T10:55:36.146Z","epd":0.1,"epx":1.0,"speed":10.89488590878794,"alt":0.0,"epy":1.0,"track":73.6765902708025,"class":"TPV","lat":52.18510874700069,"mode":3}
{"ept":0.001,"eps":0.1,"epv":1.0,"lon":4.835137622290596,"time":"2015-09-24T10:55:37.146Z","epd":0.1,"epx":1.0,"speed":10.89488590878794,"alt":0.0,"epy":1.0,"track":73.6765902708025,"class":"TPV","lat":52.18513628516349,"mode":3}
{"ept":0.001,"eps":0.1,"epv":1.0,"lon":4.835291039580754,"time":"2015-09-24T10:55:38.146Z","epd":0.1,"epx":1.0,"speed":10.89488590878794,"alt":0.0,"epy":1.0,"track":73.6765902708025,"class":"TPV","lat":52.18516382332629,"mode":3}
{"ept":0.001,"eps":0.1,"epv":1.0,"lon":4.835444456870911,"time":"2015-09-24T10:55:39.146Z","epd":0.1,"epx":1.0,"speed":10.89488590878794,"alt":0.0,"epy":1.0,"track":73.6765902708025,"class":"TPV","lat":52.18519136148909,"mode":3}
{"ept":0.001,"eps":0.1,"epv":1.0,"lon":4.835597874161068,"time":"2015-09-24T10:55:40.146Z","epd":0.1,"epx":1.0,"speed":10.89488590878794,"alt":0.0,"epy":1.0,"track":73.6765902708025,"class":"TPV","lat":52.185218899651886,"mode":3}
{"ept":0.001,"eps":0.1,"epv":1.0,"lon":4.835751291451225,"time":"2015-09-24T10:55:41.146Z","epd":0.1,"epx":1.0,"speed":10.89488590878794,"alt":0.0,"epy":1.0,"track":73.6765902708025,"class":"TPV","lat":52.18524643781468,"mode":3}
{"ept":0.001,"eps":0.1,"epv":1.0,"lon":4.835904708741382,"time":"2015-09-24T10:55:42.146Z","epd":0.1,"epx":1.0,"speed":10.89488590878794,"alt":0.0,"epy":1.0,"track":73.6765902708025,"class":"TPV","lat":52.18527397597748,"mode":3}
{"ept":0.001,"eps":0.1,"epv":1.0,"lon":4.836058126031539,"time":"2015-09-24T10:55:43.146Z","epd":0.1,"epx":1.0,"speed":10.89488590878794,"alt":0.0,"epy":1.0,"track":73.6765902708025,"class":"TPV","lat":52.18530151414028,"mode":3}
{"ept":0.001,"eps":0.1,"epv":1.0,"lon":4.836211543321697,"time":"2015-09-24T10:55:44.146Z","epd":0.1,"epx":1.0,"speed":10.89488590878794,"alt":0.0,"epy":1.0,"track":73.6765902708025,"class":"TPV","lat":52.185329052303075,"mode":3}
{"ept":0.001,"eps":0.1,"epv":1.0,"lon":4.836364960611854,"time":"2015-09-24T10:55:45.146Z","epd":0.1,"epx":1.0,"speed":10.89488590878794,"alt":0.0,"epy":1.0,"track":73.6765902708025,"class":"TPV","lat":52.18535659046588,"mode":3}
{"ept":0.001,"eps":0.1,"epv":1.0,"lon":4.836518377902011,"time":"2015-09-24T10:55:46.146Z","epd":0.1,"epx":1.0,"speed":10.89488590878794,"alt":0.0,"epy":1.0,"track":73.6765902708025,"class":"TPV","lat":52.18538412862868,"mode":3}
{"ept":0.001,"eps":0.1,"epv":1.0,"lon":4.836671795192168,"time":"2015-09-24T10:55:47.146Z","epd":0.1,"epx":1.0,"speed":10.89488590878794,"alt":0.0,"epy":1.0,"track":73.6765902708025,"class":"TPV","lat":52.185411666791474,"mode":3}
{"ept":0.001,"eps":0.1,"epv":1.0,"lon":4.836825212482325,"time":"2015-09-24T10:55:48.146Z","epd":0.1,"epx":1.0,"speed":10.89488590878794,"alt":0.0,"epy":1.0,"track":73.6765902708025,"class":"TPV","lat":52.18543920495427,"mode":3}
{"ept":0.001,"eps":0.1,"epv":1.0,"lon":4.836978629772482,"time":"2015-09-24T10:55:49.146Z","epd":0.1,"epx":1.0,"speed":10.89488590878794,"alt":0.0,"epy":1.0,"track":73.6765902708025,"class":"TPV","lat":52.18546674311707,"mode":3}
{"ept":0.001,"eps":0.1,"epv":1.0,"lon":4.8371320470626396,"time":"2015-09-24T10:55:50.146Z","epd":0.1,"epx":1.0,"speed":10.89488590878794,"alt":0.0,"epy":1.0,"track":73.6765902708025,"class":"TPV","lat":52.185494281279865,"mode":3}
{"ept":0.001,"eps":0.1,"epv":1.0,"lon":4.837285464352797,"time":"2015-09-24T10:55:51.146Z","epd":0.1,"epx":1.0,"speed":10.89488590878794,"alt":0.0,"epy":1.0,"track":73.6765902708025,"class":"TPV","lat":52.18552181944266,"mode":3}
{"ept":0.001,"eps":0.1,"epv":1.0,"lon":4.837438881642954,"time":"2015-09-24T10:55:52.146Z","epd":0.1,"epx":1.0,"speed":10.89488590878794,"alt":0.0,"epy":1.0,"track":73.6765902708025,"class":"TPV","lat":52.18554935760546,"mode":3}
{"ept":0.001,"eps":0.1,"epv":1.0,"lon":4.83759229893311,"time":"2015-09-24T10:55:53.146Z","epd":0.1,"epx":1.0,"speed":10.89488590878794,"alt":0.0,"epy":1.0,"track":73.6765902708025,"class":"TPV","lat":52.185576895768264,"mode":3}
{"ept":0.001,"eps":0.1,"epv":1.0,"lon":4.837745716223267,"time":"2015-09-24T10:55:54.146Z","epd":0.1,"epx":1.0,"speed":10.89488590878794,"alt":0.0,"epy":1.0,"track":73.6765902708025,"class":"TPV","lat":52.18560443393106,"mode":3}
{"ept":0.001,"eps":0.1,"epv":1.0,"lon":4.8378991335134245,"time":"2015-09-24T10:55:55.146Z","epd":0.1,"epx":1.0,"speed":10.89488590878794,"alt":0.0,"epy":1.0,"track":73.6765902708025,"class":"TPV","lat":52.18563197209386,"mode":3}
{"ept":0.001,"eps":0.1,"epv":1.0,"lon":4.838052550803582,"time":"2015-09-24T10:55:56.146Z","epd":0.1,"epx":1.0,"speed":10.89488590878794,"alt":0.0,"epy":1.0,"track":73.6765902708025,"class":"TPV","lat":52.185659510256656,"mode":3}
{"ept":0.001,"eps":0.1,"epv":1.0,"lon":4.838205968093739,"time":"2015-09-24T10:55:57.146Z","epd":0.1,"epx":1.0,"speed":10.89488590878794,"alt":0.0,"epy":1.0,"track":73.6765902708025,"class":"TPV","lat":52.18568704841945,"mode":3}
{"ept":0.001,"eps":0.1,"epv":1.0,"lon":4.838359385383896,"time":"2015-09-24T10:55:58.146Z","epd":0.1,"epx":1.0,"speed":10.89488590878794,"alt":0.0,"epy":1.0,"track":73.6765902708025,"class":"TPV","lat":52.18571458658225,"mode":3}
{"ept":0.001,"eps":0.1,"epv":1.0,"lon":4.838512802674053,"time":"2015-09-24T10:55:59.146Z","epd":0.1,"epx":1.0,"speed":10.89488590878794,"alt":0.0,"epy":1.0,"track":73.6765902708025,"class":"TPV","lat":52.18574212474505,"mode":3}
{"ept":0.001,"eps":0.1,"epv":1.0,"lon":4.83866621996421,"time":"2015-09-24T10:56:00.146Z","epd":0.1,"epx":1.0,"speed":10.89488590878794,"alt":0.0,"epy":1.0,"track":73.6765902708025,"class":"TPV","lat":52.18576966290785,"mode":3}
{"ept":0.001,"eps":0.1,"epv":1.0,"lon":4.8388196372543675,"time":"2015-09-24T10:56:01.146Z","epd":0.1,"epx":1.0,"speed":10.89488590878794,"alt":0.0,"epy":1.0,"track":73.6765902708025,"class":"TPV","lat":52.18579720107065,"mode":3}
{"ept":0.001,"eps":0.1,"epv":1.0,"lon":4.838973054544525,"time":"2015-09-24T10:56:02.146Z","epd":0.1,"epx":1.0,"speed":10.89488590878794,"alt":0.0,"epy":1.0,"track":73.6765902708025,"class":"TPV","lat":52.185824739233446,"mode":3}
{"ept":0.001,"eps":0.1,"epv":1.0,"lon":4.839126471834682,"time":"2015-09-24T10:56:03.146Z","epd":0.1,"epx":1.0,"speed":10.89488590878794,"alt":0.0,"epy":1.0,"track":73.6765902708025,"class":"TPV","lat":52.18585227739624,"mode":3}
{"ept":0.001,"eps":0.1,"epv":1.0,"lon":4.839279889124839,"time":"2015-09-24T10:56:04.146Z","epd":0.1,"epx":1.0,"speed":10.89488590878794,"alt":0.0,"epy":1.0,"track":73.6765902708025,"class":"TPV","lat":52.18587981555904,"mode":3}
{"ept":0.001,"eps":0.1,"epv":1.0,"lon":4.839433306414996,"time":"2015-09-24T10:56:05.146Z","epd":0.1,"epx":1.0,"speed":10.89488590878794,"alt":0.0,"epy":1.0,"track":73.6765902708025,"class":"TPV","lat":52.18590735372184,"mode":3}
{"ept":0.001,"eps":0.1,"epv":1.0,"lon":4.839586723705153,"time":"2015-09-24T10:56:06.146Z","epd":0.1,"epx":1.0,"speed":10.89488590878794,"alt":0.0,"epy":1.0,"track":73.6765902708025,"class":"TPV","lat":52.185934891884635,"mode":3}
{"ept":0.001,"eps":0.1,"epv":1.0,"lon":4.8397401409953105,"time":"2015-09-24T10:56:07.146Z","epd":0.1,"epx":1.0,"speed":10.89488590878794,"alt":0.0,"epy":1.0,"track":73.6765902708025,"class":"TPV","lat":52.18596243004744,"mode":3}
{"ept":0.001,"eps":0.1,"epv":1.0,"lon":4.839893558285468,"time":"2015-09-24T10:56:08.146Z","epd":0.1,"epx":1.0,"speed":10.89488590878794,"alt":0.0,"epy":1.0,"track":73.6765902708025,"class":"TPV","lat":52.18598996821024,"mode":3}
{"ept":0.001,"eps":0.1,"epv":1.0,"lon":4.840046975575625,"time":"2015-09-24T10:56:09.146Z","epd":0.1,"epx":1.0,"speed":10.89488590878794,"alt":0.0,"epy":1.0,"track":73.6765902708025,"class":"TPV","lat":52.186017506373034,"mode":3}
{"ept":0.001,"eps":0.1,"epv":1.0,"lon":4.840200392865782,"time":"2015-09-24T10:56:10.146Z","epd":0.1,"epx":1.0,"speed":10.89488590878794,"alt":0.0,"epy":1.0,"track":73.6765902708025,"class":"TPV","lat":52.18604504453583,"mode":3}
{"ept":0.001,"eps":0.1,"epv":1.0,"lon":4.840353810155939,"time":"2015-09-24T10:56:11.146Z","epd":0.1,"epx":1.0,"speed":10.89488590878794,"alt":0.0,"epy":1.0,"track":73.6765902708025,"class":"TPV","lat":52.18607258269863,"mode":3}
{"ept":0.001,"eps":0.1,"epv":1.0,"lon":4.840507227446096,"time":"2015-09-24T10:56:12.146Z","epd":0.1,"epx":1.0,"speed":10.89488590878794,"alt":0.0,"epy":1.0,"track":73.6765902708025,"class":"TPV","lat":52.186100120861425,"mode":3}
{"ept":0.001,"eps":0.1,"epv":1.0,"lon":4.8406606447362535,"time":"2015-09-24T10:56:13.146Z","epd":0.1,"epx":1.0,"speed":10.89488590878794,"alt":0.0,"epy":1.0,"track":73.6765902708025,"class":"TPV","lat":52.18612765902422,"mode":3}
{"ept":0.001,"eps":0.1,"epv":1.0,"lon":4.840814062026411,"time":"2015-09-24T10:56:14.146Z","epd":0.1,"epx":1.0,"speed":10.89488590878794,"alt":0.0,"epy":1.0,"track":73.6765902708025,"class":"TPV","lat":52.18615519718703,"mode":3}
{"ept":0.001,"eps":0.1,"epv":1.0,"lon":4.840967479316568,"time":"2015-09-24T10:56:15.146Z","epd":0.1,"epx":1.0,"speed":10.89488590878794,"alt":0.0,"epy":1.0,"track":73.6765902708025,"class":"TPV","lat":52.186182735349824,"mode":3}
{"ept":0.001,"eps":0.1,"epv":1.0,"lon":4.841120896606725,"time":"2015-09-24T10:56:16.146Z","epd":0.1,"epx":1.0,"speed":10.89488590878794,"alt":0.0,"epy":1.0,"track":73.6765902708025,"class":"TPV","lat":52.18621027351262,"mode":3}
{"ept":0.001,"eps":0.1,"epv":1.0,"lon":4.841274313896882,"time":"2015-09-24T10:56:17.146Z","epd":0.1,"epx":1.0,"speed":10.89488590878794,"alt":0.0,"epy":1.0,"track":73.6765902708025,"class":"TPV","lat":52.18623781167542,"mode":3}
{"ept":0.001,"eps":0.1,"epv":1.0,"lon":4.841427731187039,"time":"2015-09-24T10:56:18.146Z","epd":0.1,"epx":1.0,"speed":10.89488590878794,"alt":0.0,"epy":1.0,"track":73.6765902708025,"class":"TPV","lat":52.186265349838216,"mode":3}
{"ept":0.001,"eps":0.1,"epv":1.0,"lon":4.8415811484771965,"time":"2015-09-24T10:56:19.146Z","epd":0.1,"epx":1.0,"speed":10.89488590878794,"alt":0.0,"epy":1.0,"track":73.6765902708025,"class":"TPV","lat":52.18629288800101,"mode":3}
{"ept":0.001,"eps":0.1,"epv":1.0,"lon":4.841734565767354,"time":"2015-09-24T10:56:20.146Z","epd":0.1,"epx":1.0,"speed":10.89488590878794,"alt":0.0,"epy":1.0,"track":73.6765902708025,"class":"TPV","lat":52.18632042616381,"mode":3}
{"ept":0.001,"eps":0.1,"epv":1.0,"lon":4.841887983057511,"time":"2015-09-24T10:56:21.146Z","epd":0.1,"epx":1.0,"speed":10.89488590878794,"alt":0.0,"epy":1.0,"track":73.6765902708025,"class":"TPV","lat":52.18634796432661,"mode":3}
{"ept":0.001,"eps":0.1,"epv":1.0,"lon":4.842041400347668,"time":"2015-09-24T10:56:22.147Z","epd":0.1,"epx":1.0,"speed":10.89488590878794,"alt":0.0,"epy":1.0,"track":73.6765902708025,"class":"TPV","lat":52.18637550248941,"mode":3}
{"ept":0.001,"eps":0.1,"epv":1.0,"lon":4.842194817637825,"time":"2015-09-24T10:56:23.147Z","epd":0.1,"epx":1.0,"speed":10.89488590878794,"alt":0.0,"epy":1.0,"track":73.6765902708025,"class":"TPV","lat":52.18640304065221,"mode":3}
{"ept":0.001,"eps":0.1,"epv":1.0,"lon":4.842348234927982,"time":"2015-09-24T10:56:24.147Z","epd":0.1,"epx":1.0,"speed":10.89488590878794,"alt":0.0,"epy":1.0,"track":73.6765902708025,"class":"TPV","lat":52.186430578815006,"mode":3}
{"ept":0.001,"eps":0.1,"epv":1.0,"lon":4.842501652218139,"time":"2015-09-24T10:56:25.146Z","epd":0.1,"epx":1.0,"speed":10.89488590878794,"alt":0.0,"epy":1.0,"track":73.6765902708025,"class":"TPV","lat":52.1864581169778,"mode":3}
{"ept":0.001,"eps":0.1,"epv":1.0,"lon":4.842655069508297,"time":"2015-09-24T10:56:26.146Z","epd":0.1,"epx":1.0,"speed":10.89488590878794,"alt":0.0,"epy":1.0,"track":73.6765902708025,"class":"TPV","lat":52.1864856551406,"mode":3}
{"ept":0.001,"eps":0.1,"epv":1.0,"lon":4.842808486798454,"time":"2015-09-24T10:56:27.146Z","epd":0.1,"epx":1.0,"speed":10.89488590878794,"alt":0.0,"epy":1.0,"track":73.6765902708025,"class":"TPV","lat":52.1865131933034,"mode":3}
{"ept":0.001,"eps":0.1,"epv":1.0,"lon":4.842961904088611,"time":"2015-09-24T10:56:28.146Z","epd":0.1,"epx":1.0,"speed":10.89488590878794,"alt":0.0,"epy":1.0,"track":73.6765902708025,"class":"TPV","lat":52.186540731466195,"mode":3}
{"ept":0.001,"eps":0.1,"epv":1.0,"lon":4.843115321378768,"time":"2015-09-24T10:56:29.146Z","epd":0.1,"epx":1.0,"speed":10.89488590878794,"alt":0.0,"epy":1.0,"track":73.6765902708025,"class":"TPV","lat":52.186568269629,"mode":3}
{"ept":0.001,"eps":0.1,"epv":1.0,"lon":4.843268738668925,"time":"2015-09-24T10:56:30.146Z","epd":0.1,"epx":1.0,"speed":10.89488590878794,"alt":0.0,"epy":1.0,"track":73.6765902708025,"class":"TPV","lat":52.1865958077918,"mode":3}
{"ept":0.001,"eps":0.1,"epv":1.0,"lon":4.843422155959082,"time":"2015-09-24T10:56:31.146Z","epd":0.1,"epx":1.0,"speed":10.89488590878794,"alt":0.0,"epy":1.0,"track":73.6765902708025,"class":"TPV","lat":52.186623345954594,"mode":3}
{"ept":0.001,"eps":0.1,"epv":1.0,"lon":4.84357557324924,"time":"2015-09-24T10:56:32.146Z","epd":0.1,"epx":1.0,"speed":10.89488590878794,"alt":0.0,"epy":1.0,"track":73.6765902708025,"class":"TPV","lat":52.18665088411739,"mode":3}
{"ept":0.001,"eps":0.1,"epv":1.0,"lon":4.843728990539397,"time":"2015-09-24T10:56:33.146Z","epd":0.1,"epx":1.0,"speed":10.89488590878794,"alt":0.0,"epy":1.0,"track":73.6765902708025,"class":"TPV","lat":52.18667842228019,"mode":3}
{"ept":0.001,"eps":0.1,"epv":1.0,"lon":4.843882407829554,"time":"2015-09-24T10:56:34.146Z","epd":0.1,"epx":1.0,"speed":10.89488590878794,"alt":0.0,"epy":1.0,"track":73.6765902708025,"class":"TPV","lat":52.186705960442985,"mode":3}
{"ept":0.001,"eps":0.1,"epv":1.0,"lon":4.844035825119711,"time":"2015-09-24T10:56:35.147Z","epd":0.1,"epx":1.0,"speed":10.89488590878794,"alt":0.0,"epy":1.0,"track":73.6765902708025,"class":"TPV","lat":52.18673349860578,"mode":3}
{"ept":0.001,"eps":0.1,"epv":1.0,"lon":4.844189242409868,"time":"2015-09-24T10:56:36.147Z","epd":0.1,"epx":1.0,"speed":10.89488590878794,"alt":0.0,"epy":1.0,"track":73.6765902708025,"class":"TPV","lat":52.18676103676859,"mode":3}
{"ept":0.001,"eps":0.1,"epv":1.0,"lon":4.844342659700025,"time":"2015-09-24T10:56:37.147Z","epd":0.1,"epx":1.0,"speed":10.89488590878794,"alt":0.0,"epy":1.0,"track":73.6765902708025,"class":"TPV","lat":52.186788574931384,"mode":3}
{"ept":0.001,"eps":0.1,"epv":1.0,"lon":4.844496076990183,"time":"2015-09-24T10:56:38.146Z","epd":0.1,"epx":1.0,"speed":10.89488590878794,"alt":0.0,"epy":1.0,"track":73.6765902708025,"class":"TPV","lat":52.18681611309418,"mode":3}
{"ept":0.001,"eps":0.1,"epv":1.0,"lon":4.84464949428034,"time":"2015-09-24T10:56:39.146Z","epd":0.1,"epx":1.0,"speed":10.89488590878794,"alt":0.0,"epy":1.0,"track":73.6765902708025,"class":"TPV","lat":52.18684365125698,"mode":3}
{"ept":0.001,"eps":0.1,"epv":1.0,"lon":4.844802911570497,"time":"2015-09-24T10:56:40.146Z","epd":0.1,"epx":1.0,"speed":10.89488590878794,"alt":0.0,"epy":1.0,"track":73.6765902708025,"class":"TPV","lat":52.186871189419776,"mode":3}
{"ept":0.001,"eps":0.1,"epv":1.0,"lon":4.844956328860654,"time":"2015-09-24T10:56:41.146Z","epd":0.1,"epx":1.0,"speed":10.89488590878794,"alt":0.0,"epy":1.0,"track":73.6765902708025,"class":"TPV","lat":52.18689872758257,"mode":3}
{"ept":0.001,"eps":0.1,"epv":1.0,"lon":4.845109746150811,"time":"2015-09-24T10:56:42.146Z","epd":0.1,"epx":1.0,"speed":10.89488590878794,"alt":0.0,"epy":1.0,"track":73.6765902708025,"class":"TPV","lat":52.18692626574537,"mode":3}
{"ept":0.001,"eps":0.1,"epv":1.0,"lon":4.845263163440968,"time":"2015-09-24T10:56:43.146Z","epd":0.1,"epx":1.0,"speed":10.89488590878794,"alt":0.0,"epy":1.0,"track":73.6765902708025,"class":"TPV","lat":52.18695380390817,"mode":3}
{"ept":0.001,"eps":0.1,"epv":1.0,"lon":4.845416580731126,"time":"2015-09-24T10:56:44.146Z","epd":0.1,"epx":1.0,"speed":10.89488590878794,"alt":0.0,"epy":1.0,"track":73.6765902708025,"class":"TPV","lat":52.18698134207097,"mode":3}
{"ept":0.001,"eps":0.1,"epv":1.0,"lon":4.845569998021283,"time":"2015-09-24T10:56:45.146Z","epd":0.1,"epx":1.0,"speed":10.89488590878794,"alt":0.0,"epy":1.0,"track":73.6765902708025,"class":"TPV","lat":52.18700888023377,"mode":3}
{"ept":0.001,"eps":0.1,"epv":1.0,"lon":4.84572341531144,"time":"2015-09-24T10:56:46.146Z","epd":0.1,"epx":1.0,"speed":10.89488590878794,"alt":0.0,"epy":1.0,"track":73.6765902708025,"class":"TPV","lat":52.187036418396566,"mode":3}
{"ept":0.001,"eps":0.1,"epv":1.0,"lon":4.845876832601597,"time":"2015-09-24T10:56:47.147Z","epd":0.1,"epx":1.0,"speed":10.89488590878794,"alt":0.0,"epy":1.0,"track":73.6765902708025,"class":"TPV","lat":52.18706395655936,"mode":3}
{"ept":0.001,"eps":0.1,"epv":1.0,"lon":4.846030249891754,"time":"2015-09-24T10:56:48.146Z","epd":0.1,"epx":1.0,"speed":10.89488590878794,"alt":0.0,"epy":1.0,"track":73.6765902708025,"class":"TPV","lat":52.18709149472216,"mode":3}
{"ept":0.001,"eps":0.1,"epv":1.0,"lon":4.846183667181911,"time":"2015-09-24T10:56:49.146Z","epd":0.1,"epx":1.0,"speed":10.89488590878794,"alt":0.0,"epy":1.0,"track":73.6765902708025,"class":"TPV","lat":52.18711903288496,"mode":3}
{"ept":0.001,"eps":0.1,"epv":1.0,"lon":4.846337084472069,"time":"2015-09-24T10:56:50.146Z","epd":0.1,"epx":1.0,"speed":10.89488590878794,"alt":0.0,"epy":1.0,"track":73.6765902708025,"class":"TPV","lat":52.187146571047755,"mode":3}
{"ept":0.001,"eps":0.1,"epv":1.0,"lon":4.846490501762226,"time":"2015-09-24T10:56:51.147Z","epd":0.1,"epx":1.0,"speed":10.89488590878794,"alt":0.0,"epy":1.0,"track":73.6765902708025,"class":"TPV","lat":52.18717410921056,"mode":3}
{"ept":0.001,"eps":0.1,"epv":1.0,"lon":4.846643919052383,"time":"2015-09-24T10:56:52.146Z","epd":0.1,"epx":1.0,"speed":10.89488590878794,"alt":0.0,"epy":1.0,"track":73.6765902708025,"class":"TPV","lat":52.18720164737336,"mode":3}
{"ept":0.001,"eps":0.1,"epv":1.0,"lon":4.84679733634254,"time":"2015-09-24T10:56:53.146Z","epd":0.1,"epx":1.0,"speed":10.89488590878794,"alt":0.0,"epy":1.0,"track":73.6765902708025,"class":"TPV","lat":52.187229185536154,"mode":3}
{"ept":0.001,"eps":0.1,"epv":1.0,"lon":4.846950753632697,"time":"2015-09-24T10:56:54.146Z","epd":0.1,"epx":1.0,"speed":10.89488590878794,"alt":0.0,"epy":1.0,"track":73.6765902708025,"class":"TPV","lat":52.18725672369895,"mode":3}
{"ept":0.001,"eps":0.1,"epv":1.0,"lon":4.847104170922854,"time":"2015-09-24T10:56:55.147Z","epd":0.1,"epx":1.0,"speed":10.89488590878794,"alt":0.0,"epy":1.0,"track":73.6765902708025,"class":"TPV","lat":52.18728426186175,"mode":3}
{"ept":0.001,"eps":0.1,"epv":1.0,"lon":4.847257588213012,"time":"2015-09-24T10:56:56.147Z","epd":0.1,"epx":1.0,"speed":10.89488590878794,"alt":0.0,"epy":1.0,"track":73.6765902708025,"class":"TPV","lat":52.187311800024546,"mode":3}
{"ept":0.001,"eps":0.1,"epv":1.0,"lon":4.847411005503168,"time":"2015-09-24T10:56:57.146Z","epd":0.1,"epx":1.0,"speed":10.89488590878794,"alt":0.0,"epy":1.0,"track":73.6765902708025,"class":"TPV","lat":52.18733933818734,"mode":3}
{"ept":0.001,"eps":0.1,"epv":1.0,"lon":4.847564422793325,"time":"2015-09-24T10:56:58.146Z","epd":0.1,"epx":1.0,"speed":10.89488590878794,"alt":0.0,"epy":1.0,"track":73.6765902708025,"class":"TPV","lat":52.18736687635015,"mode":3}
{"ept":0.001,"eps":0.1,"epv":1.0,"lon":4.847717840083482,"time":"2015-09-24T10:56:59.146Z","epd":0.1,"epx":1.0,"speed":10.89488590878794,"alt":0.0,"epy":1.0,"track":73.6765902708025,"class":"TPV","lat":52.187394414512944,"mode":3}
{"ept":0.001,"eps":0.1,"epv":1.0,"lon":4.847871257373639,"time":"2015-09-24T10:57:00.147Z","epd":0.1,"epx":1.0,"speed":10.89488590878794,"alt":0.0,"epy":1.0,"track":73.6765902708025,"class":"TPV","lat":52.18742195267574,"mode":3}
{"ept":0.001,"eps":0.1,"epv":1.0,"lon":4.8480246746637965,"time":"2015-09-24T10:57:01.146Z","epd":0.1,"epx":1.0,"speed":10.89488590878794,"alt":0.0,"epy":1.0,"track":73.6765902708025,"class":"TPV","lat":52.18744949083854,"mode":3}
{"ept":0.001,"eps":0.1,"epv":1.0,"lon":4.848178091953954,"time":"2015-09-24T10:57:02.146Z","epd":0.1,"epx":1.0,"speed":10.89488590878794,"alt":0.0,"epy":1.0,"track":73.6765902708025,"class":"TPV","lat":52.187477029001336,"mode":3}
{"ept":0.001,"eps":0.1,"epv":1.0,"lon":4.848331509244111,"time":"2015-09-24T10:57:03.146Z","epd":0.1,"epx":1.0,"speed":10.89488590878794,"alt":0.0,"epy":1.0,"track":73.6765902708025,"class":"TPV","lat":52.18750456716413,"mode":3}
{"ept":0.001,"eps":0.1,"epv":1.0,"lon":4.848484926534268,"time":"2015-09-24T10:57:04.147Z","epd":0.1,"epx":1.0,"speed":10.89488590878794,"alt":0.0,"epy":1.0,"track":73.6765902708025,"class":"TPV","lat":52.18753210532693,"mode":3}
{"ept":0.001,"eps":0.1,"epv":1.0,"lon":4.848638343824425,"time":"2015-09-24T10:57:05.147Z","epd":0.1,"epx":1.0,"speed":10.89488590878794,"alt":0.0,"epy":1.0,"track":73.6765902708025,"class":"TPV","lat":52.18755964348973,"mode":3}
{"ept":0.001,"eps":0.1,"epv":1.0,"lon":4.848791761114582,"time":"2015-09-24T10:57:06.146Z","epd":0.1,"epx":1.0,"speed":10.89488590878794,"alt":0.0,"epy":1.0,"track":73.6765902708025,"class":"TPV","lat":52.18758718165253,"mode":3}
{"ept":0.001,"eps":0.1,"epv":1.0,"lon":4.8489451784047395,"time":"2015-09-24T10:57:07.146Z","epd":0.1,"epx":1.0,"speed":10.89488590878794,"alt":0.0,"epy":1.0,"track":73.6765902708025,"class":"TPV","lat":52.18761471981533,"mode":3}
{"ept":0.001,"eps":0.1,"epv":1.0,"lon":4.849098595694897,"time":"2015-09-24T10:57:08.146Z","epd":0.1,"epx":1.0,"speed":10.89488590878794,"alt":0.0,"epy":1.0,"track":73.6765902708025,"class":"TPV","lat":52.187642257978126,"mode":3}
{"ept":0.001,"eps":0.1,"epv":1.0,"lon":4.849252012985054,"time":"2015-09-24T10:57:09.147Z","epd":0.1,"epx":1.0,"speed":10.89488590878794,"alt":0.0,"epy":1.0,"track":73.6765902708025,"class":"TPV","lat":52.18766979614092,"mode":3}
{"ept":0.001,"eps":0.1,"epv":1.0,"lon":4.849405430275211,"time":"2015-09-24T10:57:10.146Z","epd":0.1,"epx":1.0,"speed":10.89488590878794,"alt":0.0,"epy":1.0,"track":73.6765902708025,"class":"TPV","lat":52.18769733430372,"mode":3}
{"ept":0.001,"eps":0.1,"epv":1.0,"lon":4.849558847565368,"time":"2015-09-24T10:57:11.146Z","epd":0.1,"epx":1.0,"speed":10.89488590878794,"alt":0.0,"epy":1.0,"track":73.6765902708025,"class":"TPV","lat":52.18772487246652,"mode":3}
{"ept":0.001,"eps":0.1,"epv":1.0,"lon":4.849712264855525,"time":"2015-09-24T10:57:12.146Z","epd":0.1,"epx":1.0,"speed":10.89488590878794,"alt":0.0,"epy":1.0,"track":73.6765902708025,"class":"TPV","lat":52.187752410629315,"mode":3}
{"ept":0.001,"eps":0.1,"epv":1.0,"lon":4.8498656821456825,"time":"2015-09-24T10:57:13.146Z","epd":0.1,"epx":1.0,"speed":10.89488590878794,"alt":0.0,"epy":1.0,"track":73.6765902708025,"class":"TPV","lat":52.18777994879212,"mode":3}
{"ept":0.001,"eps":0.1,"epv":1.0,"lon":4.85001909943584,"time":"2015-09-24T10:57:14.147Z","epd":0.1,"epx":1.0,"speed":10.89488590878794,"alt":0.0,"epy":1.0,"track":73.6765902708025,"class":"TPV","lat":52.18780748695492,"mode":3}
{"ept":0.001,"eps":0.1,"epv":1.0,"lon":4.850172516725997,"time":"2015-09-24T10:57:15.146Z","epd":0.1,"epx":1.0,"speed":10.89488590878794,"alt":0.0,"epy":1.0,"track":73.6765902708025,"class":"TPV","lat":52.187835025117714,"mode":3}
{"ept":0.001,"eps":0.1,"epv":1.0,"lon":4.850325934016154,"time":"2015-09-24T10:57:16.146Z","epd":0.1,"epx":1.0,"speed":10.89488590878794,"alt":0.0,"epy":1.0,"track":73.6765902708025,"class":"TPV","lat":52.18786256328051,"mode":3}
{"ept":0.001,"eps":0.1,"epv":1.0,"lon":4.850479351306311,"time":"2015-09-24T10:57:17.146Z","epd":0.1,"epx":1.0,"speed":10.89488590878794,"alt":0.0,"epy":1.0,"track":73.6765902708025,"class":"TPV","lat":52.18789010144331,"mode":3}
{"ept":0.001,"eps":0.1,"epv":1.0,"lon":4.850632768596468,"time":"2015-09-24T10:57:18.147Z","epd":0.1,"epx":1.0,"speed":10.89488590878794,"alt":0.0,"epy":1.0,"track":73.6765902708025,"class":"TPV","lat":52.187917639606106,"mode":3}
{"ept":0.001,"eps":0.1,"epv":1.0,"lon":4.8507861858866255,"time":"2015-09-24T10:57:19.147Z","epd":0.1,"epx":1.0,"speed":10.89488590878794,"alt":0.0,"epy":1.0,"track":73.6765902708025,"class":"TPV","lat":52.1879451777689,"mode":3}
{"ept":0.001,"eps":0.1,"epv":1.0,"lon":4.850939603176783,"time":"2015-09-24T10:57:20.146Z","epd":0.1,"epx":1.0,"speed":10.89488590878794,"alt":0.0,"epy":1.0,"track":73.6765902708025,"class":"TPV","lat":52.18797271593171,"mode":3}
{"ept":0.001,"eps":0.1,"epv":1.0,"lon":4.85109302046694,"time":"2015-09-24T10:57:21.146Z","epd":0.1,"epx":1.0,"speed":10.89488590878794,"alt":0.0,"epy":1.0,"track":73.6765902708025,"class":"TPV","lat":52.188000254094504,"mode":3}
{"ept":0.001,"eps":0.1,"epv":1.0,"lon":4.851246437757097,"time":"2015-09-24T10:57:22.146Z","epd":0.1,"epx":1.0,"speed":10.89488590878794,"alt":0.0,"epy":1.0,"track":73.6765902708025,"class":"TPV","lat":52.1880277922573,"mode":3}
{"ept":0.001,"eps":0.1,"epv":1.0,"lon":4.851399855047254,"time":"2015-09-24T10:57:23.147Z","epd":0.1,"epx":1.0,"speed":10.89488590878794,"alt":0.0,"epy":1.0,"track":73.6765902708025,"class":"TPV","lat":52.1880553304201,"mode":3}
{"ept":0.001,"eps":0.1,"epv":1.0,"lon":4.851553272337411,"time":"2015-09-24T10:57:24.147Z","epd":0.1,"epx":1.0,"speed":10.89488590878794,"alt":0.0,"epy":1.0,"track":73.6765902708025,"class":"TPV","lat":52.188082868582896,"mode":3}
{"ept":0.001,"eps":0.1,"epv":1.0,"lon":4.8517066896275685,"time":"2015-09-24T10:57:25.146Z","epd":0.1,"epx":1.0,"speed":10.89488590878794,"alt":0.0,"epy":1.0,"track":73.6765902708025,"class":"TPV","lat":52.18811040674569,"mode":3}
{"ept":0.001,"eps":0.1,"epv":1.0,"lon":4.851860106917726,"time":"2015-09-24T10:57:26.146Z","epd":0.1,"epx":1.0,"speed":10.89488590878794,"alt":0.0,"epy":1.0,"track":73.6765902708025,"class":"TPV","lat":52.18813794490849,"mode":3}
{"ept":0.001,"eps":0.1,"epv":1.0,"lon":4.852013524207883,"time":"2015-09-24T10:57:27.146Z","epd":0.1,"epx":1.0,"speed":10.89488590878794,"alt":0.0,"epy":1.0,"track":73.6765902708025,"class":"TPV","lat":52.188165483071295,"mode":3}
{"ept":0.001,"eps":0.1,"epv":1.0,"lon":4.85216694149804,"time":"2015-09-24T10:57:28.147Z","epd":0.1,"epx":1.0,"speed":10.89488590878794,"alt":0.0,"epy":1.0,"track":73.6765902708025,"class":"TPV","lat":52.18819302123409,"mode":3}
{"ept":0.001,"eps":0.1,"epv":1.0,"lon":4.852320358788197,"time":"2015-09-24T10:57:29.147Z","epd":0.1,"epx":1.0,"speed":10.89488590878794,"alt":0.0,"epy":1.0,"track":73.6765902708025,"class":"TPV","lat":52.18822055939689,"mode":3}
{"ept":0.001,"eps":0.1,"epv":1.0,"lon":4.852473776078354,"time":"2015-09-24T10:57:30.146Z","epd":0.1,"epx":1.0,"speed":10.89488590878794,"alt":0.0,"epy":1.0,"track":73.6765902708025,"class":"TPV","lat":52.188248097559686,"mode":3}
{"ept":0.001,"eps":0.1,"epv":1.0,"lon":4.8526271933685114,"time":"2015-09-24T10:57:31.146Z","epd":0.1,"epx":1.0,"speed":10.89488590878794,"alt":0.0,"epy":1.0,"track":73.6765902708025,"class":"TPV","lat":52.18827563572248,"mode":3}
{"ept":0.001,"eps":0.1,"epv":1.0,"lon":4.852780610658669,"time":"2015-09-24T10:57:32.146Z","epd":0.1,"epx":1.0,"speed":10.89488590878794,"alt":0.0,"epy":1.0,"track":73.6765902708025,"class":"TPV","lat":52.18830317388528,"mode":3}
{"ept":0.001,"eps":0.1,"epv":1.0,"lon":4.852934027948826,"time":"2015-09-24T10:57:33.147Z","epd":0.1,"epx":1.0,"speed":10.89488590878794,"alt":0.0,"epy":1.0,"track":73.6765902708025,"class":"TPV","lat":52.18833071204808,"mode":3}
{"ept":0.001,"eps":0.1,"epv":1.0,"lon":4.853087445238983,"time":"2015-09-24T10:57:34.147Z","epd":0.1,"epx":1.0,"speed":10.89488590878794,"alt":0.0,"epy":1.0,"track":73.6765902708025,"class":"TPV","lat":52.188358250210875,"mode":3}
{"ept":0.001,"eps":0.1,"epv":1.0,"lon":4.85324086252914,"time":"2015-09-24T10:57:35.146Z","epd":0.1,"epx":1.0,"speed":10.89488590878794,"alt":0.0,"epy":1.0,"track":73.6765902708025,"class":"TPV","lat":52.18838578837368,"mode":3}
{"ept":0.001,"eps":0.1,"epv":1.0,"lon":4.853394279819297,"time":"2015-09-24T10:57:36.146Z","epd":0.1,"epx":1.0,"speed":10.89488590878794,"alt":0.0,"epy":1.0,"track":73.6765902708025,"class":"TPV","lat":52.18841332653648,"mode":3}
{"ept":0.001,"eps":0.1,"epv":1.0,"lon":4.853547697109454,"time":"2015-09-24T10:57:37.146Z","epd":0.1,"epx":1.0,"speed":10.89488590878794,"alt":0.0,"epy":1.0,"track":73.6765902708025,"class":"TPV","lat":52.188440864699274,"mode":3}
{"ept":0.001,"eps":0.1,"epv":1.0,"lon":4.853701114399612,"time":"2015-09-24T10:57:38.147Z","epd":0.1,"epx":1.0,"speed":10.89488590878794,"alt":0.0,"epy":1.0,"track":73.6765902708025,"class":"TPV","lat":52.18846840286207,"mode":3}
{"ept":0.001,"eps":0.1,"epv":1.0,"lon":4.853854531689769,"time":"2015-09-24T10:57:39.146Z","epd":0.1,"epx":1.0,"speed":10.89488590878794,"alt":0.0,"epy":1.0,"track":73.6765902708025,"class":"TPV","lat":52.18849594102487,"mode":3}
{"ept":0.001,"eps":0.1,"epv":1.0,"lon":4.854007948979926,"time":"2015-09-24T10:57:40.146Z","epd":0.1,"epx":1.0,"speed":10.89488590878794,"alt":0.0,"epy":1.0,"track":73.6765902708025,"class":"TPV","lat":52.188523479187666,"mode":3}
{"ept":0.001,"eps":0.1,"epv":1.0,"lon":4.854161366270083,"time":"2015-09-24T10:57:41.146Z","epd":0.1,"epx":1.0,"speed":10.89488590878794,"alt":0.0,"epy":1.0,"track":73.6765902708025,"class":"TPV","lat":52.18855101735046,"mode":3}
{"ept":0.001,"eps":0.1,"epv":1.0,"lon":4.85431478356024,"time":"2015-09-24T10:57:42.146Z","epd":0.1,"epx":1.0,"speed":10.89488590878794,"alt":0.0,"epy":1.0,"track":73.6765902708025,"class":"TPV","lat":52.18857855551327,"mode":3}
{"ept":0.001,"eps":0.1,"epv":1.0,"lon":4.854468200850397,"time":"2015-09-24T10:57:43.146Z","epd":0.1,"epx":1.0,"speed":10.89488590878794,"alt":0.0,"epy":1.0,"track":73.6765902708025,"class":"TPV","lat":52.188606093676064,"mode":3}
{"ept":0.001,"eps":0.1,"epv":1.0,"lon":4.854621618140555,"time":"2015-09-24T10:57:44.146Z","epd":0.1,"epx":1.0,"speed":10.89488590878794,"alt":0.0,"epy":1.0,"track":73.6765902708025,"class":"TPV","lat":52.18863363183886,"mode":3}
{"ept":0.001,"eps":0.1,"epv":1.0,"lon":4.854775035430712,"time":"2015-09-24T10:57:45.146Z","epd":0.1,"epx":1.0,"speed":10.89488590878794,"alt":0.0,"epy":1.0,"track":73.6765902708025,"class":"TPV","lat":52.18866117000166,"mode":3}
{"ept":0.001,"eps":0.1,"epv":1.0,"lon":4.854928452720869,"time":"2015-09-24T10:57:46.146Z","epd":0.1,"epx":1.0,"speed":10.89488590878794,"alt":0.0,"epy":1.0,"track":73.6765902708025,"class":"TPV","lat":52.188688708164456,"mode":3}
{"ept":0.001,"eps":0.1,"epv":1.0,"lon":4.855081870011026,"time":"2015-09-24T10:57:47.147Z","epd":0.1,"epx":1.0,"speed":10.89488590878794,"alt":0.0,"epy":1.0,"track":73.6765902708025,"class":"TPV","lat":52.18871624632725,"mode":3}
{"ept":0.001,"eps":0.1,"epv":1.0,"lon":4.855235287301183,"time":"2015-09-24T10:57:48.147Z","epd":0.1,"epx":1.0,"speed":10.89488590878794,"alt":0.0,"epy":1.0,"track":73.6765902708025,"class":"TPV","lat":52.18874378449005,"mode":3}
{"ept":0.001,"eps":0.1,"epv":1.0,"lon":4.85538870459134,"time":"2015-09-24T10:57:49.147Z","epd":0.1,"epx":1.0,"speed":10.89488590878794,"alt":0.0,"epy":1.0,"track":73.6765902708025,"class":"TPV","lat":52.188771322652855,"mode":3}
{"ept":0.001,"eps":0.1,"epv":1.0,"lon":4.855542121881498,"time":"2015-09-24T10:57:50.147Z","epd":0.1,"epx":1.0,"speed":10.89488590878794,"alt":0.0,"epy":1.0,"track":73.6765902708025,"class":"TPV","lat":52.18879886081565,"mode":3}
{"ept":0.001,"eps":0.1,"epv":1.0,"lon":4.855695539171655,"time":"2015-09-24T10:57:51.147Z","epd":0.1,"epx":1.0,"speed":10.89488590878794,"alt":0.0,"epy":1.0,"track":73.6765902708025,"class":"TPV","lat":52.18882639897845,"mode":3}
{"ept":0.001,"eps":0.1,"epv":1.0,"lon":4.855848956461812,"time":"2015-09-24T10:57:52.146Z","epd":0.1,"epx":1.0,"speed":10.89488590878794,"alt":0.0,"epy":1.0,"track":73.6765902708025,"class":"TPV","lat":52.188853937141246,"mode":3}
{"ept":0.001,"eps":0.1,"epv":1.0,"lon":4.856002373751969,"time":"2015-09-24T10:57:53.146Z","epd":0.1,"epx":1.0,"speed":10.89488590878794,"alt":0.0,"epy":1.0,"track":73.6765902708025,"class":"TPV","lat":52.18888147530404,"mode":3}
{"ept":0.001,"eps":0.1,"epv":1.0,"lon":4.856155791042126,"time":"2015-09-24T10:57:54.146Z","epd":0.1,"epx":1.0,"speed":10.89488590878794,"alt":0.0,"epy":1.0,"track":73.6765902708025,"class":"TPV","lat":52.18890901346684,"mode":3}
{"ept":0.001,"eps":0.1,"epv":1.0,"lon":4.856309208332283,"time":"2015-09-24T10:57:55.146Z","epd":0.1,"epx":1.0,"speed":10.89488590878794,"alt":0.0,"epy":1.0,"track":73.6765902708025,"class":"TPV","lat":52.18893655162964,"mode":3}
{"ept":0.001,"eps":0.1,"epv":1.0,"lon":4.856462625622441,"time":"2015-09-24T10:57:56.146Z","epd":0.1,"epx":1.0,"speed":10.89488590878794,"alt":0.0,"epy":1.0,"track":73.6765902708025,"class":"TPV","lat":52.188964089792435,"mode":3}
{"ept":0.001,"eps":0.1,"epv":1.0,"lon":4.856616042912598,"time":"2015-09-24T10:57:57.146Z","epd":0.1,"epx":1.0,"speed":10.89488590878794,"alt":0.0,"epy":1.0,"track":73.6765902708025,"class":"TPV","lat":52.18899162795524,"mode":3}
{"ept":0.001,"eps":0.1,"epv":1.0,"lon":4.856769460202755,"time":"2015-09-24T10:57:58.146Z","epd":0.1,"epx":1.0,"speed":10.89488590878794,"alt":0.0,"epy":1.0,"track":73.6765902708025,"class":"TPV","lat":52.18901916611804,"mode":3}
{"ept":0.001,"eps":0.1,"epv":1.0,"lon":4.856922877492912,"time":"2015-09-24T10:57:59.146Z","epd":0.1,"epx":1.0,"speed":10.89488590878794,"alt":0.0,"epy":1.0,"track":73.6765902708025,"class":"TPV","lat":52.189046704280834,"mode":3}
{"ept":0.001,"eps":0.1,"epv":1.0,"lon":4.857076294783069,"time":"2015-09-24T10:58:00.146Z","epd":0.1,"epx":1.0,"speed":10.89488590878794,"alt":0.0,"epy":1.0,"track":73.6765902708025,"class":"TPV","lat":52.18907424244363,"mode":3}
{"ept":0.001,"eps":0.1,"epv":1.0,"lon":4.8572297120732255,"time":"2015-09-24T10:58:01.146Z","epd":0.1,"epx":1.0,"speed":10.89488590878794,"alt":0.0,"epy":1.0,"track":73.6765902708025,"class":"TPV","lat":52.18910178060643,"mode":3}
{"ept":0.001,"eps":0.1,"epv":1.0,"lon":4.857383129363383,"time":"2015-09-24T10:58:02.146Z","epd":0.1,"epx":1.0,"speed":10.89488590878794,"alt":0.0,"epy":1.0,"track":73.6765902708025,"class":"TPV","lat":52.189129318769226,"mode":3}
{"ept":0.001,"eps":0.1,"epv":1.0,"lon":4.85753654665354,"time":"2015-09-24T10:58:03.147Z","epd":0.1,"epx":1.0,"speed":10.89488590878794,"alt":0.0,"epy":1.0,"track":73.6765902708025,"class":"TPV","lat":52.18915685693202,"mode":3}
{"ept":0.001,"eps":0.1,"epv":1.0,"lon":4.857689963943697,"time":"2015-09-24T10:58:04.147Z","epd":0.1,"epx":1.0,"speed":10.89488590878794,"alt":0.0,"epy":1.0,"track":73.6765902708025,"class":"TPV","lat":52.18918439509483,"mode":3}
{"ept":0.001,"eps":0.1,"epv":1.0,"lon":4.857843381233854,"time":"2015-09-24T10:58:05.147Z","epd":0.1,"epx":1.0,"speed":10.89488590878794,"alt":0.0,"epy":1.0,"track":73.6765902708025,"class":"TPV","lat":52.189211933257624,"mode":3}
{"ept":0.001,"eps":0.1,"epv":1.0,"lon":4.857996798524011,"time":"2015-09-24T10:58:06.147Z","epd":0.1,"epx":1.0,"speed":10.89488590878794,"alt":0.0,"epy":1.0,"track":73.6765902708025,"class":"TPV","lat":52.18923947142042,"mode":3}
{"ept":0.001,"eps":0.1,"epv":1.0,"lon":4.8581502158141685,"time":"2015-09-24T10:58:07.146Z","epd":0.1,"epx":1.0,"speed":10.89488590878794,"alt":0.0,"epy":1.0,"track":73.6765902708025,"class":"TPV","lat":52.18926700958322,"mode":3}
{"ept":0.001,"eps":0.1,"epv":1.0,"lon":4.858303633104326,"time":"2015-09-24T10:58:08.146Z","epd":0.1,"epx":1.0,"speed":10.89488590878794,"alt":0.0,"epy":1.0,"track":73.6765902708025,"class":"TPV","lat":52.189294547746016,"mode":3}
{"ept":0.001,"eps":0.1,"epv":1.0,"lon":4.858457050394483,"time":"2015-09-24T10:58:09.146Z","epd":0.1,"epx":1.0,"speed":10.89488590878794,"alt":0.0,"epy":1.0,"track":73.6765902708025,"class":"TPV","lat":52.18932208590881,"mode":3}
{"ept":0.001,"eps":0.1,"epv":1.0,"lon":4.85861046768464,"time":"2015-09-24T10:58:10.146Z","epd":0.1,"epx":1.0,"speed":10.89488590878794,"alt":0.0,"epy":1.0,"track":73.6765902708025,"class":"TPV","lat":52.18934962407161,"mode":3}
{"ept":0.001,"eps":0.1,"epv":1.0,"lon":4.858551648675564,"time":"2015-09-24T10:58:11.146Z","epd":0.1,"epx":1.0,"speed":10.139197005296092,"alt":0.0,"epy":1.0,"track":275.73002159542193,"class":"TPV","lat":52.18936418343944,"mode":3}
{"ept":0.001,"eps":0.1,"epv":1.0,"lon":4.858403619087447,"time":"2015-09-24T10:58:12.146Z","epd":0.1,"epx":1.0,"speed":10.139197005296092,"alt":0.0,"epy":1.0,"track":275.73002159542193,"class":"TPV","lat":52.189373287351145,"mode":3}
{"ept":0.001,"eps":0.1,"epv":1.0,"lon":4.858255589499331,"time":"2015-09-24T10:58:13.146Z","epd":0.1,"epx":1.0,"speed":10.139197005296092,"alt":0.0,"epy":1.0,"track":275.73002159542193,"class":"TPV","lat":52.18938239126286,"mode":3}
{"ept":0.001,"eps":0.1,"epv":1.0,"lon":4.858107559911215,"time":"2015-09-24T10:58:14.146Z","epd":0.1,"epx":1.0,"speed":10.139197005296092,"alt":0.0,"epy":1.0,"track":275.73002159542193,"class":"TPV","lat":52.189391495174576,"mode":3}
{"ept":0.001,"eps":0.1,"epv":1.0,"lon":4.857959530323098,"time":"2015-09-24T10:58:15.147Z","epd":0.1,"epx":1.0,"speed":10.139197005296092,"alt":0.0,"epy":1.0,"track":275.73002159542193,"class":"TPV","lat":52.18940059908629,"mode":3}
{"ept":0.001,"eps":0.1,"epv":1.0,"lon":4.857811500734981,"time":"2015-09-24T10:58:16.147Z","epd":0.1,"epx":1.0,"speed":10.139197005296092,"alt":0.0,"epy":1.0,"track":275.73002159542193,"class":"TPV","lat":52.189409702998006,"mode":3}
{"ept":0.001,"eps":0.1,"epv":1.0,"lon":4.857663471146865,"time":"2015-09-24T10:58:17.146Z","epd":0.1,"epx":1.0,"speed":10.139197005296092,"alt":0.0,"epy":1.0,"track":275.73002159542193,"class":"TPV","lat":52.189418806909714,"mode":3}
{"ept":0.001,"eps":0.1,"epv":1.0,"lon":4.857515441558748,"time":"2015-09-24T10:58:18.146Z","epd":0.1,"epx":1.0,"speed":10.139197005296092,"alt":0.0,"epy":1.0,"track":275.73002159542193,"class":"TPV","lat":52.18942791082143,"mode":3}
