{"class":"VERSION","release":"3.6","rev":"3.6","proto_major":3,"proto_minor":7}
{"class":"DEVICES","devices":[{"class":"DEVICE","path":"gpsd://192.168.50.240:61000","activated":"2015-09-24T10:53:35.737Z","driver":"JSON slave driver"}]}
{"class":"WATCH","enable":true,"json":true,"nmea":false,"raw":0,"scaled":false,"timing":false}
{"ept":0.001,"eps":0.1,"epv":1.0,"lon":4.837158167102302,"time":"2015-09-24T10:54:02.146Z","epd":0.1,"epx":1.0,"speed":10.25067742719649,"alt":0.0,"epy":1.0,"track":258.7398668321405,"class":"TPV","lat":52.169390026574035,"mode":3}
{"ept":0.001,"eps":0.1,"epv":1.0,"lon":4.837010653649261,"time":"2015-09-24T10:54:03.146Z","epd":0.1,"epx":1.0,"speed":10.25067742719649,"alt":0.0,"epy":1.0,"track":258.7398668321405,"class":"TPV","lat":52.16937202587868,"mode":3}
{"ept":0.001,"eps":0.1,"epv":1.0,"lon":4.836863140196219,"time":"2015-09-24T10:54:04.146Z","epd":0.1,"epx":1.0,"speed":10.25067742719649,"alt":0.0,"epy":1.0,"track":258.7398668321405,"class":"TPV","lat":52.16935402518332,"mode":3}
{"ept":0.001,"eps":0.1,"epv":1.0,"lon":4.836715626743178,"time":"2015-09-24T10:54:05.146Z","epd":0.1,"epx":1.0,"speed":10.25067742719649,"alt":0.0,"epy":1.0,"track":258.7398668321405,"class":"TPV","lat":52.16933602448796,"mode":3}
{"ept":0.001,"eps":0.1,"epv":1.0,"lon":4.836568113290137,"time":"2015-09-24T10:54:06.146Z","epd":0.1,"epx":1.0,"speed":10.25067742719649,"alt":0.0,"epy":1.0,"track":258.7398668321405,"class":"TPV","lat":52.169318023792606,"mode":3}
{"ept":0.001,"eps":0.1,"epv":1.0,"lon":4.836420599837096,"time":"2015-09-24T10:54:07.146Z","epd":0.1,"epx":1.0,"speed":10.25067742719649,"alt":0.0,"epy":1.0,"track":258.7398668321405,"class":"TPV","lat":52.16930002309724,"mode":3}
{"ept":0.001,"eps":0.1,"epv":1.0,"lon":4.836273086384055,"time":"2015-09-24T10:54:08.146Z","epd":0.1,"epx":1.0,"speed":10.25067742719649,"alt":0.0,"epy":1.0,"track":258.7398668321405,"class":"TPV","lat":52.16928202240189,"mode":3}
{"ept":0.001,"eps":0.1,"epv":1.0,"lon":4.836125572931014,"time":"2015-09-24T10:54:09.146Z","epd":0.1,"epx":1.0,"speed":10.25067742719649,"alt":0.0,"epy":1.0,"track":258.7398668321405,"class":"TPV","lat":52.16926402170653,"mode":3}
{"ept":0.001,"eps":0.1,"epv":1.0,"lon":4.835978059477972,"time":"2015-09-24T10:54:10.145Z","epd":0.1,"epx":1.0,"speed":10.25067742719649,"alt":0.0,"epy":1.0,"track":258.7398668321405,"class":"TPV","lat":52.16924602101117,"mode":3}
{"ept":0.001,"eps":0.1,"epv":1.0,"lon":4.835830546024931,"time":"2015-09-24T10:54:11.145Z","epd":0.1,"epx":1.0,"speed":10.25067742719649,"alt":0.0,"epy":1.0,"track":258.7398668321405,"class":"TPV","lat":52.16922802031581,"mode":3}
{"ept":0.001,"eps":0.1,"epv":1.0,"lon":4.83568303257189,"time":"2015-09-24T10:54:12.145Z","epd":0.1,"epx":1.0,"speed":10.25067742719649,"alt":0.0,"epy":1.0,"track":258.7398668321405,"class":"TPV","lat":52.16921001962045,"mode":3}
{"ept":0.001,"eps":0.1,"epv":1.0,"lon":4.8355355191188485,"time":"2015-09-24T10:54:13.145Z","epd":0.1,"epx":1.0,"speed":10.25067742719649,"alt":0.0,"epy":1.0,"track":258.7398668321405,"class":"TPV","lat":52.169192018925095,"mode":3}
{"ept":0.001,"eps":0.1,"epv":1.0,"lon":4.835388005665807,"time":"2015-09-24T10:54:14.145Z","epd":0.1,"epx":1.0,"speed":10.25067742719649,"alt":0.0,"epy":1.0,"track":258.7398668321405,"class":"TPV","lat":52.16917401822974,"mode":3}
{"ept":0.001,"eps":0.1,"epv":1.0,"lon":4.835240492212766,"time":"2015-09-24T10:54:15.145Z","epd":0.1,"epx":1.0,"speed":10.25067742719649,"alt":0.0,"epy":1.0,"track":258.7398668321405,"class":"TPV","lat":52.16915601753438,"mode":3}
{"ept":0.001,"eps":0.1,"epv":1.0,"lon":4.835092978759725,"time":"2015-09-24T10:54:16.145Z","epd":0.1,"epx":1.0,"speed":10.25067742719649,"alt":0.0,"epy":1.0,"track":258.7398668321405,"class":"TPV","lat":52.16913801683902,"mode":3}
{"ept":0.001,"eps":0.1,"epv":1.0,"lon":4.834945465306683,"time":"2015-09-24T10:54:17.145Z","epd":0.1,"epx":1.0,"speed":10.25067742719649,"alt":0.0,"epy":1.0,"track":258.7398668321405,"class":"TPV","lat":52.16912001614366,"mode":3}
{"ept":0.001,"eps":0.1,"epv":1.0,"lon":4.834797951853642,"time":"2015-09-24T10:54:18.145Z","epd":0.1,"epx":1.0,"speed":10.25067742719649,"alt":0.0,"epy":1.0,"track":258.7398668321405,"class":"TPV","lat":52.1691020154483,"mode":3}
{"ept":0.001,"eps":0.1,"epv":1.0,"lon":4.834650438400601,"time":"2015-09-24T10:54:19.146Z","epd":0.1,"epx":1.0,"speed":10.25067742719649,"alt":0.0,"epy":1.0,"track":258.7398668321405,"class":"TPV","lat":52.16908401475295,"mode":3}
{"ept":0.001,"eps":0.1,"epv":1.0,"lon":4.83450292494756,"time":"2015-09-24T10:54:20.146Z","epd":0.1,"epx":1.0,"speed":10.25067742719649,"alt":0.0,"epy":1.0,"track":258.7398668321405,"class":"TPV","lat":52.169066014057584,"mode":3}
{"ept":0.001,"eps":0.1,"epv":1.0,"lon":4.834355411494519,"time":"2015-09-24T10:54:21.146Z","epd":0.1,"epx":1.0,"speed":10.25067742719649,"alt":0.0,"epy":1.0,"track":258.7398668321405,"class":"TPV","lat":52.16904801336223,"mode":3}
{"ept":0.001,"eps":0.1,"epv":1.0,"lon":4.834207898041478,"time":"2015-09-24T10:54:22.146Z","epd":0.1,"epx":1.0,"speed":10.25067742719649,"alt":0.0,"epy":1.0,"track":258.7398668321405,"class":"TPV","lat":52.16903001266687,"mode":3}
{"ept":0.001,"eps":0.1,"epv":1.0,"lon":4.834060384588436,"time":"2015-09-24T10:54:23.146Z","epd":0.1,"epx":1.0,"speed":10.25067742719649,"alt":0.0,"epy":1.0,"track":258.7398668321405,"class":"TPV","lat":52.16901201197151,"mode":3}
{"ept":0.001,"eps":0.1,"epv":1.0,"lon":4.833912871135395,"time":"2015-09-24T10:54:24.146Z","epd":0.1,"epx":1.0,"speed":10.25067742719649,"alt":0.0,"epy":1.0,"track":258.7398668321405,"class":"TPV","lat":52.168994011276155,"mode":3}
{"ept":0.001,"eps":0.1,"epv":1.0,"lon":4.833765357682354,"time":"2015-09-24T10:54:25.146Z","epd":0.1,"epx":1.0,"speed":10.25067742719649,"alt":0.0,"epy":1.0,"track":258.7398668321405,"class":"TPV","lat":52.16897601058079,"mode":3}
{"ept":0.001,"eps":0.1,"epv":1.0,"lon":4.8336178442293125,"time":"2015-09-24T10:54:26.146Z","epd":0.1,"epx":1.0,"speed":10.25067742719649,"alt":0.0,"epy":1.0,"track":258.7398668321405,"class":"TPV","lat":52.168958009885436,"mode":3}
{"ept":0.001,"eps":0.1,"epv":1.0,"lon":4.833470330776271,"time":"2015-09-24T10:54:27.146Z","epd":0.1,"epx":1.0,"speed":10.25067742719649,"alt":0.0,"epy":1.0,"track":258.7398668321405,"class":"TPV","lat":52.16894000919008,"mode":3}
{"ept":0.001,"eps":0.1,"epv":1.0,"lon":4.83332281732323,"time":"2015-09-24T10:54:28.146Z","epd":0.1,"epx":1.0,"speed":10.25067742719649,"alt":0.0,"epy":1.0,"track":258.7398668321405,"class":"TPV","lat":52.16892200849472,"mode":3}
{"ept":0.001,"eps":0.1,"epv":1.0,"lon":4.833175303870189,"time":"2015-09-24T10:54:29.146Z","epd":0.1,"epx":1.0,"speed":10.25067742719649,"alt":0.0,"epy":1.0,"track":258.7398668321405,"class":"TPV","lat":52.16890400779936,"mode":3}
{"ept":0.001,"eps":0.1,"epv":1.0,"lon":4.833027790417147,"time":"2015-09-24T10:54:30.146Z","epd":0.1,"epx":1.0,"speed":10.25067742719649,"alt":0.0,"epy":1.0,"track":258.7398668321405,"class":"TPV","lat":52.16888600710401,"mode":3}
{"ept":0.001,"eps":0.1,"epv":1.0,"lon":4.832880276964106,"time":"2015-09-24T10:54:31.146Z","epd":0.1,"epx":1.0,"speed":10.25067742719649,"alt":0.0,"epy":1.0,"track":258.7398668321405,"class":"TPV","lat":52.168868006408644,"mode":3}
{"ept":0.001,"eps":0.1,"epv":1.0,"lon":4.832732763511065,"time":"2015-09-24T10:54:32.146Z","epd":0.1,"epx":1.0,"speed":10.25067742719649,"alt":0.0,"epy":1.0,"track":258.7398668321405,"class":"TPV","lat":52.16885000571329,"mode":3}
{"ept":0.001,"eps":0.1,"epv":1.0,"lon":4.832585250058024,"time":"2015-09-24T10:54:33.146Z","epd":0.1,"epx":1.0,"speed":10.25067742719649,"alt":0.0,"epy":1.0,"track":258.7398668321405,"class":"TPV","lat":52.168832005017926,"mode":3}
{"ept":0.001,"eps":0.1,"epv":1.0,"lon":4.832437736604983,"time":"2015-09-24T10:54:34.146Z","epd":0.1,"epx":1.0,"speed":10.25067742719649,"alt":0.0,"epy":1.0,"track":258.7398668321405,"class":"TPV","lat":52.16881400432257,"mode":3}
{"ept":0.001,"eps":0.1,"epv":1.0,"lon":4.832290223151942,"time":"2015-09-24T10:54:35.146Z","epd":0.1,"epx":1.0,"speed":10.25067742719649,"alt":0.0,"epy":1.0,"track":258.7398668321405,"class":"TPV","lat":52.168796003627214,"mode":3}
{"ept":0.001,"eps":0.1,"epv":1.0,"lon":4.8321427096989,"time":"2015-09-24T10:54:36.146Z","epd":0.1,"epx":1.0,"speed":10.25067742719649,"alt":0.0,"epy":1.0,"track":258.7398668321405,"class":"TPV","lat":52.16877800293185,"mode":3}
{"ept":0.001,"eps":0.1,"epv":1.0,"lon":4.831995196245859,"time":"2015-09-24T10:54:37.146Z","epd":0.1,"epx":1.0,"speed":10.25067742719649,"alt":0.0,"epy":1.0,"track":258.7398668321405,"class":"TPV","lat":52.168760002236496,"mode":3}
{"ept":0.001,"eps":0.1,"epv":1.0,"lon":4.831847682792818,"time":"2015-09-24T10:54:38.146Z","epd":0.1,"epx":1.0,"speed":10.25067742719649,"alt":0.0,"epy":1.0,"track":258.7398668321405,"class":"TPV","lat":52.16874200154113,"mode":3}
{"ept":0.001,"eps":0.1,"epv":1.0,"lon":4.8317001693397765,"time":"2015-09-24T10:54:39.146Z","epd":0.1,"epx":1.0,"speed":10.25067742719649,"alt":0.0,"epy":1.0,"track":258.7398668321405,"class":"TPV","lat":52.16872400084578,"mode":3}
{"ept":0.001,"eps":0.1,"epv":1.0,"lon":4.831552655886735,"time":"2015-09-24T10:54:40.146Z","epd":0.1,"epx":1.0,"speed":10.25067742719649,"alt":0.0,"epy":1.0,"track":258.7398668321405,"class":"TPV","lat":52.16870600015042,"mode":3}
{"ept":0.001,"eps":0.1,"epv":1.0,"lon":4.831405142433694,"time":"2015-09-24T10:54:41.146Z","epd":0.1,"epx":1.0,"speed":10.25067742719649,"alt":0.0,"epy":1.0,"track":258.7398668321405,"class":"TPV","lat":52.16868799945506,"mode":3}
{"ept":0.001,"eps":0.1,"epv":1.0,"lon":4.831257628980653,"time":"2015-09-24T10:54:42.146Z","epd":0.1,"epx":1.0,"speed":10.25067742719649,"alt":0.0,"epy":1.0,"track":258.7398668321405,"class":"TPV","lat":52.168669998759704,"mode":3}
{"ept":0.001,"eps":0.1,"epv":1.0,"lon":4.831110115527611,"time":"2015-09-24T10:54:43.146Z","epd":0.1,"epx":1.0,"speed":10.25067742719649,"alt":0.0,"epy":1.0,"track":258.7398668321405,"class":"TPV","lat":52.16865199806435,"mode":3}
{"ept":0.001,"eps":0.1,"epv":1.0,"lon":4.83096260207457,"time":"2015-09-24T10:54:44.146Z","epd":0.1,"epx":1.0,"speed":10.25067742719649,"alt":0.0,"epy":1.0,"track":258.7398668321405,"class":"TPV","lat":52.168633997368985,"mode":3}
{"ept":0.001,"eps":0.1,"epv":1.0,"lon":4.830815088621529,"time":"2015-09-24T10:54:45.146Z","epd":0.1,"epx":1.0,"speed":10.25067742719649,"alt":0.0,"epy":1.0,"track":258.7398668321405,"class":"TPV","lat":52.16861599667363,"mode":3}
{"ept":0.001,"eps":0.1,"epv":1.0,"lon":4.830667575168488,"time":"2015-09-24T10:54:46.146Z","epd":0.1,"epx":1.0,"speed":10.25067742719649,"alt":0.0,"epy":1.0,"track":258.7398668321405,"class":"TPV","lat":52.16859799597827,"mode":3}
{"ept":0.001,"eps":0.1,"epv":1.0,"lon":4.830520061715447,"time":"2015-09-24T10:54:47.146Z","epd":0.1,"epx":1.0,"speed":10.25067742719649,"alt":0.0,"epy":1.0,"track":258.7398668321405,"class":"TPV","lat":52.16857999528291,"mode":3}
{"ept":0.001,"eps":0.1,"epv":1.0,"lon":4.830372548262406,"time":"2015-09-24T10:54:48.146Z","epd":0.1,"epx":1.0,"speed":10.25067742719649,"alt":0.0,"epy":1.0,"track":258.7398668321405,"class":"TPV","lat":52.168561994587556,"mode":3}
{"ept":0.001,"eps":0.1,"epv":1.0,"lon":4.830225034809364,"time":"2015-09-24T10:54:49.146Z","epd":0.1,"epx":1.0,"speed":10.25067742719649,"alt":0.0,"epy":1.0,"track":258.7398668321405,"class":"TPV","lat":52.16854399389219,"mode":3}
{"ept":0.001,"eps":0.1,"epv":1.0,"lon":4.830077521356323,"time":"2015-09-24T10:54:50.146Z","epd":0.1,"epx":1.0,"speed":10.25067742719649,"alt":0.0,"epy":1.0,"track":258.7398668321405,"class":"TPV","lat":52.16852599319684,"mode":3}
{"ept":0.001,"eps":0.1,"epv":1.0,"lon":4.829930007903282,"time":"2015-09-24T10:54:51.146Z","epd":0.1,"epx":1.0,"speed":10.25067742719649,"alt":0.0,"epy":1.0,"track":258.7398668321405,"class":"TPV","lat":52.16850799250148,"mode":3}
{"ept":0.001,"eps":0.1,"epv":1.0,"lon":4.8297824944502405,"time":"2015-09-24T10:54:52.146Z","epd":0.1,"epx":1.0,"speed":10.25067742719649,"alt":0.0,"epy":1.0,"track":258.7398668321405,"class":"TPV","lat":52.16848999180612,"mode":3}
{"ept":0.001,"eps":0.1,"epv":1.0,"lon":4.8296349809971995,"time":"2015-09-24T10:54:53.146Z","epd":0.1,"epx":1.0,"speed":10.25067742719649,"alt":0.0,"epy":1.0,"track":258.7398668321405,"class":"TPV","lat":52.16847199111076,"mode":3}
{"ept":0.001,"eps":0.1,"epv":1.0,"lon":4.829487467544158,"time":"2015-09-24T10:54:54.146Z","epd":0.1,"epx":1.0,"speed":10.25067742719649,"alt":0.0,"epy":1.0,"track":258.7398668321405,"class":"TPV","lat":52.1684539904154,"mode":3}
{"ept":0.001,"eps":0.1,"epv":1.0,"lon":4.829339954091116,"time":"2015-09-24T10:54:55.146Z","epd":0.1,"epx":1.0,"speed":10.25067742719649,"alt":0.0,"epy":1.0,"track":258.7398668321405,"class":"TPV","lat":52.168435989720045,"mode":3}
{"ept":0.001,"eps":0.1,"epv":1.0,"lon":4.829192440638075,"time":"2015-09-24T10:54:56.146Z","epd":0.1,"epx":1.0,"speed":10.25067742719649,"alt":0.0,"epy":1.0,"track":258.7398668321405,"class":"TPV","lat":52.16841798902469,"mode":3}
{"ept":0.001,"eps":0.1,"epv":1.0,"lon":4.829044927185034,"time":"2015-09-24T10:54:57.146Z","epd":0.1,"epx":1.0,"speed":10.25067742719649,"alt":0.0,"epy":1.0,"track":258.7398668321405,"class":"TPV","lat":52.16839998832933,"mode":3}
{"ept":0.001,"eps":0.1,"epv":1.0,"lon":4.828897413731993,"time":"2015-09-24T10:54:58.146Z","epd":0.1,"epx":1.0,"speed":10.25067742719649,"alt":0.0,"epy":1.0,"track":258.7398668321405,"class":"TPV","lat":52.16838198763397,"mode":3}
{"ept":0.001,"eps":0.1,"epv":1.0,"lon":4.828749900278952,"time":"2015-09-24T10:54:59.146Z","epd":0.1,"epx":1.0,"speed":10.25067742719649,"alt":0.0,"epy":1.0,"track":258.7398668321405,"class":"TPV","lat":52.16836398693861,"mode":3}
{"ept":0.001,"eps":0.1,"epv":1.0,"lon":4.828602386825911,"time":"2015-09-24T10:55:00.146Z","epd":0.1,"epx":1.0,"speed":10.25067742719649,"alt":0.0,"epy":1.0,"track":258.7398668321405,"class":"TPV","lat":52.16834598624325,"mode":3}
{"ept":0.001,"eps":0.1,"epv":1.0,"lon":4.82845487337287,"time":"2015-09-24T10:55:01.146Z","epd":0.1,"epx":1.0,"speed":10.25067742719649,"alt":0.0,"epy":1.0,"track":258.7398668321405,"class":"TPV","lat":52.1683279855479,"mode":3}
{"ept":0.001,"eps":0.1,"epv":1.0,"lon":4.828307359919828,"time":"2015-09-24T10:55:02.146Z","epd":0.1,"epx":1.0,"speed":10.25067742719649,"alt":0.0,"epy":1.0,"track":258.7398668321405,"class":"TPV","lat":52.168309984852534,"mode":3}
{"ept":0.001,"eps":0.1,"epv":1.0,"lon":4.828159846466787,"time":"2015-09-24T10:55:03.146Z","epd":0.1,"epx":1.0,"speed":10.25067742719649,"alt":0.0,"epy":1.0,"track":258.7398668321405,"class":"TPV","lat":52.16829198415718,"mode":3}
{"ept":0.001,"eps":0.1,"epv":1.0,"lon":4.828012333013746,"time":"2015-09-24T10:55:04.146Z","epd":0.1,"epx":1.0,"speed":10.25067742719649,"alt":0.0,"epy":1.0,"track":258.7398668321405,"class":"TPV","lat":52.16827398346182,"mode":3}
{"ept":0.001,"eps":0.1,"epv":1.0,"lon":4.827864819560705,"time":"2015-09-24T10:55:05.146Z","epd":0.1,"epx":1.0,"speed":10.25067742719649,"alt":0.0,"epy":1.0,"track":258.7398668321405,"class":"TPV","lat":52.16825598276646,"mode":3}
{"ept":0.001,"eps":0.1,"epv":1.0,"lon":4.8277173061076635,"time":"2015-09-24T10:55:06.146Z","epd":0.1,"epx":1.0,"speed":10.25067742719649,"alt":0.0,"epy":1.0,"track":258.7398668321405,"class":"TPV","lat":52.168237982071105,"mode":3}
{"ept":0.001,"eps":0.1,"epv":1.0,"lon":4.827569792654622,"time":"2015-09-24T10:55:07.146Z","epd":0.1,"epx":1.0,"speed":10.25067742719649,"alt":0.0,"epy":1.0,"track":258.7398668321405,"class":"TPV","lat":52.16821998137574,"mode":3}
{"ept":0.001,"eps":0.1,"epv":1.0,"lon":4.82742227920158,"time":"2015-09-24T10:55:08.146Z","epd":0.1,"epx":1.0,"speed":10.25067742719649,"alt":0.0,"epy":1.0,"track":258.7398668321405,"class":"TPV","lat":52.16820198068039,"mode":3}
{"ept":0.001,"eps":0.1,"epv":1.0,"lon":4.827274765748539,"time":"2015-09-24T10:55:09.146Z","epd":0.1,"epx":1.0,"speed":10.25067742719649,"alt":0.0,"epy":1.0,"track":258.7398668321405,"class":"TPV","lat":52.16818397998503,"mode":3}
{"ept":0.001,"eps":0.1,"epv":1.0,"lon":4.827127252295498,"time":"2015-09-24T10:55:10.146Z","epd":0.1,"epx":1.0,"speed":10.25067742719649,"alt":0.0,"epy":1.0,"track":258.7398668321405,"class":"TPV","lat":52.16816597928967,"mode":3}
{"ept":0.001,"eps":0.1,"epv":1.0,"lon":4.826979738842457,"time":"2015-09-24T10:55:11.146Z","epd":0.1,"epx":1.0,"speed":10.25067742719649,"alt":0.0,"epy":1.0,"track":258.7398668321405,"class":"TPV","lat":52.16814797859431,"mode":3}
{"ept":0.001,"eps":0.1,"epv":1.0,"lon":4.826832225389416,"time":"2015-09-24T10:55:12.146Z","epd":0.1,"epx":1.0,"speed":10.25067742719649,"alt":0.0,"epy":1.0,"track":258.7398668321405,"class":"TPV","lat":52.16812997789896,"mode":3}
{"ept":0.001,"eps":0.1,"epv":1.0,"lon":4.826684711936375,"time":"2015-09-24T10:55:13.146Z","epd":0.1,"epx":1.0,"speed":10.25067742719649,"alt":0.0,"epy":1.0,"track":258.7398668321405,"class":"TPV","lat":52.168111977203594,"mode":3}
{"ept":0.001,"eps":0.1,"epv":1.0,"lon":4.826537198483334,"time":"2015-09-24T10:55:14.146Z","epd":0.1,"epx":1.0,"speed":10.25067742719649,"alt":0.0,"epy":1.0,"track":258.7398668321405,"class":"TPV","lat":52.16809397650824,"mode":3}
{"ept":0.001,"eps":0.1,"epv":1.0,"lon":4.826389685030292,"time":"2015-09-24T10:55:15.146Z","epd":0.1,"epx":1.0,"speed":10.25067742719649,"alt":0.0,"epy":1.0,"track":258.7398668321405,"class":"TPV","lat":52.168075975812876,"mode":3}
{"ept":0.001,"eps":0.1,"epv":1.0,"lon":4.826242171577251,"time":"2015-09-24T10:55:16.146Z","epd":0.1,"epx":1.0,"speed":10.25067742719649,"alt":0.0,"epy":1.0,"track":258.7398668321405,"class":"TPV","lat":52.16805797511752,"mode":3}
{"ept":0.001,"eps":0.1,"epv":1.0,"lon":4.82609465812421,"time":"2015-09-24T10:55:17.146Z","epd":0.1,"epx":1.0,"speed":10.25067742719649,"alt":0.0,"epy":1.0,"track":258.7398668321405,"class":"TPV","lat":52.168039974422165,"mode":3}
{"ept":0.001,"eps":0.1,"epv":1.0,"lon":4.825947144671169,"time":"2015-09-24T10:55:18.146Z","epd":0.1,"epx":1.0,"speed":10.25067742719649,"alt":0.0,"epy":1.0,"track":258.7398668321405,"class":"TPV","lat":52.1680219737268,"mode":3}
{"ept":0.001,"eps":0.1,"epv":1.0,"lon":4.8257996312181275,"time":"2015-09-24T10:55:19.146Z","epd":0.1,"epx":1.0,"speed":10.25067742719649,"alt":0.0,"epy":1.0,"track":258.7398668321405,"class":"TPV","lat":52.168003973031446,"mode":3}
{"ept":0.001,"eps":0.1,"epv":1.0,"lon":4.825652117765086,"time":"2015-09-24T10:55:20.146Z","epd":0.1,"epx":1.0,"speed":10.25067742719649,"alt":0.0,"epy":1.0,"track":258.7398668321405,"class":"TPV","lat":52.16798597233608,"mode":3}
{"ept":0.001,"eps":0.1,"epv":1.0,"lon":4.825504604312044,"time":"2015-09-24T10:55:21.146Z","epd":0.1,"epx":1.0,"speed":10.25067742719649,"alt":0.0,"epy":1.0,"track":258.7398668321405,"class":"TPV","lat":52.16796797164073,"mode":3}
{"ept":0.001,"eps":0.1,"epv":1.0,"lon":4.825357090859003,"time":"2015-09-24T10:55:22.146Z","epd":0.1,"epx":1.0,"speed":10.25067742719649,"alt":0.0,"epy":1.0,"track":258.7398668321405,"class":"TPV","lat":52.16794997094537,"mode":3}
{"ept":0.001,"eps":0.1,"epv":1.0,"lon":4.825209577405962,"time":"2015-09-24T10:55:23.146Z","epd":0.1,"epx":1.0,"speed":10.25067742719649,"alt":0.0,"epy":1.0,"track":258.7398668321405,"class":"TPV","lat":52.16793197025001,"mode":3}
{"ept":0.001,"eps":0.1,"epv":1.0,"lon":4.825062063952921,"time":"2015-09-24T10:55:24.146Z","epd":0.1,"epx":1.0,"speed":10.25067742719649,"alt":0.0,"epy":1.0,"track":258.7398668321405,"class":"TPV","lat":52.167913969554654,"mode":3}
{"ept":0.001,"eps":0.1,"epv":1.0,"lon":4.82491455049988,"time":"2015-09-24T10:55:25.146Z","epd":0.1,"epx":1.0,"speed":10.25067742719649,"alt":0.0,"epy":1.0,"track":258.7398668321405,"class":"TPV","lat":52.1678959688593,"mode":3}
{"ept":0.001,"eps":0.1,"epv":1.0,"lon":4.824767037046839,"time":"2015-09-24T10:55:26.146Z","epd":0.1,"epx":1.0,"speed":10.25067742719649,"alt":0.0,"epy":1.0,"track":258.7398668321405,"class":"TPV","lat":52.167877968163936,"mode":3}
{"ept":0.001,"eps":0.1,"epv":1.0,"lon":4.824619523593798,"time":"2015-09-24T10:55:27.146Z","epd":0.1,"epx":1.0,"speed":10.25067742719649,"alt":0.0,"epy":1.0,"track":258.7398668321405,"class":"TPV","lat":52.16785996746858,"mode":3}
{"ept":0.001,"eps":0.1,"epv":1.0,"lon":4.824472010140756,"time":"2015-09-24T10:55:28.146Z","epd":0.1,"epx":1.0,"speed":10.25067742719649,"alt":0.0,"epy":1.0,"track":258.7398668321405,"class":"TPV","lat":52.16784196677322,"mode":3}
{"ept":0.001,"eps":0.1,"epv":1.0,"lon":4.824324496687715,"time":"2015-09-24T10:55:29.146Z","epd":0.1,"epx":1.0,"speed":10.25067742719649,"alt":0.0,"epy":1.0,"track":258.7398668321405,"class":"TPV","lat":52.16782396607786,"mode":3}
{"ept":0.001,"eps":0.1,"epv":1.0,"lon":4.824176983234674,"time":"2015-09-24T10:55:30.146Z","epd":0.1,"epx":1.0,"speed":10.25067742719649,"alt":0.0,"epy":1.0,"track":258.7398668321405,"class":"TPV","lat":52.167805965382506,"mode":3}
{"ept":0.001,"eps":0.1,"epv":1.0,"lon":4.824029469781633,"time":"2015-09-24T10:55:31.146Z","epd":0.1,"epx":1.0,"speed":10.25067742719649,"alt":0.0,"epy":1.0,"track":258.7398668321405,"class":"TPV","lat":52.16778796468714,"mode":3}
{"ept":0.001,"eps":0.1,"epv":1.0,"lon":4.8238819563285915,"time":"2015-09-24T10:55:32.146Z","epd":0.1,"epx":1.0,"speed":10.25067742719649,"alt":0.0,"epy":1.0,"track":258.7398668321405,"class":"TPV","lat":52.16776996399179,"mode":3}
{"ept":0.001,"eps":0.1,"epv":1.0,"lon":4.82373444287555,"time":"2015-09-24T10:55:33.146Z","epd":0.1,"epx":1.0,"speed":10.25067742719649,"alt":0.0,"epy":1.0,"track":258.7398668321405,"class":"TPV","lat":52.16775196329643,"mode":3}
{"ept":0.001,"eps":0.1,"epv":1.0,"lon":4.823586929422508,"time":"2015-09-24T10:55:34.146Z","epd":0.1,"epx":1.0,"speed":10.25067742719649,"alt":0.0,"epy":1.0,"track":258.7398668321405,"class":"TPV","lat":52.16773396260107,"mode":3}
{"ept":0.001,"eps":0.1,"epv":1.0,"lon":4.823439415969467,"time":"2015-09-24T10:55:35.146Z","epd":0.1,"epx":1.0,"speed":10.25067742719649,"alt":0.0,"epy":1.0,"track":258.7398668321405,"class":"TPV","lat":52.167715961905714,"mode":3}
{"ept":0.001,"eps":0.1,"epv":1.0,"lon":4.823291902516426,"time":"2015-09-24T10:55:36.146Z","epd":0.1,"epx":1.0,"speed":10.25067742719649,"alt":0.0,"epy":1.0,"track":258.7398668321405,"class":"TPV","lat":52.16769796121035,"mode":3}
{"ept":0.001,"eps":0.1,"epv":1.0,"lon":4.823144389063385,"time":"2015-09-24T10:55:37.146Z","epd":0.1,"epx":1.0,"speed":10.25067742719649,"alt":0.0,"epy":1.0,"track":258.7398668321405,"class":"TPV","lat":52.167679960514995,"mode":3}
{"ept":0.001,"eps":0.1,"epv":1.0,"lon":4.822996875610344,"time":"2015-09-24T10:55:38.146Z","epd":0.1,"epx":1.0,"speed":10.25067742719649,"alt":0.0,"epy":1.0,"track":258.7398668321405,"class":"TPV","lat":52.16766195981964,"mode":3}
{"ept":0.001,"eps":0.1,"epv":1.0,"lon":4.822849362157303,"time":"2015-09-24T10:55:39.146Z","epd":0.1,"epx":1.0,"speed":10.25067742719649,"alt":0.0,"epy":1.0,"track":258.7398668321405,"class":"TPV","lat":52.16764395912428,"mode":3}
{"ept":0.001,"eps":0.1,"epv":1.0,"lon":4.822701848704261,"time":"2015-09-24T10:55:40.146Z","epd":0.1,"epx":1.0,"speed":10.25067742719649,"alt":0.0,"epy":1.0,"track":258.7398668321405,"class":"TPV","lat":52.16762595842892,"mode":3}
{"ept":0.001,"eps":0.1,"epv":1.0,"lon":4.82255433525122,"time":"2015-09-24T10:55:41.146Z","epd":0.1,"epx":1.0,"speed":10.25067742719649,"alt":0.0,"epy":1.0,"track":258.7398668321405,"class":"TPV","lat":52.16760795773356,"mode":3}
{"ept":0.001,"eps":0.1,"epv":1.0,"lon":4.822406821798179,"time":"2015-09-24T10:55:42.146Z","epd":0.1,"epx":1.0,"speed":10.25067742719649,"alt":0.0,"epy":1.0,"track":258.7398668321405,"class":"TPV","lat":52.1675899570382,"mode":3}
{"ept":0.001,"eps":0.1,"epv":1.0,"lon":4.822259308345138,"time":"2015-09-24T10:55:43.146Z","epd":0.1,"epx":1.0,"speed":10.25067742719649,"alt":0.0,"epy":1.0,"track":258.7398668321405,"class":"TPV","lat":52.16757195634285,"mode":3}
{"ept":0.001,"eps":0.1,"epv":1.0,"lon":4.822111794892097,"time":"2015-09-24T10:55:44.145Z","epd":0.1,"epx":1.0,"speed":10.25067742719649,"alt":0.0,"epy":1.0,"track":258.7398668321405,"class":"TPV","lat":52.167553955647485,"mode":3}
{"ept":0.001,"eps":0.1,"epv":1.0,"lon":4.8219642814390555,"time":"2015-09-24T10:55:45.146Z","epd":0.1,"epx":1.0,"speed":10.25067742719649,"alt":0.0,"epy":1.0,"track":258.7398668321405,"class":"TPV","lat":52.16753595495213,"mode":3}
{"ept":0.001,"eps":0.1,"epv":1.0,"lon":4.821816767986014,"time":"2015-09-24T10:55:46.146Z","epd":0.1,"epx":1.0,"speed":10.25067742719649,"alt":0.0,"epy":1.0,"track":258.7398668321405,"class":"TPV","lat":52.16751795425677,"mode":3}
{"ept":0.001,"eps":0.1,"epv":1.0,"lon":4.8216692545329725,"time":"2015-09-24T10:55:47.146Z","epd":0.1,"epx":1.0,"speed":10.25067742719649,"alt":0.0,"epy":1.0,"track":258.7398668321405,"class":"TPV","lat":52.16749995356141,"mode":3}
{"ept":0.001,"eps":0.1,"epv":1.0,"lon":4.821521741079931,"time":"2015-09-24T10:55:48.146Z","epd":0.1,"epx":1.0,"speed":10.25067742719649,"alt":0.0,"epy":1.0,"track":258.7398668321405,"class":"TPV","lat":52.167481952866055,"mode":3}
{"ept":0.001,"eps":0.1,"epv":1.0,"lon":4.82137422762689,"time":"2015-09-24T10:55:49.145Z","epd":0.1,"epx":1.0,"speed":10.25067742719649,"alt":0.0,"epy":1.0,"track":258.7398668321405,"class":"TPV","lat":52.16746395217069,"mode":3}
{"ept":0.001,"eps":0.1,"epv":1.0,"lon":4.821226714173849,"time":"2015-09-24T10:55:50.145Z","epd":0.1,"epx":1.0,"speed":10.25067742719649,"alt":0.0,"epy":1.0,"track":258.7398668321405,"class":"TPV","lat":52.16744595147534,"mode":3}
{"ept":0.001,"eps":0.1,"epv":1.0,"lon":4.821079200720808,"time":"2015-09-24T10:55:51.145Z","epd":0.1,"epx":1.0,"speed":10.25067742719649,"alt":0.0,"epy":1.0,"track":258.7398668321405,"class":"TPV","lat":52.16742795077998,"mode":3}
{"ept":0.001,"eps":0.1,"epv":1.0,"lon":4.820931687267767,"time":"2015-09-24T10:55:52.145Z","epd":0.1,"epx":1.0,"speed":10.25067742719649,"alt":0.0,"epy":1.0,"track":258.7398668321405,"class":"TPV","lat":52.16740995008462,"mode":3}
{"ept":0.001,"eps":0.1,"epv":1.0,"lon":4.820784173814725,"time":"2015-09-24T10:55:53.145Z","epd":0.1,"epx":1.0,"speed":10.25067742719649,"alt":0.0,"epy":1.0,"track":258.7398668321405,"class":"TPV","lat":52.16739194938926,"mode":3}
{"ept":0.001,"eps":0.1,"epv":1.0,"lon":4.820636660361684,"time":"2015-09-24T10:55:54.145Z","epd":0.1,"epx":1.0,"speed":10.25067742719649,"alt":0.0,"epy":1.0,"track":258.7398668321405,"class":"TPV","lat":52.16737394869391,"mode":3}
{"ept":0.001,"eps":0.1,"epv":1.0,"lon":4.820489146908643,"time":"2015-09-24T10:55:55.145Z","epd":0.1,"epx":1.0,"speed":10.25067742719649,"alt":0.0,"epy":1.0,"track":258.7398668321405,"class":"TPV","lat":52.167355947998544,"mode":3}
{"ept":0.001,"eps":0.1,"epv":1.0,"lon":4.820341633455602,"time":"2015-09-24T10:55:56.145Z","epd":0.1,"epx":1.0,"speed":10.25067742719649,"alt":0.0,"epy":1.0,"track":258.7398668321405,"class":"TPV","lat":52.16733794730319,"mode":3}
{"ept":0.001,"eps":0.1,"epv":1.0,"lon":4.820194120002561,"time":"2015-09-24T10:55:57.145Z","epd":0.1,"epx":1.0,"speed":10.25067742719649,"alt":0.0,"epy":1.0,"track":258.7398668321405,"class":"TPV","lat":52.167319946607826,"mode":3}
{"ept":0.001,"eps":0.1,"epv":1.0,"lon":4.8200466065495196,"time":"2015-09-24T10:55:58.145Z","epd":0.1,"epx":1.0,"speed":10.25067742719649,"alt":0.0,"epy":1.0,"track":258.7398668321405,"class":"TPV","lat":52.16730194591247,"mode":3}
{"ept":0.001,"eps":0.1,"epv":1.0,"lon":4.8198990930964785,"time":"2015-09-24T10:55:59.145Z","epd":0.1,"epx":1.0,"speed":10.25067742719649,"alt":0.0,"epy":1.0,"track":258.7398668321405,"class":"TPV","lat":52.167283945217115,"mode":3}
{"ept":0.001,"eps":0.1,"epv":1.0,"lon":4.8197515796434365,"time":"2015-09-24T10:56:00.145Z","epd":0.1,"epx":1.0,"speed":10.25067742719649,"alt":0.0,"epy":1.0,"track":258.7398668321405,"class":"TPV","lat":52.16726594452175,"mode":3}
{"ept":0.001,"eps":0.1,"epv":1.0,"lon":4.819604066190395,"time":"2015-09-24T10:56:01.146Z","epd":0.1,"epx":1.0,"speed":10.25067742719649,"alt":0.0,"epy":1.0,"track":258.7398668321405,"class":"TPV","lat":52.167247943826396,"mode":3}
{"ept":0.001,"eps":0.1,"epv":1.0,"lon":4.819456552737354,"time":"2015-09-24T10:56:02.146Z","epd":0.1,"epx":1.0,"speed":10.25067742719649,"alt":0.0,"epy":1.0,"track":258.7398668321405,"class":"TPV","lat":52.167229943131034,"mode":3}
{"ept":0.001,"eps":0.1,"epv":1.0,"lon":4.819309039284313,"time":"2015-09-24T10:56:03.146Z","epd":0.1,"epx":1.0,"speed":10.25067742719649,"alt":0.0,"epy":1.0,"track":258.7398668321405,"class":"TPV","lat":52.16721194243568,"mode":3}
{"ept":0.001,"eps":0.1,"epv":1.0,"lon":4.819161525831272,"time":"2015-09-24T10:56:04.146Z","epd":0.1,"epx":1.0,"speed":10.25067742719649,"alt":0.0,"epy":1.0,"track":258.7398668321405,"class":"TPV","lat":52.16719394174032,"mode":3}
{"ept":0.001,"eps":0.1,"epv":1.0,"lon":4.819014012378231,"time":"2015-09-24T10:56:05.146Z","epd":0.1,"epx":1.0,"speed":10.25067742719649,"alt":0.0,"epy":1.0,"track":258.7398668321405,"class":"TPV","lat":52.16717594104496,"mode":3}
{"ept":0.001,"eps":0.1,"epv":1.0,"lon":4.818866498925189,"time":"2015-09-24T10:56:06.146Z","epd":0.1,"epx":1.0,"speed":10.25067742719649,"alt":0.0,"epy":1.0,"track":258.7398668321405,"class":"TPV","lat":52.167157940349604,"mode":3}
{"ept":0.001,"eps":0.1,"epv":1.0,"lon":4.818718985472148,"time":"2015-09-24T10:56:07.146Z","epd":0.1,"epx":1.0,"speed":10.25067742719649,"alt":0.0,"epy":1.0,"track":258.7398668321405,"class":"TPV","lat":52.16713993965425,"mode":3}
{"ept":0.001,"eps":0.1,"epv":1.0,"lon":4.818571472019107,"time":"2015-09-24T10:56:08.146Z","epd":0.1,"epx":1.0,"speed":10.25067742719649,"alt":0.0,"epy":1.0,"track":258.7398668321405,"class":"TPV","lat":52.167121938958886,"mode":3}
{"ept":0.001,"eps":0.1,"epv":1.0,"lon":4.818423958566066,"time":"2015-09-24T10:56:09.146Z","epd":0.1,"epx":1.0,"speed":10.25067742719649,"alt":0.0,"epy":1.0,"track":258.7398668321405,"class":"TPV","lat":52.16710393826353,"mode":3}
{"ept":0.001,"eps":0.1,"epv":1.0,"lon":4.818276445113025,"time":"2015-09-24T10:56:10.146Z","epd":0.1,"epx":1.0,"speed":10.25067742719649,"alt":0.0,"epy":1.0,"track":258.7398668321405,"class":"TPV","lat":52.16708593756817,"mode":3}
{"ept":0.001,"eps":0.1,"epv":1.0,"lon":4.818128931659984,"time":"2015-09-24T10:56:11.146Z","epd":0.1,"epx":1.0,"speed":10.25067742719649,"alt":0.0,"epy":1.0,"track":258.7398668321405,"class":"TPV","lat":52.16706793687281,"mode":3}
{"ept":0.001,"eps":0.1,"epv":1.0,"lon":4.8179814182069425,"time":"2015-09-24T10:56:12.146Z","epd":0.1,"epx":1.0,"speed":10.25067742719649,"alt":0.0,"epy":1.0,"track":258.7398668321405,"class":"TPV","lat":52.167049936177456,"mode":3}
{"ept":0.001,"eps":0.1,"epv":1.0,"lon":4.8178339047539005,"time":"2015-09-24T10:56:13.146Z","epd":0.1,"epx":1.0,"speed":10.25067742719649,"alt":0.0,"epy":1.0,"track":258.7398668321405,"class":"TPV","lat":52.16703193548209,"mode":3}
{"ept":0.001,"eps":0.1,"epv":1.0,"lon":4.817686391300859,"time":"2015-09-24T10:56:14.146Z","epd":0.1,"epx":1.0,"speed":10.25067742719649,"alt":0.0,"epy":1.0,"track":258.7398668321405,"class":"TPV","lat":52.16701393478674,"mode":3}
{"ept":0.001,"eps":0.1,"epv":1.0,"lon":4.817538877847818,"time":"2015-09-24T10:56:15.146Z","epd":0.1,"epx":1.0,"speed":10.25067742719649,"alt":0.0,"epy":1.0,"track":258.7398668321405,"class":"TPV","lat":52.16699593409138,"mode":3}
{"ept":0.001,"eps":0.1,"epv":1.0,"lon":4.817391364394777,"time":"2015-09-24T10:56:16.146Z","epd":0.1,"epx":1.0,"speed":10.25067742719649,"alt":0.0,"epy":1.0,"track":258.7398668321405,"class":"TPV","lat":52.16697793339602,"mode":3}
{"ept":0.001,"eps":0.1,"epv":1.0,"lon":4.817243850941736,"time":"2015-09-24T10:56:17.146Z","epd":0.1,"epx":1.0,"speed":10.25067742719649,"alt":0.0,"epy":1.0,"track":258.7398668321405,"class":"TPV","lat":52.166959932700664,"mode":3}
{"ept":0.001,"eps":0.1,"epv":1.0,"lon":4.817096337488695,"time":"2015-09-24T10:56:18.146Z","epd":0.1,"epx":1.0,"speed":10.25067742719649,"alt":0.0,"epy":1.0,"track":258.7398668321405,"class":"TPV","lat":52.1669419320053,"mode":3}
{"ept":0.001,"eps":0.1,"epv":1.0,"lon":4.816948824035653,"time":"2015-09-24T10:56:19.146Z","epd":0.1,"epx":1.0,"speed":10.25067742719649,"alt":0.0,"epy":1.0,"track":258.7398668321405,"class":"TPV","lat":52.166923931309945,"mode":3}
{"ept":0.001,"eps":0.1,"epv":1.0,"lon":4.816801310582612,"time":"2015-09-24T10:56:20.146Z","epd":0.1,"epx":1.0,"speed":10.25067742719649,"alt":0.0,"epy":1.0,"track":258.7398668321405,"class":"TPV","lat":52.16690593061459,"mode":3}
{"ept":0.001,"eps":0.1,"epv":1.0,"lon":4.816653797129571,"time":"2015-09-24T10:56:21.146Z","epd":0.1,"epx":1.0,"speed":10.25067742719649,"alt":0.0,"epy":1.0,"track":258.7398668321405,"class":"TPV","lat":52.16688792991923,"mode":3}
{"ept":0.001,"eps":0.1,"epv":1.0,"lon":4.81650628367653,"time":"2015-09-24T10:56:22.146Z","epd":0.1,"epx":1.0,"speed":10.25067742719649,"alt":0.0,"epy":1.0,"track":258.7398668321405,"class":"TPV","lat":52.16686992922387,"mode":3}
{"ept":0.001,"eps":0.1,"epv":1.0,"lon":4.816358770223489,"time":"2015-09-24T10:56:23.146Z","epd":0.1,"epx":1.0,"speed":10.25067742719649,"alt":0.0,"epy":1.0,"track":258.7398668321405,"class":"TPV","lat":52.16685192852851,"mode":3}
{"ept":0.001,"eps":0.1,"epv":1.0,"lon":4.816211256770448,"time":"2015-09-24T10:56:24.146Z","epd":0.1,"epx":1.0,"speed":10.25067742719649,"alt":0.0,"epy":1.0,"track":258.7398668321405,"class":"TPV","lat":52.16683392783315,"mode":3}
{"ept":0.001,"eps":0.1,"epv":1.0,"lon":4.8160637433174065,"time":"2015-09-24T10:56:25.145Z","epd":0.1,"epx":1.0,"speed":10.25067742719649,"alt":0.0,"epy":1.0,"track":258.7398668321405,"class":"TPV","lat":52.1668159271378,"mode":3}
{"ept":0.001,"eps":0.1,"epv":1.0,"lon":4.8159162298643645,"time":"2015-09-24T10:56:26.145Z","epd":0.1,"epx":1.0,"speed":10.25067742719649,"alt":0.0,"epy":1.0,"track":258.7398668321405,"class":"TPV","lat":52.166797926442435,"mode":3}
{"ept":0.001,"eps":0.1,"epv":1.0,"lon":4.815768716411323,"time":"2015-09-24T10:56:27.146Z","epd":0.1,"epx":1.0,"speed":10.25067742719649,"alt":0.0,"epy":1.0,"track":258.7398668321405,"class":"TPV","lat":52.16677992574708,"mode":3}
{"ept":0.001,"eps":0.1,"epv":1.0,"lon":4.815621202958282,"time":"2015-09-24T10:56:28.146Z","epd":0.1,"epx":1.0,"speed":10.25067742719649,"alt":0.0,"epy":1.0,"track":258.7398668321405,"class":"TPV","lat":52.16676192505172,"mode":3}
{"ept":0.001,"eps":0.1,"epv":1.0,"lon":4.815473689505241,"time":"2015-09-24T10:56:29.146Z","epd":0.1,"epx":1.0,"speed":10.25067742719649,"alt":0.0,"epy":1.0,"track":258.7398668321405,"class":"TPV","lat":52.16674392435636,"mode":3}
{"ept":0.001,"eps":0.1,"epv":1.0,"lon":4.8153261760522,"time":"2015-09-24T10:56:30.146Z","epd":0.1,"epx":1.0,"speed":10.25067742719649,"alt":0.0,"epy":1.0,"track":258.7398668321405,"class":"TPV","lat":52.166725923661005,"mode":3}
{"ept":0.001,"eps":0.1,"epv":1.0,"lon":4.815178662599159,"time":"2015-09-24T10:56:31.146Z","epd":0.1,"epx":1.0,"speed":10.25067742719649,"alt":0.0,"epy":1.0,"track":258.7398668321405,"class":"TPV","lat":52.16670792296564,"mode":3}
{"ept":0.001,"eps":0.1,"epv":1.0,"lon":4.815031149146117,"time":"2015-09-24T10:56:32.146Z","epd":0.1,"epx":1.0,"speed":10.25067742719649,"alt":0.0,"epy":1.0,"track":258.7398668321405,"class":"TPV","lat":52.16668992227029,"mode":3}
{"ept":0.001,"eps":0.1,"epv":1.0,"lon":4.814883635693076,"time":"2015-09-24T10:56:33.146Z","epd":0.1,"epx":1.0,"speed":10.25067742719649,"alt":0.0,"epy":1.0,"track":258.7398668321405,"class":"TPV","lat":52.16667192157493,"mode":3}
{"ept":0.001,"eps":0.1,"epv":1.0,"lon":4.814736122240035,"time":"2015-09-24T10:56:34.146Z","epd":0.1,"epx":1.0,"speed":10.25067742719649,"alt":0.0,"epy":1.0,"track":258.7398668321405,"class":"TPV","lat":52.16665392087957,"mode":3}
{"ept":0.001,"eps":0.1,"epv":1.0,"lon":4.814588608786994,"time":"2015-09-24T10:56:35.146Z","epd":0.1,"epx":1.0,"speed":10.25067742719649,"alt":0.0,"epy":1.0,"track":258.7398668321405,"class":"TPV","lat":52.16663592018421,"mode":3}
{"ept":0.001,"eps":0.1,"epv":1.0,"lon":4.814441095333953,"time":"2015-09-24T10:56:36.146Z","epd":0.1,"epx":1.0,"speed":10.25067742719649,"alt":0.0,"epy":1.0,"track":258.7398668321405,"class":"TPV","lat":52.16661791948886,"mode":3}
{"ept":0.001,"eps":0.1,"epv":1.0,"lon":4.814293581880912,"time":"2015-09-24T10:56:37.146Z","epd":0.1,"epx":1.0,"speed":10.25067742719649,"alt":0.0,"epy":1.0,"track":258.7398668321405,"class":"TPV","lat":52.166599918793494,"mode":3}
{"ept":0.001,"eps":0.1,"epv":1.0,"lon":4.81414606842787,"time":"2015-09-24T10:56:38.145Z","epd":0.1,"epx":1.0,"speed":10.25067742719649,"alt":0.0,"epy":1.0,"track":258.7398668321405,"class":"TPV","lat":52.16658191809814,"mode":3}
{"ept":0.001,"eps":0.1,"epv":1.0,"lon":4.8139985549748285,"time":"2015-09-24T10:56:39.145Z","epd":0.1,"epx":1.0,"speed":10.25067742719649,"alt":0.0,"epy":1.0,"track":258.7398668321405,"class":"TPV","lat":52.166563917402776,"mode":3}
{"ept":0.001,"eps":0.1,"epv":1.0,"lon":4.813851041521787,"time":"2015-09-24T10:56:40.145Z","epd":0.1,"epx":1.0,"speed":10.25067742719649,"alt":0.0,"epy":1.0,"track":258.7398668321405,"class":"TPV","lat":52.16654591670742,"mode":3}
{"ept":0.001,"eps":0.1,"epv":1.0,"lon":4.813703528068746,"time":"2015-09-24T10:56:41.146Z","epd":0.1,"epx":1.0,"speed":10.25067742719649,"alt":0.0,"epy":1.0,"track":258.7398668321405,"class":"TPV","lat":52.166527916012065,"mode":3}
{"ept":0.001,"eps":0.1,"epv":1.0,"lon":4.813556014615705,"time":"2015-09-24T10:56:42.146Z","epd":0.1,"epx":1.0,"speed":10.25067742719649,"alt":0.0,"epy":1.0,"track":258.7398668321405,"class":"TPV","lat":52.1665099153167,"mode":3}
{"ept":0.001,"eps":0.1,"epv":1.0,"lon":4.813408501162664,"time":"2015-09-24T10:56:43.146Z","epd":0.1,"epx":1.0,"speed":10.25067742719649,"alt":0.0,"epy":1.0,"track":258.7398668321405,"class":"TPV","lat":52.166491914621346,"mode":3}
{"ept":0.001,"eps":0.1,"epv":1.0,"lon":4.813260987709623,"time":"2015-09-24T10:56:44.146Z","epd":0.1,"epx":1.0,"speed":10.25067742719649,"alt":0.0,"epy":1.0,"track":258.7398668321405,"class":"TPV","lat":52.166473913925984,"mode":3}
{"ept":0.001,"eps":0.1,"epv":1.0,"lon":4.813113474256581,"time":"2015-09-24T10:56:45.146Z","epd":0.1,"epx":1.0,"speed":10.25067742719649,"alt":0.0,"epy":1.0,"track":258.7398668321405,"class":"TPV","lat":52.16645591323063,"mode":3}
{"ept":0.001,"eps":0.1,"epv":1.0,"lon":4.81296596080354,"time":"2015-09-24T10:56:46.146Z","epd":0.1,"epx":1.0,"speed":10.25067742719649,"alt":0.0,"epy":1.0,"track":258.7398668321405,"class":"TPV","lat":52.16643791253527,"mode":3}
{"ept":0.001,"eps":0.1,"epv":1.0,"lon":4.812818447350499,"time":"2015-09-24T10:56:47.146Z","epd":0.1,"epx":1.0,"speed":10.25067742719649,"alt":0.0,"epy":1.0,"track":258.7398668321405,"class":"TPV","lat":52.16641991183991,"mode":3}
{"ept":0.001,"eps":0.1,"epv":1.0,"lon":4.812670933897458,"time":"2015-09-24T10:56:48.145Z","epd":0.1,"epx":1.0,"speed":10.25067742719649,"alt":0.0,"epy":1.0,"track":258.7398668321405,"class":"TPV","lat":52.166401911144554,"mode":3}
{"ept":0.001,"eps":0.1,"epv":1.0,"lon":4.812523420444417,"time":"2015-09-24T10:56:49.146Z","epd":0.1,"epx":1.0,"speed":10.25067742719649,"alt":0.0,"epy":1.0,"track":258.7398668321405,"class":"TPV","lat":52.1663839104492,"mode":3}
{"ept":0.001,"eps":0.1,"epv":1.0,"lon":4.812375906991376,"time":"2015-09-24T10:56:50.146Z","epd":0.1,"epx":1.0,"speed":10.25067742719649,"alt":0.0,"epy":1.0,"track":258.7398668321405,"class":"TPV","lat":52.166365909753836,"mode":3}
{"ept":0.001,"eps":0.1,"epv":1.0,"lon":4.812228393538334,"time":"2015-09-24T10:56:51.146Z","epd":0.1,"epx":1.0,"speed":10.25067742719649,"alt":0.0,"epy":1.0,"track":258.7398668321405,"class":"TPV","lat":52.16634790905848,"mode":3}
{"ept":0.001,"eps":0.1,"epv":1.0,"lon":4.8120808800852926,"time":"2015-09-24T10:56:52.145Z","epd":0.1,"epx":1.0,"speed":10.25067742719649,"alt":0.0,"epy":1.0,"track":258.7398668321405,"class":"TPV","lat":52.16632990836312,"mode":3}
{"ept":0.001,"eps":0.1,"epv":1.0,"lon":4.8119333666322515,"time":"2015-09-24T10:56:53.146Z","epd":0.1,"epx":1.0,"speed":10.25067742719649,"alt":0.0,"epy":1.0,"track":258.7398668321405,"class":"TPV","lat":52.16631190766776,"mode":3}
{"ept":0.001,"eps":0.1,"epv":1.0,"lon":4.81178585317921,"time":"2015-09-24T10:56:54.146Z","epd":0.1,"epx":1.0,"speed":10.25067742719649,"alt":0.0,"epy":1.0,"track":258.7398668321405,"class":"TPV","lat":52.166293906972406,"mode":3}
{"ept":0.001,"eps":0.1,"epv":1.0,"lon":4.811638339726169,"time":"2015-09-24T10:56:55.146Z","epd":0.1,"epx":1.0,"speed":10.25067742719649,"alt":0.0,"epy":1.0,"track":258.7398668321405,"class":"TPV","lat":52.16627590627704,"mode":3}
{"ept":0.001,"eps":0.1,"epv":1.0,"lon":4.811490826273128,"time":"2015-09-24T10:56:56.146Z","epd":0.1,"epx":1.0,"speed":10.25067742719649,"alt":0.0,"epy":1.0,"track":258.7398668321405,"class":"TPV","lat":52.16625790558169,"mode":3}
{"ept":0.001,"eps":0.1,"epv":1.0,"lon":4.811343312820087,"time":"2015-09-24T10:56:57.145Z","epd":0.1,"epx":1.0,"speed":10.25067742719649,"alt":0.0,"epy":1.0,"track":258.7398668321405,"class":"TPV","lat":52.16623990488633,"mode":3}
{"ept":0.001,"eps":0.1,"epv":1.0,"lon":4.811195799367045,"time":"2015-09-24T10:56:58.146Z","epd":0.1,"epx":1.0,"speed":10.25067742719649,"alt":0.0,"epy":1.0,"track":258.7398668321405,"class":"TPV","lat":52.16622190419097,"mode":3}
{"ept":0.001,"eps":0.1,"epv":1.0,"lon":4.811048285914004,"time":"2015-09-24T10:56:59.146Z","epd":0.1,"epx":1.0,"speed":10.25067742719649,"alt":0.0,"epy":1.0,"track":258.7398668321405,"class":"TPV","lat":52.166203903495614,"mode":3}
{"ept":0.001,"eps":0.1,"epv":1.0,"lon":4.810900772460963,"time":"2015-09-24T10:57:00.146Z","epd":0.1,"epx":1.0,"speed":10.25067742719649,"alt":0.0,"epy":1.0,"track":258.7398668321405,"class":"TPV","lat":52.16618590280025,"mode":3}
{"ept":0.001,"eps":0.1,"epv":1.0,"lon":4.810753259007922,"time":"2015-09-24T10:57:01.145Z","epd":0.1,"epx":1.0,"speed":10.25067742719649,"alt":0.0,"epy":1.0,"track":258.7398668321405,"class":"TPV","lat":52.166167902104895,"mode":3}
{"ept":0.001,"eps":0.1,"epv":1.0,"lon":4.810605745554881,"time":"2015-09-24T10:57:02.146Z","epd":0.1,"epx":1.0,"speed":10.25067742719649,"alt":0.0,"epy":1.0,"track":258.7398668321405,"class":"TPV","lat":52.16614990140954,"mode":3}
{"ept":0.001,"eps":0.1,"epv":1.0,"lon":4.81045823210184,"time":"2015-09-24T10:57:03.146Z","epd":0.1,"epx":1.0,"speed":10.25067742719649,"alt":0.0,"epy":1.0,"track":258.7398668321405,"class":"TPV","lat":52.16613190071418,"mode":3}
{"ept":0.001,"eps":0.1,"epv":1.0,"lon":4.810310718648798,"time":"2015-09-24T10:57:04.146Z","epd":0.1,"epx":1.0,"speed":10.25067742719649,"alt":0.0,"epy":1.0,"track":258.7398668321405,"class":"TPV","lat":52.16611390001882,"mode":3}
{"ept":0.001,"eps":0.1,"epv":1.0,"lon":4.810163205195757,"time":"2015-09-24T10:57:05.146Z","epd":0.1,"epx":1.0,"speed":10.25067742719649,"alt":0.0,"epy":1.0,"track":258.7398668321405,"class":"TPV","lat":52.16609589932346,"mode":3}
{"ept":0.001,"eps":0.1,"epv":1.0,"lon":4.8100156917427155,"time":"2015-09-24T10:57:06.145Z","epd":0.1,"epx":1.0,"speed":10.25067742719649,"alt":0.0,"epy":1.0,"track":258.7398668321405,"class":"TPV","lat":52.1660778986281,"mode":3}
{"ept":0.001,"eps":0.1,"epv":1.0,"lon":4.809868178289674,"time":"2015-09-24T10:57:07.146Z","epd":0.1,"epx":1.0,"speed":10.25067742719649,"alt":0.0,"epy":1.0,"track":258.7398668321405,"class":"TPV","lat":52.16605989793275,"mode":3}
{"ept":0.001,"eps":0.1,"epv":1.0,"lon":4.809720664836633,"time":"2015-09-24T10:57:08.146Z","epd":0.1,"epx":1.0,"speed":10.25067742719649,"alt":0.0,"epy":1.0,"track":258.7398668321405,"class":"TPV","lat":52.166041897237385,"mode":3}
{"ept":0.001,"eps":0.1,"epv":1.0,"lon":4.809573151383592,"time":"2015-09-24T10:57:09.146Z","epd":0.1,"epx":1.0,"speed":10.25067742719649,"alt":0.0,"epy":1.0,"track":258.7398668321405,"class":"TPV","lat":52.16602389654203,"mode":3}
{"ept":0.001,"eps":0.1,"epv":1.0,"lon":4.809425637930551,"time":"2015-09-24T10:57:10.145Z","epd":0.1,"epx":1.0,"speed":10.25067742719649,"alt":0.0,"epy":1.0,"track":258.7398668321405,"class":"TPV","lat":52.16600589584667,"mode":3}
{"ept":0.001,"eps":0.1,"epv":1.0,"lon":4.809278124477509,"time":"2015-09-24T10:57:11.146Z","epd":0.1,"epx":1.0,"speed":10.25067742719649,"alt":0.0,"epy":1.0,"track":258.7398668321405,"class":"TPV","lat":52.16598789515131,"mode":3}
{"ept":0.001,"eps":0.1,"epv":1.0,"lon":4.809130611024468,"time":"2015-09-24T10:57:12.146Z","epd":0.1,"epx":1.0,"speed":10.25067742719649,"alt":0.0,"epy":1.0,"track":258.7398668321405,"class":"TPV","lat":52.165969894455955,"mode":3}
{"ept":0.001,"eps":0.1,"epv":1.0,"lon":4.808983097571427,"time":"2015-09-24T10:57:13.146Z","epd":0.1,"epx":1.0,"speed":10.25067742719649,"alt":0.0,"epy":1.0,"track":258.7398668321405,"class":"TPV","lat":52.16595189376059,"mode":3}
{"ept":0.001,"eps":0.1,"epv":1.0,"lon":4.808835584118386,"time":"2015-09-24T10:57:14.146Z","epd":0.1,"epx":1.0,"speed":10.25067742719649,"alt":0.0,"epy":1.0,"track":258.7398668321405,"class":"TPV","lat":52.16593389306524,"mode":3}
{"ept":0.001,"eps":0.1,"epv":1.0,"lon":4.808688070665345,"time":"2015-09-24T10:57:15.145Z","epd":0.1,"epx":1.0,"speed":10.25067742719649,"alt":0.0,"epy":1.0,"track":258.7398668321405,"class":"TPV","lat":52.16591589236988,"mode":3}
{"ept":0.001,"eps":0.1,"epv":1.0,"lon":4.808540557212304,"time":"2015-09-24T10:57:16.146Z","epd":0.1,"epx":1.0,"speed":10.25067742719649,"alt":0.0,"epy":1.0,"track":258.7398668321405,"class":"TPV","lat":52.16589789167452,"mode":3}
{"ept":0.001,"eps":0.1,"epv":1.0,"lon":4.808393043759262,"time":"2015-09-24T10:57:17.146Z","epd":0.1,"epx":1.0,"speed":10.25067742719649,"alt":0.0,"epy":1.0,"track":258.7398668321405,"class":"TPV","lat":52.16587989097916,"mode":3}
{"ept":0.001,"eps":0.1,"epv":1.0,"lon":4.808245530306221,"time":"2015-09-24T10:57:18.146Z","epd":0.1,"epx":1.0,"speed":10.25067742719649,"alt":0.0,"epy":1.0,"track":258.7398668321405,"class":"TPV","lat":52.1658618902838,"mode":3}
{"ept":0.001,"eps":0.1,"epv":1.0,"lon":4.8080980168531795,"time":"2015-09-24T10:57:19.146Z","epd":0.1,"epx":1.0,"speed":10.25067742719649,"alt":0.0,"epy":1.0,"track":258.7398668321405,"class":"TPV","lat":52.165843889588444,"mode":3}
{"ept":0.001,"eps":0.1,"epv":1.0,"lon":4.807950503400138,"time":"2015-09-24T10:57:20.145Z","epd":0.1,"epx":1.0,"speed":10.25067742719649,"alt":0.0,"epy":1.0,"track":258.7398668321405,"class":"TPV","lat":52.16582588889309,"mode":3}
{"ept":0.001,"eps":0.1,"epv":1.0,"lon":4.807802989947097,"time":"2015-09-24T10:57:21.146Z","epd":0.1,"epx":1.0,"speed":10.25067742719649,"alt":0.0,"epy":1.0,"track":258.7398668321405,"class":"TPV","lat":52.165807888197726,"mode":3}
{"ept":0.001,"eps":0.1,"epv":1.0,"lon":4.807655476494056,"time":"2015-09-24T10:57:22.146Z","epd":0.1,"epx":1.0,"speed":10.25067742719649,"alt":0.0,"epy":1.0,"track":258.7398668321405,"class":"TPV","lat":52.16578988750237,"mode":3}
{"ept":0.001,"eps":0.1,"epv":1.0,"lon":4.807507963041015,"time":"2015-09-24T10:57:23.146Z","epd":0.1,"epx":1.0,"speed":10.25067742719649,"alt":0.0,"epy":1.0,"track":258.7398668321405,"class":"TPV","lat":52.165771886807015,"mode":3}
{"ept":0.001,"eps":0.1,"epv":1.0,"lon":4.807360449587973,"time":"2015-09-24T10:57:24.146Z","epd":0.1,"epx":1.0,"speed":10.25067742719649,"alt":0.0,"epy":1.0,"track":258.7398668321405,"class":"TPV","lat":52.16575388611165,"mode":3}
{"ept":0.001,"eps":0.1,"epv":1.0,"lon":4.807212936134932,"time":"2015-09-24T10:57:25.145Z","epd":0.1,"epx":1.0,"speed":10.25067742719649,"alt":0.0,"epy":1.0,"track":258.7398668321405,"class":"TPV","lat":52.1657358854163,"mode":3}
{"ept":0.001,"eps":0.1,"epv":1.0,"lon":4.807065422681891,"time":"2015-09-24T10:57:26.146Z","epd":0.1,"epx":1.0,"speed":10.25067742719649,"alt":0.0,"epy":1.0,"track":258.7398668321405,"class":"TPV","lat":52.165717884720934,"mode":3}
{"ept":0.001,"eps":0.1,"epv":1.0,"lon":4.80691790922885,"time":"2015-09-24T10:57:27.146Z","epd":0.1,"epx":1.0,"speed":10.25067742719649,"alt":0.0,"epy":1.0,"track":258.7398668321405,"class":"TPV","lat":52.16569988402558,"mode":3}
{"ept":0.001,"eps":0.1,"epv":1.0,"lon":4.806770395775809,"time":"2015-09-24T10:57:28.146Z","epd":0.1,"epx":1.0,"speed":10.25067742719649,"alt":0.0,"epy":1.0,"track":258.7398668321405,"class":"TPV","lat":52.16568188333022,"mode":3}
{"ept":0.001,"eps":0.1,"epv":1.0,"lon":4.806622882322768,"time":"2015-09-24T10:57:29.146Z","epd":0.1,"epx":1.0,"speed":10.25067742719649,"alt":0.0,"epy":1.0,"track":258.7398668321405,"class":"TPV","lat":52.16566388263486,"mode":3}
{"ept":0.001,"eps":0.1,"epv":1.0,"lon":4.806475368869726,"time":"2015-09-24T10:57:30.145Z","epd":0.1,"epx":1.0,"speed":10.25067742719649,"alt":0.0,"epy":1.0,"track":258.7398668321405,"class":"TPV","lat":52.165645881939504,"mode":3}
{"ept":0.001,"eps":0.1,"epv":1.0,"lon":4.806327855416685,"time":"2015-09-24T10:57:31.146Z","epd":0.1,"epx":1.0,"speed":10.25067742719649,"alt":0.0,"epy":1.0,"track":258.7398668321405,"class":"TPV","lat":52.16562788124415,"mode":3}
{"ept":0.001,"eps":0.1,"epv":1.0,"lon":4.8061803419636435,"time":"2015-09-24T10:57:32.146Z","epd":0.1,"epx":1.0,"speed":10.25067742719649,"alt":0.0,"epy":1.0,"track":258.7398668321405,"class":"TPV","lat":52.165609880548786,"mode":3}
{"ept":0.001,"eps":0.1,"epv":1.0,"lon":4.806032828510602,"time":"2015-09-24T10:57:33.146Z","epd":0.1,"epx":1.0,"speed":10.25067742719649,"alt":0.0,"epy":1.0,"track":258.7398668321405,"class":"TPV","lat":52.16559187985343,"mode":3}
{"ept":0.001,"eps":0.1,"epv":1.0,"lon":4.805885315057561,"time":"2015-09-24T10:57:34.146Z","epd":0.1,"epx":1.0,"speed":10.25067742719649,"alt":0.0,"epy":1.0,"track":258.7398668321405,"class":"TPV","lat":52.16557387915807,"mode":3}
{"ept":0.001,"eps":0.1,"epv":1.0,"lon":4.80573780160452,"time":"2015-09-24T10:57:35.145Z","epd":0.1,"epx":1.0,"speed":10.25067742719649,"alt":0.0,"epy":1.0,"track":258.7398668321405,"class":"TPV","lat":52.16555587846271,"mode":3}
{"ept":0.001,"eps":0.1,"epv":1.0,"lon":4.805590288151478,"time":"2015-09-24T10:57:36.146Z","epd":0.1,"epx":1.0,"speed":10.25067742719649,"alt":0.0,"epy":1.0,"track":258.7398668321405,"class":"TPV","lat":52.165537877767356,"mode":3}
{"ept":0.001,"eps":0.1,"epv":1.0,"lon":4.805442774698437,"time":"2015-09-24T10:57:37.146Z","epd":0.1,"epx":1.0,"speed":10.25067742719649,"alt":0.0,"epy":1.0,"track":258.7398668321405,"class":"TPV","lat":52.16551987707199,"mode":3}
{"ept":0.001,"eps":0.1,"epv":1.0,"lon":4.805295261245396,"time":"2015-09-24T10:57:38.146Z","epd":0.1,"epx":1.0,"speed":10.25067742719649,"alt":0.0,"epy":1.0,"track":258.7398668321405,"class":"TPV","lat":52.16550187637664,"mode":3}
{"ept":0.001,"eps":0.1,"epv":1.0,"lon":4.805147747792355,"time":"2015-09-24T10:57:39.145Z","epd":0.1,"epx":1.0,"speed":10.25067742719649,"alt":0.0,"epy":1.0,"track":258.7398668321405,"class":"TPV","lat":52.165483875681275,"mode":3}
{"ept":0.001,"eps":0.1,"epv":1.0,"lon":4.805018085626379,"time":"2015-09-24T10:57:40.146Z","epd":0.1,"epx":1.0,"speed":9.61951024872293,"alt":0.0,"epy":1.0,"track":59.90494065459953,"class":"TPV","lat":52.16546993870041,"mode":3}
{"ept":0.001,"eps":0.1,"epv":1.0,"lon":4.805140205740458,"time":"2015-09-24T10:57:41.146Z","epd":0.1,"epx":1.0,"speed":9.61951024872293,"alt":0.0,"epy":1.0,"track":59.90494065459953,"class":"TPV","lat":52.165513318107756,"mode":3}
{"ept":0.001,"eps":0.1,"epv":1.0,"lon":4.805262325854538,"time":"2015-09-24T10:57:42.146Z","epd":0.1,"epx":1.0,"speed":9.61951024872293,"alt":0.0,"epy":1.0,"track":59.90494065459953,"class":"TPV","lat":52.1655566975151,"mode":3}
{"ept":0.001,"eps":0.1,"epv":1.0,"lon":4.805384445968617,"time":"2015-09-24T10:57:43.146Z","epd":0.1,"epx":1.0,"speed":9.61951024872293,"alt":0.0,"epy":1.0,"track":59.90494065459953,"class":"TPV","lat":52.165600076922445,"mode":3}
{"ept":0.001,"eps":0.1,"epv":1.0,"lon":4.8055065660826966,"time":"2015-09-24T10:57:44.146Z","epd":0.1,"epx":1.0,"speed":9.61951024872293,"alt":0.0,"epy":1.0,"track":59.90494065459953,"class":"TPV","lat":52.16564345632978,"mode":3}
{"ept":0.001,"eps":0.1,"epv":1.0,"lon":4.805628686196775,"time":"2015-09-24T10:57:45.146Z","epd":0.1,"epx":1.0,"speed":9.61951024872293,"alt":0.0,"epy":1.0,"track":59.90494065459953,"class":"TPV","lat":52.16568683573713,"mode":3}
{"ept":0.001,"eps":0.1,"epv":1.0,"lon":4.805750806310854,"time":"2015-09-24T10:57:46.146Z","epd":0.1,"epx":1.0,"speed":9.61951024872293,"alt":0.0,"epy":1.0,"track":59.90494065459953,"class":"TPV","lat":52.16573021514447,"mode":3}
{"ept":0.001,"eps":0.1,"epv":1.0,"lon":4.805872926424934,"time":"2015-09-24T10:57:47.146Z","epd":0.1,"epx":1.0,"speed":9.61951024872293,"alt":0.0,"epy":1.0,"track":59.90494065459953,"class":"TPV","lat":52.165773594551816,"mode":3}
{"ept":0.001,"eps":0.1,"epv":1.0,"lon":4.805995046539013,"time":"2015-09-24T10:57:48.146Z","epd":0.1,"epx":1.0,"speed":9.61951024872293,"alt":0.0,"epy":1.0,"track":59.90494065459953,"class":"TPV","lat":52.16581697395916,"mode":3}
{"ept":0.001,"eps":0.1,"epv":1.0,"lon":4.806117166653093,"time":"2015-09-24T10:57:49.146Z","epd":0.1,"epx":1.0,"speed":9.61951024872293,"alt":0.0,"epy":1.0,"track":59.90494065459953,"class":"TPV","lat":52.165860353366504,"mode":3}
{"ept":0.001,"eps":0.1,"epv":1.0,"lon":4.8062392867671715,"time":"2015-09-24T10:57:50.146Z","epd":0.1,"epx":1.0,"speed":9.61951024872293,"alt":0.0,"epy":1.0,"track":59.90494065459953,"class":"TPV","lat":52.16590373277385,"mode":3}
{"ept":0.001,"eps":0.1,"epv":1.0,"lon":4.806361406881251,"time":"2015-09-24T10:57:51.146Z","epd":0.1,"epx":1.0,"speed":9.61951024872293,"alt":0.0,"epy":1.0,"track":59.90494065459953,"class":"TPV","lat":52.16594711218119,"mode":3}
{"ept":0.001,"eps":0.1,"epv":1.0,"lon":4.80648352699533,"time":"2015-09-24T10:57:52.145Z","epd":0.1,"epx":1.0,"speed":9.61951024872293,"alt":0.0,"epy":1.0,"track":59.90494065459953,"class":"TPV","lat":52.16599049158854,"mode":3}
{"ept":0.001,"eps":0.1,"epv":1.0,"lon":4.80660564710941,"time":"2015-09-24T10:57:53.145Z","epd":0.1,"epx":1.0,"speed":9.61951024872293,"alt":0.0,"epy":1.0,"track":59.90494065459953,"class":"TPV","lat":52.16603387099588,"mode":3}
{"ept":0.001,"eps":0.1,"epv":1.0,"lon":4.806727767223489,"time":"2015-09-24T10:57:54.146Z","epd":0.1,"epx":1.0,"speed":9.61951024872293,"alt":0.0,"epy":1.0,"track":59.90494065459953,"class":"TPV","lat":52.16607725040323,"mode":3}
{"ept":0.001,"eps":0.1,"epv":1.0,"lon":4.8068498873375685,"time":"2015-09-24T10:57:55.146Z","epd":0.1,"epx":1.0,"speed":9.61951024872293,"alt":0.0,"epy":1.0,"track":59.90494065459953,"class":"TPV","lat":52.16612062981057,"mode":3}
{"ept":0.001,"eps":0.1,"epv":1.0,"lon":4.806972007451647,"time":"2015-09-24T10:57:56.146Z","epd":0.1,"epx":1.0,"speed":9.61951024872293,"alt":0.0,"epy":1.0,"track":59.90494065459953,"class":"TPV","lat":52.166164009217916,"mode":3}
{"ept":0.001,"eps":0.1,"epv":1.0,"lon":4.807094127565727,"time":"2015-09-24T10:57:57.146Z","epd":0.1,"epx":1.0,"speed":9.61951024872293,"alt":0.0,"epy":1.0,"track":59.90494065459953,"class":"TPV","lat":52.16620738862526,"mode":3}
{"ept":0.001,"eps":0.1,"epv":1.0,"lon":4.807216247679806,"time":"2015-09-24T10:57:58.146Z","epd":0.1,"epx":1.0,"speed":9.61951024872293,"alt":0.0,"epy":1.0,"track":59.90494065459953,"class":"TPV","lat":52.166250768032604,"mode":3}
{"ept":0.001,"eps":0.1,"epv":1.0,"lon":4.807338367793886,"time":"2015-09-24T10:57:59.146Z","epd":0.1,"epx":1.0,"speed":9.61951024872293,"alt":0.0,"epy":1.0,"track":59.90494065459953,"class":"TPV","lat":52.16629414743995,"mode":3}
{"ept":0.001,"eps":0.1,"epv":1.0,"lon":4.8074604879079645,"time":"2015-09-24T10:58:00.146Z","epd":0.1,"epx":1.0,"speed":9.61951024872293,"alt":0.0,"epy":1.0,"track":59.90494065459953,"class":"TPV","lat":52.166337526847286,"mode":3}
{"ept":0.001,"eps":0.1,"epv":1.0,"lon":4.807582608022044,"time":"2015-09-24T10:58:01.146Z","epd":0.1,"epx":1.0,"speed":9.61951024872293,"alt":0.0,"epy":1.0,"track":59.90494065459953,"class":"TPV","lat":52.16638090625463,"mode":3}
{"ept":0.001,"eps":0.1,"epv":1.0,"lon":4.807704728136123,"time":"2015-09-24T10:58:02.146Z","epd":0.1,"epx":1.0,"speed":9.61951024872293,"alt":0.0,"epy":1.0,"track":59.90494065459953,"class":"TPV","lat":52.166424285661975,"mode":3}
{"ept":0.001,"eps":0.1,"epv":1.0,"lon":4.807826848250203,"time":"2015-09-24T10:58:03.146Z","epd":0.1,"epx":1.0,"speed":9.61951024872293,"alt":0.0,"epy":1.0,"track":59.90494065459953,"class":"TPV","lat":52.16646766506932,"mode":3}
{"ept":0.001,"eps":0.1,"epv":1.0,"lon":4.807948968364282,"time":"2015-09-24T10:58:04.146Z","epd":0.1,"epx":1.0,"speed":9.61951024872293,"alt":0.0,"epy":1.0,"track":59.90494065459953,"class":"TPV","lat":52.166511044476664,"mode":3}
{"ept":0.001,"eps":0.1,"epv":1.0,"lon":4.8080710884783615,"time":"2015-09-24T10:58:05.146Z","epd":0.1,"epx":1.0,"speed":9.61951024872293,"alt":0.0,"epy":1.0,"track":59.90494065459953,"class":"TPV","lat":52.16655442388401,"mode":3}
{"ept":0.001,"eps":0.1,"epv":1.0,"lon":4.80819320859244,"time":"2015-09-24T10:58:06.146Z","epd":0.1,"epx":1.0,"speed":9.61951024872293,"alt":0.0,"epy":1.0,"track":59.90494065459953,"class":"TPV","lat":52.16659780329135,"mode":3}
{"ept":0.001,"eps":0.1,"epv":1.0,"lon":4.80831532870652,"time":"2015-09-24T10:58:07.145Z","epd":0.1,"epx":1.0,"speed":9.61951024872293,"alt":0.0,"epy":1.0,"track":59.90494065459953,"class":"TPV","lat":52.1666411826987,"mode":3}
{"ept":0.001,"eps":0.1,"epv":1.0,"lon":4.808437448820599,"time":"2015-09-24T10:58:08.145Z","epd":0.1,"epx":1.0,"speed":9.61951024872293,"alt":0.0,"epy":1.0,"track":59.90494065459953,"class":"TPV","lat":52.16668456210604,"mode":3}
{"ept":0.001,"eps":0.1,"epv":1.0,"lon":4.808559568934679,"time":"2015-09-24T10:58:09.145Z","epd":0.1,"epx":1.0,"speed":9.61951024872293,"alt":0.0,"epy":1.0,"track":59.90494065459953,"class":"TPV","lat":52.166727941513386,"mode":3}
{"ept":0.001,"eps":0.1,"epv":1.0,"lon":4.808681689048758,"time":"2015-09-24T10:58:10.146Z","epd":0.1,"epx":1.0,"speed":9.61951024872293,"alt":0.0,"epy":1.0,"track":59.90494065459953,"class":"TPV","lat":52.16677132092073,"mode":3}
{"ept":0.001,"eps":0.1,"epv":1.0,"lon":4.8088038091628365,"time":"2015-09-24T10:58:11.146Z","epd":0.1,"epx":1.0,"speed":9.61951024872293,"alt":0.0,"epy":1.0,"track":59.90494065459953,"class":"TPV","lat":52.166814700328075,"mode":3}
{"ept":0.001,"eps":0.1,"epv":1.0,"lon":4.808925929276916,"time":"2015-09-24T10:58:12.146Z","epd":0.1,"epx":1.0,"speed":9.61951024872293,"alt":0.0,"epy":1.0,"track":59.90494065459953,"class":"TPV","lat":52.16685807973542,"mode":3}
{"ept":0.001,"eps":0.1,"epv":1.0,"lon":4.809048049390995,"time":"2015-09-24T10:58:13.146Z","epd":0.1,"epx":1.0,"speed":9.61951024872293,"alt":0.0,"epy":1.0,"track":59.90494065459953,"class":"TPV","lat":52.166901459142764,"mode":3}
{"ept":0.001,"eps":0.1,"epv":1.0,"lon":4.809170169505075,"time":"2015-09-24T10:58:14.146Z","epd":0.1,"epx":1.0,"speed":9.61951024872293,"alt":0.0,"epy":1.0,"track":59.90494065459953,"class":"TPV","lat":52.16694483855011,"mode":3}
{"ept":0.001,"eps":0.1,"epv":1.0,"lon":4.809292289619154,"time":"2015-09-24T10:58:15.146Z","epd":0.1,"epx":1.0,"speed":9.61951024872293,"alt":0.0,"epy":1.0,"track":59.90494065459953,"class":"TPV","lat":52.16698821795745,"mode":3}
{"ept":0.001,"eps":0.1,"epv":1.0,"lon":4.809414409733233,"time":"2015-09-24T10:58:16.146Z","epd":0.1,"epx":1.0,"speed":9.61951024872293,"alt":0.0,"epy":1.0,"track":59.90494065459953,"class":"TPV","lat":52.16703159736479,"mode":3}
{"ept":0.001,"eps":0.1,"epv":1.0,"lon":4.809536529847312,"time":"2015-09-24T10:58:17.145Z","epd":0.1,"epx":1.0,"speed":9.61951024872293,"alt":0.0,"epy":1.0,"track":59.90494065459953,"class":"TPV","lat":52.167074976772135,"mode":3}
{"ept":0.001,"eps":0.1,"epv":1.0,"lon":4.809658649961392,"time":"2015-09-24T10:58:18.146Z","epd":0.1,"epx":1.0,"speed":9.61951024872293,"alt":0.0,"epy":1.0,"track":59.90494065459953,"class":"TPV","lat":52.16711835617948,"mode":3}
